osm_id,h3level9,lat,lon,name,alt_names,name_en,name_bn,local_admin_name,admin0_name,admin2_name,addr_level,poi_addr_match,poi_class,poi_keywords,country,division,district,thana,union,region_hash
477231874.0,893cc26687bffff,22.0599881,92.3796806,Ruma Garison,,"Ruma Garison, Ruma, Bandarban Hill District, Chattogram Division, Bangladesh","রুমা গ্যারিসন, বান্দরবান পার্বত্য জেলা, চট্টগ্রাম বিভাগ, বাংলাদেশ",Ruma,বাংলাদেশ,চট্টগ্রাম বিভাগ,local_admin,boundaries,['police'],[],Bangladesh,Chittagong,Bandarban,Ruma,Ruma,336f4571b690be14a4b7ed66df30751b
1751595436.0,893cc2660cbffff,22.0692935,92.3013978,,,"Rowangchhari, Bandarban Hill District, Chattogram Division, Bangladesh","বান্দরবান পার্বত্য জেলা, চট্টগ্রাম বিভাগ, বাংলাদেশ",Rowangchhari,বাংলাদেশ,চট্টগ্রাম বিভাগ,local_admin,boundaries,['cafe'],[],Bangladesh,Chittagong,Bandarban,Rowangchhari,Tarachha,9d37466edc127248da7e413c2442678c
1751595447.0,893cc266e13ffff,22.065371,92.3522846,,,"Ruma, Bandarban Hill District, Chattogram Division, Bangladesh","বান্দরবান পার্বত্য জেলা, চট্টগ্রাম বিভাগ, বাংলাদেশ",Ruma,বাংলাদেশ,চট্টগ্রাম বিভাগ,local_admin,boundaries,['ferry_terminal'],[],Bangladesh,Chittagong,Bandarban,Ruma,Ruma,336f4571b690be14a4b7ed66df30751b
2633868683.0,893cdcd6407ffff,21.8203053,92.3795874,চিম্বুক,"['চিম্বুক', 'Chimbuk']","Chimbook, Bandarban Hill District, Chattogram Division, Bangladesh","চিম্বুক, বান্দরবান পার্বত্য জেলা, চট্টগ্রাম বিভাগ, বাংলাদেশ",,বাংলাদেশ,চট্টগ্রাম বিভাগ,admin2,boundaries,['peak'],[],Bangladesh,Chittagong,Bandarban,Thanchi,Balipara,a6c2aaa6a406400300699fc74b32c262
2831083551.0,893cdcd1977ffff,21.6523607,92.3119346,Alikadam Upazila Health Complex,,"Alikadam Upazila Health Complex, Bandarban Hill District, Chattogram Division, Bangladesh","আলিকাদম উপজিলা স্বাস্থ্য কমপ্লেক্স, বান্দরবান পার্বত্য জেলা, চট্টগ্রাম বিভাগ, বাংলাদেশ",,বাংলাদেশ,চট্টগ্রাম বিভাগ,admin2,boundaries,['hospital'],[],Bangladesh,Chittagong,Bandarban,Alikadam,Chokhyong,d939fff41bb7656140080dd8032388c9
4563662790.0,893cc26e8c3ffff,21.9128384,92.3244821,,['NIL GIRI Resorts'],"Bandarban Hill District, Chattogram Division, Bangladesh","বান্দরবান পার্বত্য জেলা, চট্টগ্রাম বিভাগ, বাংলাদেশ",,বাংলাদেশ,চট্টগ্রাম বিভাগ,admin2,boundaries,['motel'],[],Bangladesh,Chittagong,Bandarban,Ruma,Ghalangya,3f2afb5c24afda9011ccb9d00b5162cc
6625402785.0,893cdcd1977ffff,21.6529421,92.3129482,,['Alikadam'],"Bandarban Hill District, Chattogram Division, Bangladesh","বান্দরবান পার্বত্য জেলা, চট্টগ্রাম বিভাগ, বাংলাদেশ",,বাংলাদেশ,চট্টগ্রাম বিভাগ,admin2,boundaries,['fire_station'],[],Bangladesh,Chittagong,Bandarban,Alikadam,Chokhyong,d939fff41bb7656140080dd8032388c9
6625420985.0,893cdcd1947ffff,21.6502928,92.3072684,,['The Damtuya Inn'],"Bandarban Hill District, Chattogram Division, Bangladesh","বান্দরবান পার্বত্য জেলা, চট্টগ্রাম বিভাগ, বাংলাদেশ",,বাংলাদেশ,চট্টগ্রাম বিভাগ,admin2,boundaries,['guest_house'],[],Bangladesh,Chittagong,Bandarban,Alikadam,Chokhyong,d939fff41bb7656140080dd8032388c9
6636544900.0,893cdcd1973ffff,21.6505178,92.3077753,Alikadam Ideal School Of College,,"Alikadam Ideal School Of College, Bandarban Hill District, Chattogram Division, Bangladesh","কলেজের অ্যালিকাদম আদর্শ স্কুল, বান্দরবান পার্বত্য জেলা, চট্টগ্রাম বিভাগ, বাংলাদেশ",,বাংলাদেশ,চট্টগ্রাম বিভাগ,admin2,boundaries,['school'],[],Bangladesh,Chittagong,Bandarban,Alikadam,Chokhyong,d939fff41bb7656140080dd8032388c9
6636544901.0,893cdcd1973ffff,21.6529958,92.3092908,Alikadam Police Station,,"Alikadam Police Station, Bandarban Hill District, Chattogram Division, Bangladesh","আলিকাদম থানা, বান্দরবান পার্বত্য জেলা, চট্টগ্রাম বিভাগ, বাংলাদেশ",,বাংলাদেশ,চট্টগ্রাম বিভাগ,admin2,boundaries,['police'],[],Bangladesh,Chittagong,Bandarban,Alikadam,Chokhyong,d939fff41bb7656140080dd8032388c9
6636669380.0,893cdcc2693ffff,21.6520552,92.3180929,Green Hill,,"Green Hill, Bandarban Hill District, Chattogram Division, Bangladesh","সবুজ পাহাড়, বান্দরবান পার্বত্য জেলা, চট্টগ্রাম বিভাগ, বাংলাদেশ",,বাংলাদেশ,চট্টগ্রাম বিভাগ,admin2,boundaries,['ngo'],[],Bangladesh,Chittagong,Bandarban,Alikadam,Chokhyong,d939fff41bb7656140080dd8032388c9
6636690588.0,893cdcd1973ffff,21.6522221,92.308467,,,"Bandarban Hill District, Chattogram Division, Bangladesh","বান্দরবান পার্বত্য জেলা, চট্টগ্রাম বিভাগ, বাংলাদেশ",,বাংলাদেশ,চট্টগ্রাম বিভাগ,admin2,boundaries,['place_of_worship_muslim'],[],Bangladesh,Chittagong,Bandarban,Alikadam,Chokhyong,d939fff41bb7656140080dd8032388c9
6636690589.0,893cdcd193bffff,21.6557256,92.3118643,Alikadam Bus Stops,,"Alikadam Bus Stops, Bandarban Hill District, Chattogram Division, Bangladesh","আলিকাদম বাস স্টপস, বান্দরবান পার্বত্য জেলা, চট্টগ্রাম বিভাগ, বাংলাদেশ",,বাংলাদেশ,চট্টগ্রাম বিভাগ,street,boundaries,['bus_stop'],[],Bangladesh,Chittagong,Bandarban,Alikadam,Chokhyong,d939fff41bb7656140080dd8032388c9
6665385141.0,893cdcc26d3ffff,21.6449122,92.3126583,,,"Bandarban Hill District, Chattogram Division, Bangladesh","বান্দরবান পার্বত্য জেলা, চট্টগ্রাম বিভাগ, বাংলাদেশ",,বাংলাদেশ,চট্টগ্রাম বিভাগ,admin2,boundaries,['gate'],[],Bangladesh,Chittagong,Bandarban,Alikadam,Chokhyong,d939fff41bb7656140080dd8032388c9
6718194728.0,893cdcc2687ffff,21.6487889,92.3233455,,,"Bandarban Hill District, Chattogram Division, Bangladesh","বান্দরবান পার্বত্য জেলা, চট্টগ্রাম বিভাগ, বাংলাদেশ",,বাংলাদেশ,চট্টগ্রাম বিভাগ,admin2,boundaries,['gate'],[],Bangladesh,Chittagong,Bandarban,Alikadam,Chokhyong,d939fff41bb7656140080dd8032388c9
8298488117.0,893cdcd1973ffff,21.6529533,92.3093609,,,"Bandarban Hill District, Chattogram Division, Bangladesh","বান্দরবান পার্বত্য জেলা, চট্টগ্রাম বিভাগ, বাংলাদেশ",,বাংলাদেশ,চট্টগ্রাম বিভাগ,admin2,boundaries,['police'],[],Bangladesh,Chittagong,Bandarban,Alikadam,Chokhyong,d939fff41bb7656140080dd8032388c9
9143590029.0,893cdcc18d3ffff,21.5423672,92.3973289,,,"Alikadam, Bandarban Hill District, Chattogram Division, Bangladesh","বান্দরবান পার্বত্য জেলা, চট্টগ্রাম বিভাগ, বাংলাদেশ",Alikadam,বাংলাদেশ,চট্টগ্রাম বিভাগ,local_admin,boundaries,['ford'],[],Bangladesh,Chittagong,Bandarban,Alikadam,Chokhyong,d939fff41bb7656140080dd8032388c9
9272924005.0,893cdcd0d0fffff,21.7227952,92.3291867,,,"Bandarban Hill District, Chattogram Division, Bangladesh","বান্দরবান পার্বত্য জেলা, চট্টগ্রাম বিভাগ, বাংলাদেশ",,বাংলাদেশ,চট্টগ্রাম বিভাগ,admin2,boundaries,['ford'],[],Bangladesh,Chittagong,Bandarban,Alikadam,Chokhyong,d939fff41bb7656140080dd8032388c9
9530594595.0,893cdcd192fffff,21.6558658,92.319835,ALIKADAM RESIDENTIAL SCHOOL,,"ALIKADAM RESIDENTIAL SCHOOL, Bandarban Hill District, Chattogram Division, Bangladesh","আলিকাদম আবাসিক স্কুল, বান্দরবান পার্বত্য জেলা, চট্টগ্রাম বিভাগ, বাংলাদেশ",,বাংলাদেশ,চট্টগ্রাম বিভাগ,admin2,boundaries,"['educational_institution', 'school']",[],Bangladesh,Chittagong,Bandarban,Alikadam,Chokhyong,d939fff41bb7656140080dd8032388c9
9530594596.0,893cdcd196bffff,21.6462885,92.3122742,ALIKADAM CANTONMENT PUBLIC SCHOOL,,"ALIKADAM CANTONMENT PUBLIC SCHOOL, Bandarban Hill District, Chattogram Division, Bangladesh","আলিকাদম ক্যান্টনমেন্ট পাবলিক স্কুল, বান্দরবান পার্বত্য জেলা, চট্টগ্রাম বিভাগ, বাংলাদেশ",,বাংলাদেশ,চট্টগ্রাম বিভাগ,admin2,boundaries,"['educational_institution', 'school']",[],Bangladesh,Chittagong,Bandarban,Alikadam,Chokhyong,d939fff41bb7656140080dd8032388c9
9530594597.0,893cdcd1963ffff,21.6497787,92.3122757,ALIKADM GIRLS HIGH SCHOOL,,"ALIKADM GIRLS HIGH SCHOOL, Bandarban Hill District, Chattogram Division, Bangladesh","আলিকাদম গার্লস হাই স্কুল, বান্দরবান পার্বত্য জেলা, চট্টগ্রাম বিভাগ, বাংলাদেশ",,বাংলাদেশ,চট্টগ্রাম বিভাগ,admin2,boundaries,"['educational_institution', 'school']",[],Bangladesh,Chittagong,Bandarban,Alikadam,Chokhyong,d939fff41bb7656140080dd8032388c9
9530594598.0,893cdcd1963ffff,21.6510942,92.3120546,ALIKADAM GOVT HIGH SCHOOL,,"ALIKADAM GOVT HIGH SCHOOL, Bandarban Hill District, Chattogram Division, Bangladesh","আলিকাদম সরকারী উচ্চ বিদ্যালয়, বান্দরবান পার্বত্য জেলা, চট্টগ্রাম বিভাগ, বাংলাদেশ",,বাংলাদেশ,চট্টগ্রাম বিভাগ,admin2,boundaries,"['educational_institution', 'school']",[],Bangladesh,Chittagong,Bandarban,Alikadam,Chokhyong,d939fff41bb7656140080dd8032388c9
9530594599.0,893cdcd19c7ffff,21.6591557,92.3018381,MONGCHING HEADMANPARA GOVT. PRIMARY SCHOOL,,"MONGCHING HEADMANPARA GOVT. PRIMARY SCHOOL, Bandarban Hill District, Chattogram Division, Bangladesh","মংচিং হেডম্যানপারা সরকার।প্রাথমিক বিদ্যালয়, বান্দরবান পার্বত্য জেলা, চট্টগ্রাম বিভাগ, বাংলাদেশ",,বাংলাদেশ,চট্টগ্রাম বিভাগ,admin2,boundaries,"['educational_institution', 'school']",[],Bangladesh,Chittagong,Bandarban,Alikadam,Chokhyong,d939fff41bb7656140080dd8032388c9
9737680728.0,893cdccada3ffff,21.5183374,92.3850298,,,"Alikadam, Bandarban Hill District, Chattogram Division, Bangladesh","বান্দরবান পার্বত্য জেলা, চট্টগ্রাম বিভাগ, বাংলাদেশ",Alikadam,বাংলাদেশ,চট্টগ্রাম বিভাগ,local_admin,boundaries,['ford'],[],Bangladesh,Chittagong,Bandarban,Alikadam,Chokhyong,d939fff41bb7656140080dd8032388c9
10008870429.0,893cdcc18d3ffff,21.5430324,92.3959942,,,"Alikadam, Bandarban Hill District, Chattogram Division, Bangladesh","বান্দরবান পার্বত্য জেলা, চট্টগ্রাম বিভাগ, বাংলাদেশ",Alikadam,বাংলাদেশ,চট্টগ্রাম বিভাগ,local_admin,boundaries,['ford'],[],Bangladesh,Chittagong,Bandarban,Alikadam,Chokhyong,d939fff41bb7656140080dd8032388c9
10008870430.0,893cdcc18d3ffff,21.5428761,92.3963224,,,"Alikadam, Bandarban Hill District, Chattogram Division, Bangladesh","বান্দরবান পার্বত্য জেলা, চট্টগ্রাম বিভাগ, বাংলাদেশ",Alikadam,বাংলাদেশ,চট্টগ্রাম বিভাগ,local_admin,boundaries,['ford'],[],Bangladesh,Chittagong,Bandarban,Alikadam,Chokhyong,d939fff41bb7656140080dd8032388c9
10008870431.0,893cdcc18d3ffff,21.5424779,92.3971713,,,"Alikadam, Bandarban Hill District, Chattogram Division, Bangladesh","বান্দরবান পার্বত্য জেলা, চট্টগ্রাম বিভাগ, বাংলাদেশ",Alikadam,বাংলাদেশ,চট্টগ্রাম বিভাগ,local_admin,boundaries,['ford'],[],Bangladesh,Chittagong,Bandarban,Alikadam,Chokhyong,d939fff41bb7656140080dd8032388c9
10008870432.0,893cdcc18d3ffff,21.5416953,92.3983042,,,"Alikadam, Bandarban Hill District, Chattogram Division, Bangladesh","বান্দরবান পার্বত্য জেলা, চট্টগ্রাম বিভাগ, বাংলাদেশ",Alikadam,বাংলাদেশ,চট্টগ্রাম বিভাগ,local_admin,boundaries,['ford'],[],Bangladesh,Chittagong,Bandarban,Alikadam,Chokhyong,d939fff41bb7656140080dd8032388c9
10008870433.0,893cdcc18c3ffff,21.5413817,92.3990369,,,"Alikadam, Bandarban Hill District, Chattogram Division, Bangladesh","বান্দরবান পার্বত্য জেলা, চট্টগ্রাম বিভাগ, বাংলাদেশ",Alikadam,বাংলাদেশ,চট্টগ্রাম বিভাগ,local_admin,boundaries,['ford'],[],Bangladesh,Chittagong,Bandarban,Alikadam,Chokhyong,d939fff41bb7656140080dd8032388c9
10008870434.0,893cdcc18c3ffff,21.5413607,92.3991167,,,"Alikadam, Bandarban Hill District, Chattogram Division, Bangladesh","বান্দরবান পার্বত্য জেলা, চট্টগ্রাম বিভাগ, বাংলাদেশ",Alikadam,বাংলাদেশ,চট্টগ্রাম বিভাগ,local_admin,boundaries,['ford'],[],Bangladesh,Chittagong,Bandarban,Alikadam,Chokhyong,d939fff41bb7656140080dd8032388c9
258476710.0,893cc22b143ffff,22.17840272,92.33778492,Rowangchhari Upazila Health Complex,,"Rowangchhari Upazila Health Complex, Rowangchhari, Bandarban Hill District, Chattogram Division, Bangladesh","রোআংখারি উপজিলা স্বাস্থ্য কমপ্লেক্স, বান্দরবান পার্বত্য জেলা, চট্টগ্রাম বিভাগ, বাংলাদেশ",Rowangchhari,বাংলাদেশ,চট্টগ্রাম বিভাগ,local_admin,boundaries,['hospital'],[],Bangladesh,Chittagong,Bandarban,Rowangchhari,Rowangchhari,11e1a0b5973654ae0c996cb138433baf
162797962.0,893cc22b407ffff,22.195784310693785,92.3052041519323,বান্দরবান-রোয়াংছড়ি সড়ক,['Bandarban Rowangchari Road'],"Bandarban-Roangchari road, Bandarban Rowangchari Road, Rowangchhari, Bandarban Hill District, Chattogram Division, Bangladesh","বান্দরবান-রোয়াংছড়ি সড়ক, বান্দরবান পার্বত্য জেলা, চট্টগ্রাম বিভাগ, বাংলাদেশ",Rowangchhari,বাংলাদেশ,চট্টগ্রাম বিভাগ,street,,,,Bangladesh,Chittagong,Bandarban,BandarbanSadar,Bandarban,13cb303678dfba1aa2824cb8d9b10fe6
162681787.0,893cc275943ffff,22.073697550042255,92.26430181952742,Bandarban - Thanchi Road,,"Bandarban - Thanchi Road, Ruma, Bandarban Hill District, Chattogram Division, Bangladesh","বান্ডারবান - থানচি রোড, বান্দরবান পার্বত্য জেলা, চট্টগ্রাম বিভাগ, বাংলাদেশ",Ruma,বাংলাদেশ,চট্টগ্রাম বিভাগ,street,,,,Bangladesh,Chittagong,Bandarban,Rowangchhari,Tarachha,9d37466edc127248da7e413c2442678c
9822352605.0,893cc22a08bffff,22.2346727,92.3507658,Katchaptali,,"Katchaptali, Rowangchhari, Bandarban Hill District, Chattogram Division, Bangladesh","কাচাপ্টালি, বান্দরবান পার্বত্য জেলা, চট্টগ্রাম বিভাগ, বাংলাদেশ",Rowangchhari,বাংলাদেশ,চট্টগ্রাম বিভাগ,locality,,,,Bangladesh,Chittagong,Bandarban,Rowangchhari,Alikhong,222baf4ed4728eb8ece43ab81bf88b2f
4215808581.0,893cdcd625bffff,21.7736263,92.3780508,চৈক্ষ্যং,"['চৈক্ষ্যং', 'Chokhyong']","Chakhayang, Chokhyong, Bandarban Hill District, Chattogram Division, Bangladesh","চৈক্ষ্যং, বান্দরবান পার্বত্য জেলা, চট্টগ্রাম বিভাগ, বাংলাদেশ",,বাংলাদেশ,চট্টগ্রাম বিভাগ,locality,,,,Bangladesh,Chittagong,Bandarban,Alikadam,Chokhyong,d939fff41bb7656140080dd8032388c9
477231664.0,893cc266e13ffff,22.0652369,92.3519787,কাখাংছড়ি,"['কাখাংছড়ি', 'Kakhangchari']","Kakhangchhari, Kakhangchari, Ruma, Bandarban Hill District, Chattogram Division, Bangladesh","কাখাংছড়ি, বান্দরবান পার্বত্য জেলা, চট্টগ্রাম বিভাগ, বাংলাদেশ",Ruma,বাংলাদেশ,চট্টগ্রাম বিভাগ,locality,,,,Bangladesh,Chittagong,Bandarban,Ruma,Ruma,336f4571b690be14a4b7ed66df30751b
4215808586.0,893cc265873ffff,21.9599401,92.3749609,গ্যালেংগ্যা,"['গ্যালেংগ্যা', 'Ghalangya']","Galengya, Ghalangya, Ruma, Bandarban Hill District, Chattogram Division, Bangladesh","গ্যালেংগ্যা, বান্দরবান পার্বত্য জেলা, চট্টগ্রাম বিভাগ, বাংলাদেশ",Ruma,বাংলাদেশ,চট্টগ্রাম বিভাগ,locality,,,,Bangladesh,Chittagong,Bandarban,Ruma,Ghalangya,3f2afb5c24afda9011ccb9d00b5162cc
4215808568.0,893cc22accfffff,22.2389925,92.3979635,আলেক্ষ্যং,"['আলেক্ষ্যং', 'Alekyong']","Alphabet, Alekyong, Rowangchhari, Bandarban Hill District, Chattogram Division, Bangladesh","আলেক্ষ্যং, বান্দরবান পার্বত্য জেলা, চট্টগ্রাম বিভাগ, বাংলাদেশ",Rowangchhari,বাংলাদেশ,চট্টগ্রাম বিভাগ,locality,,,,Bangladesh,Chittagong,Bandarban,Rowangchhari,Alikhong,222baf4ed4728eb8ece43ab81bf88b2f
7022937812.0,893cc266a1bffff,22.0456404,92.3679946,,,"Ruma, Bandarban Hill District, Chattogram Division, Bangladesh","বান্দরবান পার্বত্য জেলা, চট্টগ্রাম বিভাগ, বাংলাদেশ",Ruma,বাংলাদেশ,চট্টগ্রাম বিভাগ,local_admin,,,,Bangladesh,Chittagong,Bandarban,Ruma,Ruma,336f4571b690be14a4b7ed66df30751b
2481967219.0,893cc22b153ffff,22.1786191,92.3354471,রোয়াংছড়ি,"['রোয়াংছড়ি', 'Rowangchari']","Roangchari, Rowangchari, Rowangchhari, Bandarban Hill District, Chattogram Division, Bangladesh","রোয়াংছড়ি, বান্দরবান পার্বত্য জেলা, চট্টগ্রাম বিভাগ, বাংলাদেশ",Rowangchhari,বাংলাদেশ,চট্টগ্রাম বিভাগ,locality,,,,Bangladesh,Chittagong,Bandarban,Rowangchhari,Rowangchhari,11e1a0b5973654ae0c996cb138433baf
4215808901.0,893cc238817ffff,22.2844283,92.328269,নোয়াপতং,"['নোয়াপতং', 'Nowa Potong']","Noaptong, Nowa Potong, Rowangchhari, Bandarban Hill District, Chattogram Division, Bangladesh","নোয়াপতং, বান্দরবান পার্বত্য জেলা, চট্টগ্রাম বিভাগ, বাংলাদেশ",Rowangchhari,বাংলাদেশ,চট্টগ্রাম বিভাগ,locality,,,,Bangladesh,Chittagong,Bandarban,Rowangchhari,NowaPatang,c9e8c47a15111dedb61b553ad20862e7
2481967203.0,893cdcd1937ffff,21.6588358,92.3185873,আলীকদম,"['আলীকদম', 'Alikadam']","Alikadam, Bandarban Hill District, Chattogram Division, Bangladesh","আলীকদম, বান্দরবান পার্বত্য জেলা, চট্টগ্রাম বিভাগ, বাংলাদেশ",,বাংলাদেশ,চট্টগ্রাম বিভাগ,locality,,,,Bangladesh,Chittagong,Bandarban,Alikadam,Chokhyong,d939fff41bb7656140080dd8032388c9
4215808902.0,893cc229ecbffff,22.1109466,92.3807974,পাইন্দু,"['পাইন্দু', 'Paindu']","Pindu, Paindu, Ruma, Bandarban Hill District, Chattogram Division, Bangladesh","পাইন্দু, বান্দরবান পার্বত্য জেলা, চট্টগ্রাম বিভাগ, বাংলাদেশ",Ruma,বাংলাদেশ,চট্টগ্রাম বিভাগ,locality,,,,Bangladesh,Chittagong,Bandarban,Ruma,Paindu,a158e21c6f305ab03d046b454bf2892e
477232249.0,893cc264d87ffff,22.046735,92.4162358,লাইরাম্পি,"['লাইরাম্পি', 'Lairampi']","Lyricy, Ruma, Bandarban Hill District, Chattogram Division, Bangladesh","লাইরাম্পি, বান্দরবান পার্বত্য জেলা, চট্টগ্রাম বিভাগ, বাংলাদেশ",Ruma,বাংলাদেশ,চট্টগ্রাম বিভাগ,local_admin,boundaries,['peak'],[],Bangladesh,Chittagong,Bandarban,Ruma,Ruma,336f4571b690be14a4b7ed66df30751b
477232735.0,893cdc91213ffff,21.9936303,92.466258,Patangjhiri,,"Patangjhiri, Ruma, Bandarban Hill District, Chattogram Division, Bangladesh","পাতংঝিরি, বান্দরবান পার্বত্য জেলা, চট্টগ্রাম বিভাগ, বাংলাদেশ",Ruma,বাংলাদেশ,চট্টগ্রাম বিভাগ,local_admin,boundaries,['attraction'],[],Bangladesh,Chittagong,Bandarban,Ruma,RemakriPransa,bcac54e828249bb092b8d207efcc1675
477233477.0,893cdc9126bffff,21.9796537,92.4713802,Laram,,"Laram, Ruma, Bandarban Hill District, Chattogram Division, Bangladesh","লাতাম, বান্দরবান পার্বত্য জেলা, চট্টগ্রাম বিভাগ, বাংলাদেশ",Ruma,বাংলাদেশ,চট্টগ্রাম বিভাগ,local_admin,boundaries,['guest_house'],[],Bangladesh,Chittagong,Bandarban,Ruma,RemakriPransa,bcac54e828249bb092b8d207efcc1675
1748354852.0,893cc266b2fffff,22.0497477,92.4096426,বাংলাদেশ কৃষি ব্যাংক,['Krishi Bank'],"Bangladesh Agricultural Bank, Ruma, Bandarban Hill District, Chattogram Division, Bangladesh","বাংলাদেশ কৃষি ব্যাংক, বান্দরবান পার্বত্য জেলা, চট্টগ্রাম বিভাগ, বাংলাদেশ",Ruma,বাংলাদেশ,চট্টগ্রাম বিভাগ,local_admin,boundaries,['bank'],[],Bangladesh,Chittagong,Bandarban,Ruma,Ruma,336f4571b690be14a4b7ed66df30751b
1748354853.0,893cc266b2bffff,22.0497072,92.4077882,Bazar Ghat,,"Bazar Ghat, Ruma, Bandarban Hill District, Chattogram Division, Bangladesh","বাজর ঘাট, বান্দরবান পার্বত্য জেলা, চট্টগ্রাম বিভাগ, বাংলাদেশ",Ruma,বাংলাদেশ,চট্টগ্রাম বিভাগ,local_admin,boundaries,['marina'],[],Bangladesh,Chittagong,Bandarban,Ruma,Ruma,336f4571b690be14a4b7ed66df30751b
2473394765.0,893cc264d93ffff,22.0490898,92.4089657,,,"Ruma, Bandarban Hill District, Chattogram Division, Bangladesh","বান্দরবান পার্বত্য জেলা, চট্টগ্রাম বিভাগ, বাংলাদেশ",Ruma,বাংলাদেশ,চট্টগ্রাম বিভাগ,local_admin,boundaries,['hotel'],[],Bangladesh,Chittagong,Bandarban,Ruma,Ruma,336f4571b690be14a4b7ed66df30751b
2633858872.0,893cdcc7433ffff,21.6588597,92.471698,ক্রিস তং,"['ক্রিস তং', 'Kris Taung']","Chris Tang, Alikadam, Bandarban Hill District, Chattogram Division, Bangladesh","ক্রিস তং, বান্দরবান পার্বত্য জেলা, চট্টগ্রাম বিভাগ, বাংলাদেশ",Alikadam,বাংলাদেশ,চট্টগ্রাম বিভাগ,local_admin,boundaries,['peak'],[],Bangladesh,Chittagong,Bandarban,Thanchi,Remakry,7cc9cac8345f1549a9529427a7c521c1
2831071829.0,893cdcd6c13ffff,21.8182215,92.4406355,Thanchi BGB Camp Helipad,,"Thanchi BGB Camp Helipad, Thanchi, Bandarban Hill District, Chattogram Division, Bangladesh","থানচি বিজিবি ক্যাম্প হেলিপ্যাড, বান্দরবান পার্বত্য জেলা, চট্টগ্রাম বিভাগ, বাংলাদেশ",Thanchi,বাংলাদেশ,চট্টগ্রাম বিভাগ,local_admin,boundaries,['helipad'],[],Bangladesh,Chittagong,Bandarban,Thanchi,Thanchi,9861de163d622e3374b7ce7b4d561260
8562697853.0,893cdc9127bffff,21.9806029,92.4705237,,,"Ruma, Bandarban Hill District, Chattogram Division, Bangladesh","বান্দরবান পার্বত্য জেলা, চট্টগ্রাম বিভাগ, বাংলাদেশ",Ruma,বাংলাদেশ,চট্টগ্রাম বিভাগ,local_admin,boundaries,['attraction'],[],Bangladesh,Chittagong,Bandarban,Ruma,RemakriPransa,bcac54e828249bb092b8d207efcc1675
9592063261.0,893cc264dcfffff,22.0355299,92.408023,Ruma Junior High School,,"Ruma Junior High School, Ruma, Bandarban Hill District, Chattogram Division, Bangladesh","রুমা জুনিয়র হাই স্কুল, বান্দরবান পার্বত্য জেলা, চট্টগ্রাম বিভাগ, বাংলাদেশ",Ruma,বাংলাদেশ,চট্টগ্রাম বিভাগ,local_admin,boundaries,['school'],[],Bangladesh,Chittagong,Bandarban,Ruma,Ruma,336f4571b690be14a4b7ed66df30751b
9592063262.0,893cc264d87ffff,22.0463624,92.4139271,Ruma Govt High School,,"Ruma Govt High School, Ruma, Bandarban Hill District, Chattogram Division, Bangladesh","রুমা গোভ্ট হাই স্কুল, বান্দরবান পার্বত্য জেলা, চট্টগ্রাম বিভাগ, বাংলাদেশ",Ruma,বাংলাদেশ,চট্টগ্রাম বিভাগ,local_admin,boundaries,['school'],[],Bangladesh,Chittagong,Bandarban,Ruma,Ruma,336f4571b690be14a4b7ed66df30751b
9592063263.0,893cc266b2fffff,22.0498847,92.4102261,Ruma Bazar Model Govt. Primary School,,"Ruma Bazar Model Govt. Primary School, Ruma, Bandarban Hill District, Chattogram Division, Bangladesh","রুমা বাজার মডেল সরকার।প্রাথমিক বিদ্যালয়, বান্দরবান পার্বত্য জেলা, চট্টগ্রাম বিভাগ, বাংলাদেশ",Ruma,বাংলাদেশ,চট্টগ্রাম বিভাগ,local_admin,boundaries,['school'],[],Bangladesh,Chittagong,Bandarban,Ruma,Ruma,336f4571b690be14a4b7ed66df30751b
9592063264.0,893cc264d93ffff,22.0478322,92.4081618,Ruma Health Complex,,"Ruma Health Complex, Ruma, Bandarban Hill District, Chattogram Division, Bangladesh","রুমা স্বাস্থ্য কমপ্লেক্স, বান্দরবান পার্বত্য জেলা, চট্টগ্রাম বিভাগ, বাংলাদেশ",Ruma,বাংলাদেশ,চট্টগ্রাম বিভাগ,local_admin,boundaries,['hospital'],[],Bangladesh,Chittagong,Bandarban,Ruma,Ruma,336f4571b690be14a4b7ed66df30751b
9592063265.0,893cc266b33ffff,22.0565198,92.4048842,Ruma Upajatiyo Residencial High School,,"Ruma Upajatiyo Residencial High School, Ruma, Bandarban Hill District, Chattogram Division, Bangladesh","রুমা উপজাতিয়ো রেসিডেন্সিয়াল হাই স্কুল, বান্দরবান পার্বত্য জেলা, চট্টগ্রাম বিভাগ, বাংলাদেশ",Ruma,বাংলাদেশ,চট্টগ্রাম বিভাগ,local_admin,boundaries,['school'],[],Bangladesh,Chittagong,Bandarban,Ruma,Ruma,336f4571b690be14a4b7ed66df30751b
9592063266.0,893cc264d97ffff,22.0494058,92.4118676,,,"Ruma, Bandarban Hill District, Chattogram Division, Bangladesh","বান্দরবান পার্বত্য জেলা, চট্টগ্রাম বিভাগ, বাংলাদেশ",Ruma,বাংলাদেশ,চট্টগ্রাম বিভাগ,local_admin,boundaries,['school'],[],Bangladesh,Chittagong,Bandarban,Ruma,Ruma,336f4571b690be14a4b7ed66df30751b
9737653461.0,893cdccf6d3ffff,21.4802243,92.4019275,,,"Alikadam, Bandarban Hill District, Chattogram Division, Bangladesh","বান্দরবান পার্বত্য জেলা, চট্টগ্রাম বিভাগ, বাংলাদেশ",Alikadam,বাংলাদেশ,চট্টগ্রাম বিভাগ,local_admin,boundaries,['ford'],[],Bangladesh,Chittagong,Bandarban,Alikadam,Chokhyong,d939fff41bb7656140080dd8032388c9
9737653462.0,893cdccf6dbffff,21.4783614,92.4027264,,,"Alikadam, Bandarban Hill District, Chattogram Division, Bangladesh","বান্দরবান পার্বত্য জেলা, চট্টগ্রাম বিভাগ, বাংলাদেশ",Alikadam,বাংলাদেশ,চট্টগ্রাম বিভাগ,local_admin,boundaries,['ford'],[],Bangladesh,Chittagong,Bandarban,Alikadam,Chokhyong,d939fff41bb7656140080dd8032388c9
10008855000.0,893cdcc1aa3ffff,21.5256172,92.4081989,,,"Alikadam, Bandarban Hill District, Chattogram Division, Bangladesh","বান্দরবান পার্বত্য জেলা, চট্টগ্রাম বিভাগ, বাংলাদেশ",Alikadam,বাংলাদেশ,চট্টগ্রাম বিভাগ,local_admin,boundaries,['ford'],[],Bangladesh,Chittagong,Bandarban,Alikadam,Chokhyong,d939fff41bb7656140080dd8032388c9
10008870435.0,893cdcc1897ffff,21.5488997,92.4064698,,,"Alikadam, Bandarban Hill District, Chattogram Division, Bangladesh","বান্দরবান পার্বত্য জেলা, চট্টগ্রাম বিভাগ, বাংলাদেশ",Alikadam,বাংলাদেশ,চট্টগ্রাম বিভাগ,local_admin,boundaries,['ford'],[],Bangladesh,Chittagong,Bandarban,Alikadam,Chokhyong,d939fff41bb7656140080dd8032388c9
10008870436.0,893cdcc1897ffff,21.5488504,92.4064553,,,"Alikadam, Bandarban Hill District, Chattogram Division, Bangladesh","বান্দরবান পার্বত্য জেলা, চট্টগ্রাম বিভাগ, বাংলাদেশ",Alikadam,বাংলাদেশ,চট্টগ্রাম বিভাগ,local_admin,boundaries,['ford'],[],Bangladesh,Chittagong,Bandarban,Alikadam,Chokhyong,d939fff41bb7656140080dd8032388c9
10008870437.0,893cdcc1897ffff,21.5492877,92.4065462,,,"Alikadam, Bandarban Hill District, Chattogram Division, Bangladesh","বান্দরবান পার্বত্য জেলা, চট্টগ্রাম বিভাগ, বাংলাদেশ",Alikadam,বাংলাদেশ,চট্টগ্রাম বিভাগ,local_admin,boundaries,['ford'],[],Bangladesh,Chittagong,Bandarban,Alikadam,Chokhyong,d939fff41bb7656140080dd8032388c9
10008870438.0,893cdcc1897ffff,21.549404,92.4067252,,,"Alikadam, Bandarban Hill District, Chattogram Division, Bangladesh","বান্দরবান পার্বত্য জেলা, চট্টগ্রাম বিভাগ, বাংলাদেশ",Alikadam,বাংলাদেশ,চট্টগ্রাম বিভাগ,local_admin,boundaries,['ford'],[],Bangladesh,Chittagong,Bandarban,Alikadam,Chokhyong,d939fff41bb7656140080dd8032388c9
10008870439.0,893cdcc1897ffff,21.5498236,92.4073706,,,"Alikadam, Bandarban Hill District, Chattogram Division, Bangladesh","বান্দরবান পার্বত্য জেলা, চট্টগ্রাম বিভাগ, বাংলাদেশ",Alikadam,বাংলাদেশ,চট্টগ্রাম বিভাগ,local_admin,boundaries,['ford'],[],Bangladesh,Chittagong,Bandarban,Alikadam,Chokhyong,d939fff41bb7656140080dd8032388c9
10008870440.0,893cdcc1897ffff,21.5498708,92.4074194,,,"Alikadam, Bandarban Hill District, Chattogram Division, Bangladesh","বান্দরবান পার্বত্য জেলা, চট্টগ্রাম বিভাগ, বাংলাদেশ",Alikadam,বাংলাদেশ,চট্টগ্রাম বিভাগ,local_admin,boundaries,['ford'],[],Bangladesh,Chittagong,Bandarban,Alikadam,Chokhyong,d939fff41bb7656140080dd8032388c9
10008870441.0,893cdcc1897ffff,21.5499068,92.4074501,,,"Alikadam, Bandarban Hill District, Chattogram Division, Bangladesh","বান্দরবান পার্বত্য জেলা, চট্টগ্রাম বিভাগ, বাংলাদেশ",Alikadam,বাংলাদেশ,চট্টগ্রাম বিভাগ,local_admin,boundaries,['ford'],[],Bangladesh,Chittagong,Bandarban,Alikadam,Chokhyong,d939fff41bb7656140080dd8032388c9
10008870442.0,893cdcc1d4bffff,21.5501503,92.4083174,,,"Alikadam, Bandarban Hill District, Chattogram Division, Bangladesh","বান্দরবান পার্বত্য জেলা, চট্টগ্রাম বিভাগ, বাংলাদেশ",Alikadam,বাংলাদেশ,চট্টগ্রাম বিভাগ,local_admin,boundaries,['ford'],[],Bangladesh,Chittagong,Bandarban,Alikadam,Chokhyong,d939fff41bb7656140080dd8032388c9
10008870443.0,893cdcc1d4bffff,21.5496894,92.4085029,,,"Alikadam, Bandarban Hill District, Chattogram Division, Bangladesh","বান্দরবান পার্বত্য জেলা, চট্টগ্রাম বিভাগ, বাংলাদেশ",Alikadam,বাংলাদেশ,চট্টগ্রাম বিভাগ,local_admin,boundaries,['ford'],[],Bangladesh,Chittagong,Bandarban,Alikadam,Chokhyong,d939fff41bb7656140080dd8032388c9
10008870444.0,893cdcc1887ffff,21.5491285,92.4087076,,,"Alikadam, Bandarban Hill District, Chattogram Division, Bangladesh","বান্দরবান পার্বত্য জেলা, চট্টগ্রাম বিভাগ, বাংলাদেশ",Alikadam,বাংলাদেশ,চট্টগ্রাম বিভাগ,local_admin,boundaries,['ford'],[],Bangladesh,Chittagong,Bandarban,Alikadam,Chokhyong,d939fff41bb7656140080dd8032388c9
10008870445.0,893cdcc1887ffff,21.5482787,92.4090187,,,"Alikadam, Bandarban Hill District, Chattogram Division, Bangladesh","বান্দরবান পার্বত্য জেলা, চট্টগ্রাম বিভাগ, বাংলাদেশ",Alikadam,বাংলাদেশ,চট্টগ্রাম বিভাগ,local_admin,boundaries,['ford'],[],Bangladesh,Chittagong,Bandarban,Alikadam,Chokhyong,d939fff41bb7656140080dd8032388c9
10008870446.0,893cdcc1887ffff,21.5468019,92.4091483,,,"Alikadam, Bandarban Hill District, Chattogram Division, Bangladesh","বান্দরবান পার্বত্য জেলা, চট্টগ্রাম বিভাগ, বাংলাদেশ",Alikadam,বাংলাদেশ,চট্টগ্রাম বিভাগ,local_admin,boundaries,['ford'],[],Bangladesh,Chittagong,Bandarban,Alikadam,Chokhyong,d939fff41bb7656140080dd8032388c9
10008870447.0,893cdcc1887ffff,21.5469187,92.4091408,,,"Alikadam, Bandarban Hill District, Chattogram Division, Bangladesh","বান্দরবান পার্বত্য জেলা, চট্টগ্রাম বিভাগ, বাংলাদেশ",Alikadam,বাংলাদেশ,চট্টগ্রাম বিভাগ,local_admin,boundaries,['ford'],[],Bangladesh,Chittagong,Bandarban,Alikadam,Chokhyong,d939fff41bb7656140080dd8032388c9
10008870448.0,893cdcc1887ffff,21.5472528,92.4090561,,,"Alikadam, Bandarban Hill District, Chattogram Division, Bangladesh","বান্দরবান পার্বত্য জেলা, চট্টগ্রাম বিভাগ, বাংলাদেশ",Alikadam,বাংলাদেশ,চট্টগ্রাম বিভাগ,local_admin,boundaries,['ford'],[],Bangladesh,Chittagong,Bandarban,Alikadam,Chokhyong,d939fff41bb7656140080dd8032388c9
10008870449.0,893cdcc18bbffff,21.5458621,92.409674,,,"Alikadam, Bandarban Hill District, Chattogram Division, Bangladesh","বান্দরবান পার্বত্য জেলা, চট্টগ্রাম বিভাগ, বাংলাদেশ",Alikadam,বাংলাদেশ,চট্টগ্রাম বিভাগ,local_admin,boundaries,['ford'],[],Bangladesh,Chittagong,Bandarban,Alikadam,Chokhyong,d939fff41bb7656140080dd8032388c9
157656095.0,893cdc9126bffff,21.98000375,92.47125686,Boga lake Cottge,,"Boga lake Cottge, Ruma, Bandarban Hill District, Chattogram Division, Bangladesh","বোগা লেকের কুটির, বান্দরবান পার্বত্য জেলা, চট্টগ্রাম বিভাগ, বাংলাদেশ",Ruma,বাংলাদেশ,চট্টগ্রাম বিভাগ,local_admin,boundaries,['guest_house'],[],Bangladesh,Chittagong,Bandarban,Ruma,RemakriPransa,bcac54e828249bb092b8d207efcc1675
157656096.0,893cdc9127bffff,21.98062821,92.47174295,Boga lake Cottge,,"Boga lake Cottge, Ruma, Bandarban Hill District, Chattogram Division, Bangladesh","বোগা লেকের কুটির, বান্দরবান পার্বত্য জেলা, চট্টগ্রাম বিভাগ, বাংলাদেশ",Ruma,বাংলাদেশ,চট্টগ্রাম বিভাগ,local_admin,boundaries,['guest_house'],[],Bangladesh,Chittagong,Bandarban,Ruma,RemakriPransa,bcac54e828249bb092b8d207efcc1675
157656097.0,893cdc9126bffff,21.97975522,92.47111613,Boga lake Cottge,,"Boga lake Cottge, Ruma, Bandarban Hill District, Chattogram Division, Bangladesh","বোগা লেকের কুটির, বান্দরবান পার্বত্য জেলা, চট্টগ্রাম বিভাগ, বাংলাদেশ",Ruma,বাংলাদেশ,চট্টগ্রাম বিভাগ,local_admin,boundaries,['guest_house'],[],Bangladesh,Chittagong,Bandarban,Ruma,RemakriPransa,bcac54e828249bb092b8d207efcc1675
469326584.0,893cdcd5d17ffff,21.72293478,92.46103577,,,"Thanchi, Bandarban Hill District, Chattogram Division, Bangladesh","বান্দরবান পার্বত্য জেলা, চট্টগ্রাম বিভাগ, বাংলাদেশ",Thanchi,বাংলাদেশ,চট্টগ্রাম বিভাগ,local_admin,boundaries,['ford'],[],Bangladesh,Chittagong,Bandarban,Thanchi,Tindu,04d10c9a340f114ea7c0bc54cf909cad
491798381.0,893cdcd5d17ffff,21.72256356,92.46009895,Tindu Bazar,,"Tindu Bazar, Thanchi, Bandarban Hill District, Chattogram Division, Bangladesh","টিন্ডু বাজার, বান্দরবান পার্বত্য জেলা, চট্টগ্রাম বিভাগ, বাংলাদেশ",Thanchi,বাংলাদেশ,চট্টগ্রাম বিভাগ,local_admin,boundaries,['marketplace'],[],Bangladesh,Chittagong,Bandarban,Thanchi,Tindu,04d10c9a340f114ea7c0bc54cf909cad
526584897.0,893cdc925c3ffff,22.1415234,92.47877925,,,"Ruma, Bandarban Hill District, Chattogram Division, Bangladesh","বান্দরবান পার্বত্য জেলা, চট্টগ্রাম বিভাগ, বাংলাদেশ",Ruma,বাংলাদেশ,চট্টগ্রাম বিভাগ,local_admin,boundaries,['ford'],[],Bangladesh,Chittagong,Bandarban,Ruma,Paindu,a158e21c6f305ab03d046b454bf2892e
526585027.0,893cc22983bffff,22.11911292,92.42070919,,,"Ruma, Bandarban Hill District, Chattogram Division, Bangladesh","বান্দরবান পার্বত্য জেলা, চট্টগ্রাম বিভাগ, বাংলাদেশ",Ruma,বাংলাদেশ,চট্টগ্রাম বিভাগ,local_admin,boundaries,['place_of_worship'],[],Bangladesh,Chittagong,Bandarban,Ruma,Paindu,a158e21c6f305ab03d046b454bf2892e
526585030.0,893cc22983bffff,22.11890384,92.42083203,,,"Ruma, Bandarban Hill District, Chattogram Division, Bangladesh","বান্দরবান পার্বত্য জেলা, চট্টগ্রাম বিভাগ, বাংলাদেশ",Ruma,বাংলাদেশ,চট্টগ্রাম বিভাগ,local_admin,boundaries,['place_of_worship'],[],Bangladesh,Chittagong,Bandarban,Ruma,Paindu,a158e21c6f305ab03d046b454bf2892e
526585036.0,893cc22983bffff,22.11871847,92.42083009,,,"Ruma, Bandarban Hill District, Chattogram Division, Bangladesh","বান্দরবান পার্বত্য জেলা, চট্টগ্রাম বিভাগ, বাংলাদেশ",Ruma,বাংলাদেশ,চট্টগ্রাম বিভাগ,local_admin,boundaries,['place_of_worship'],[],Bangladesh,Chittagong,Bandarban,Ruma,Paindu,a158e21c6f305ab03d046b454bf2892e
1044332391.0,893cdc9ac17ffff,21.976598872056947,92.48834294206442,Bogalake to Keokradong,,"Bogalake to Keokradong, Ruma, Bandarban Hill District, Chattogram Division, Bangladesh","বোগালাকে কোকরাডংকে, বান্দরবান পার্বত্য জেলা, চট্টগ্রাম বিভাগ, বাংলাদেশ",Ruma,বাংলাদেশ,চট্টগ্রাম বিভাগ,street,,,,Bangladesh,Chittagong,Bandarban,Ruma,RemakriPransa,bcac54e828249bb092b8d207efcc1675
39814286.0,893cdc9a88fffff,21.963564284105505,92.50363831843656,Bogalake to Keokradong,,"Bogalake to Keokradong, Ruma, Bandarban Hill District, Chattogram Division, Bangladesh","বোগালাকে কোকরাডংকে, বান্দরবান পার্বত্য জেলা, চট্টগ্রাম বিভাগ, বাংলাদেশ",Ruma,বাংলাদেশ,চট্টগ্রাম বিভাগ,street,,,,Bangladesh,Chittagong,Bandarban,Ruma,RemakriPransa,bcac54e828249bb092b8d207efcc1675
1044332389.0,893cdc9126fffff,21.979573996214057,92.47718273028624,Bogalake to Keokradong,,"Bogalake to Keokradong, Ruma, Bandarban Hill District, Chattogram Division, Bangladesh","বোগালাকে কোকরাডংকে, বান্দরবান পার্বত্য জেলা, চট্টগ্রাম বিভাগ, বাংলাদেশ",Ruma,বাংলাদেশ,চট্টগ্রাম বিভাগ,street,,,,Bangladesh,Chittagong,Bandarban,Ruma,RemakriPransa,bcac54e828249bb092b8d207efcc1675
1044332390.0,893cdc9ac1bffff,21.97383747292285,92.48462054974809,Bogalake to Keokradong,,"Bogalake to Keokradong, Ruma, Bandarban Hill District, Chattogram Division, Bangladesh","বোগালাকে কোকরাডংকে, বান্দরবান পার্বত্য জেলা, চট্টগ্রাম বিভাগ, বাংলাদেশ",Ruma,বাংলাদেশ,চট্টগ্রাম বিভাগ,street,,,,Bangladesh,Chittagong,Bandarban,Ruma,RemakriPransa,bcac54e828249bb092b8d207efcc1675
9822374584.0,893cdc99227ffff,21.8332494,92.4374533,Robertpara,,"Robertpara, Thanchi, Bandarban Hill District, Chattogram Division, Bangladesh","রবার্টপেরা, বান্দরবান পার্বত্য জেলা, চট্টগ্রাম বিভাগ, বাংলাদেশ",Thanchi,বাংলাদেশ,চট্টগ্রাম বিভাগ,locality,,,,Bangladesh,Chittagong,Bandarban,Thanchi,Thanchi,9861de163d622e3374b7ce7b4d561260
4215808573.0,893cdc9968fffff,21.8541876,92.4063749,বালিপাড়া,"['বালিপাড়া', 'Balipara']","Balipara, Thanchi, Bandarban Hill District, Chattogram Division, Bangladesh","বালিপাড়া, বান্দরবান পার্বত্য জেলা, চট্টগ্রাম বিভাগ, বাংলাদেশ",Thanchi,বাংলাদেশ,চট্টগ্রাম বিভাগ,locality,,,,Bangladesh,Chittagong,Bandarban,Thanchi,Thanchi,9861de163d622e3374b7ce7b4d561260
477232515.0,893cdc914d3ffff,22.0295979,92.4463453,পলিকা,"['পলিকা', 'Polika']","Polya, Polika, Ruma, Bandarban Hill District, Chattogram Division, Bangladesh","পলিকা, বান্দরবান পার্বত্য জেলা, চট্টগ্রাম বিভাগ, বাংলাদেশ",Ruma,বাংলাদেশ,চট্টগ্রাম বিভাগ,locality,,,,Bangladesh,Chittagong,Bandarban,Ruma,Ruma,336f4571b690be14a4b7ed66df30751b
9609604115.0,893cdc9ac07ffff,21.976173,92.4922163,Harmunpara,,"Harmunpara, Ruma, Bandarban Hill District, Chattogram Division, Bangladesh","হারমুনপেরা, বান্দরবান পার্বত্য জেলা, চট্টগ্রাম বিভাগ, বাংলাদেশ",Ruma,বাংলাদেশ,চট্টগ্রাম বিভাগ,locality,,,,Bangladesh,Chittagong,Bandarban,Ruma,RemakriPransa,bcac54e828249bb092b8d207efcc1675
1748349997.0,893cdc91647ffff,22.0005543,92.4489326,সইরাটং,"['সইরাটং', 'Shoiratong']","Saratong, Shoiratong, Ruma, Bandarban Hill District, Chattogram Division, Bangladesh","সইরাটং, বান্দরবান পার্বত্য জেলা, চট্টগ্রাম বিভাগ, বাংলাদেশ",Ruma,বাংলাদেশ,চট্টগ্রাম বিভাগ,locality,,,,Bangladesh,Chittagong,Bandarban,Ruma,Ruma,336f4571b690be14a4b7ed66df30751b
2481967220.0,893cdc9926fffff,21.8226132,92.4309578,থানচি,"['থানচি', 'Thanchi']","Thanchi, Bandarban Hill District, Chattogram Division, Bangladesh","থানচি, বান্দরবান পার্বত্য জেলা, চট্টগ্রাম বিভাগ, বাংলাদেশ",Thanchi,বাংলাদেশ,চট্টগ্রাম বিভাগ,locality,,,,Bangladesh,Chittagong,Bandarban,Thanchi,Thanchi,9861de163d622e3374b7ce7b4d561260
4215808911.0,893cdcd5987ffff,21.7101653,92.4777861,তিন্দু,"['তিন্দু', 'Tindu']","Tindu, Thanchi, Bandarban Hill District, Chattogram Division, Bangladesh","তিন্দু, বান্দরবান পার্বত্য জেলা, চট্টগ্রাম বিভাগ, বাংলাদেশ",Thanchi,বাংলাদেশ,চট্টগ্রাম বিভাগ,locality,,,,Bangladesh,Chittagong,Bandarban,Thanchi,Tindu,04d10c9a340f114ea7c0bc54cf909cad
1748349996.0,893cc264d2bffff,22.0342027,92.4240289,মুনলাই,"['মুনলাই', 'Munlai']","Moonlai, Munlai, Ruma, Bandarban Hill District, Chattogram Division, Bangladesh","মুনলাই, বান্দরবান পার্বত্য জেলা, চট্টগ্রাম বিভাগ, বাংলাদেশ",Ruma,বাংলাদেশ,চট্টগ্রাম বিভাগ,locality,,,,Bangladesh,Chittagong,Bandarban,Ruma,Ruma,336f4571b690be14a4b7ed66df30751b
477232276.0,893cdc9144fffff,22.017981,92.4566449,বগামুখ পাড়া,"['বগামুখ পাড়া', 'Bogamuck Para']","Lap, Bogamuck Para, Ruma, Bandarban Hill District, Chattogram Division, Bangladesh","বগামুখ পাড়া, বান্দরবান পার্বত্য জেলা, চট্টগ্রাম বিভাগ, বাংলাদেশ",Ruma,বাংলাদেশ,চট্টগ্রাম বিভাগ,locality,,,,Bangladesh,Chittagong,Bandarban,Ruma,Ruma,336f4571b690be14a4b7ed66df30751b
1748354849.0,893cc264d93ffff,22.0492699,92.4092482,রুমা,"['রুমা', 'Ruma']","Ruma, Bandarban Hill District, Chattogram Division, Bangladesh","রুমা, বান্দরবান পার্বত্য জেলা, চট্টগ্রাম বিভাগ, বাংলাদেশ",Ruma,বাংলাদেশ,চট্টগ্রাম বিভাগ,locality,,,,Bangladesh,Chittagong,Bandarban,Ruma,Ruma,336f4571b690be14a4b7ed66df30751b
477229387.0,893cdc9ab9bffff,21.9498761,92.5145205,কেওক্রাডং,"['কেওক্রাডং', 'Keokradong']","Kokradong, Ruma, Bandarban Hill District, Chattogram Division, Bangladesh","কেওক্রাডং, বান্দরবান পার্বত্য জেলা, চট্টগ্রাম বিভাগ, বাংলাদেশ",Ruma,বাংলাদেশ,চট্টগ্রাম বিভাগ,local_admin,boundaries,['peak'],[],Bangladesh,Chittagong,Bandarban,Ruma,RemakriPransa,bcac54e828249bb092b8d207efcc1675
1828439691.0,893cdc8b467ffff,21.8087608,92.5174494,Serkor Para,,"Serkor Para, Thanchi, Bandarban Hill District, Chattogram Division, Bangladesh","সেরকোর প্যারা, বান্দরবান পার্বত্য জেলা, চট্টগ্রাম বিভাগ, বাংলাদেশ",Thanchi,বাংলাদেশ,চট্টগ্রাম বিভাগ,local_admin,boundaries,['camp_site'],[],Bangladesh,Chittagong,Bandarban,Thanchi,Thanchi,9861de163d622e3374b7ce7b4d561260
2633861347.0,893cdc98a47ffff,21.8756613,92.5273628,লাখুডং,"['লখু তং', 'Lakhudaung']","Lakhdong, Thanchi, Bandarban Hill District, Chattogram Division, Bangladesh","লাখুডং, বান্দরবান পার্বত্য জেলা, চট্টগ্রাম বিভাগ, বাংলাদেশ",Thanchi,বাংলাদেশ,চট্টগ্রাম বিভাগ,local_admin,boundaries,['peak'],[],Bangladesh,Chittagong,Bandarban,Ruma,RemakriPransa,bcac54e828249bb092b8d207efcc1675
2633861348.0,893cdc8b507ffff,21.821586,92.5364603,তাজিং ডং,"['তাজিং ডং', 'Tajing Daung']","Tajing Dong, Thanchi, Bandarban Hill District, Chattogram Division, Bangladesh","তাজিং ডং, বান্দরবান পার্বত্য জেলা, চট্টগ্রাম বিভাগ, বাংলাদেশ",Thanchi,বাংলাদেশ,চট্টগ্রাম বিভাগ,local_admin,boundaries,['peak'],[],Bangladesh,Chittagong,Bandarban,Thanchi,Thanchi,9861de163d622e3374b7ce7b4d561260
2633861530.0,893cdc988cbffff,21.9012491,92.5240676,কপিতাল,"['তাংগিওডং', 'কপিতাল', 'Capital']","Copper, Ruma, Bandarban Hill District, Chattogram Division, Bangladesh","কপিতাল, বান্দরবান পার্বত্য জেলা, চট্টগ্রাম বিভাগ, বাংলাদেশ",Ruma,বাংলাদেশ,চট্টগ্রাম বিভাগ,local_admin,boundaries,['peak'],[],Bangladesh,Chittagong,Bandarban,Ruma,RemakriPransa,bcac54e828249bb092b8d207efcc1675
4571810189.0,893cdcc65afffff,21.7202223,92.5333436,নাফাখুম জলপ্রপাত,['Nafakum Waterfall'],"Nafakhum Falls, Thanchi, Bandarban Hill District, Chattogram Division, Bangladesh","নাফাখুম জলপ্রপাত, বান্দরবান পার্বত্য জেলা, চট্টগ্রাম বিভাগ, বাংলাদেশ",Thanchi,বাংলাদেশ,চট্টগ্রাম বিভাগ,local_admin,boundaries,['attraction'],[],Bangladesh,Chittagong,Bandarban,Thanchi,Tindu,04d10c9a340f114ea7c0bc54cf909cad
5224762534.0,893cdc9ab9bffff,21.9496959,92.5140748,tea stall,,"tea stall, Ruma, Bandarban Hill District, Chattogram Division, Bangladesh","চা স্টল, বান্দরবান পার্বত্য জেলা, চট্টগ্রাম বিভাগ, বাংলাদেশ",Ruma,বাংলাদেশ,চট্টগ্রাম বিভাগ,local_admin,boundaries,['cafe'],[],Bangladesh,Chittagong,Bandarban,Ruma,RemakriPransa,bcac54e828249bb092b8d207efcc1675
5224765043.0,893cdc9a867ffff,21.9497175,92.5139891,Hotel and teal stall,,"Hotel and teal stall, Ruma, Bandarban Hill District, Chattogram Division, Bangladesh","হোটেল এবং টিল স্টল, বান্দরবান পার্বত্য জেলা, চট্টগ্রাম বিভাগ, বাংলাদেশ",Ruma,বাংলাদেশ,চট্টগ্রাম বিভাগ,local_admin,boundaries,['restaurant'],[],Bangladesh,Chittagong,Bandarban,Ruma,RemakriPransa,bcac54e828249bb092b8d207efcc1675
9609604397.0,893cdc9ab9bffff,21.9487226,92.5146299,Keokradong Helipad,['Kelardong helipad'],"Keokradong Helipad, Ruma, Bandarban Hill District, Chattogram Division, Bangladesh","কোকরাডং হেলিপ্যাড, বান্দরবান পার্বত্য জেলা, চট্টগ্রাম বিভাগ, বাংলাদেশ",Ruma,বাংলাদেশ,চট্টগ্রাম বিভাগ,local_admin,boundaries,"['helipad', 'viewpoint']",[],Bangladesh,Chittagong,Bandarban,Ruma,RemakriPransa,bcac54e828249bb092b8d207efcc1675
289045063.0,893cdc9abd7ffff,21.94581869,92.51463809,,,"Ruma, Bandarban Hill District, Chattogram Division, Bangladesh","বান্দরবান পার্বত্য জেলা, চট্টগ্রাম বিভাগ, বাংলাদেশ",Ruma,বাংলাদেশ,চট্টগ্রাম বিভাগ,local_admin,boundaries,['ford'],[],Bangladesh,Chittagong,Bandarban,Ruma,RemakriPransa,bcac54e828249bb092b8d207efcc1675
1071251013.0,893cdcc62afffff,21.67611748,92.52019441,,,"Thanchi, Bandarban Hill District, Chattogram Division, Bangladesh","বান্দরবান পার্বত্য জেলা, চট্টগ্রাম বিভাগ, বাংলাদেশ",Thanchi,বাংলাদেশ,চট্টগ্রাম বিভাগ,local_admin,boundaries,['helipad'],[],Bangladesh,Chittagong,Bandarban,Thanchi,Remakry,7cc9cac8345f1549a9529427a7c521c1
540004592.0,893cdc9ab9bffff,21.9497755,92.51409475,keokradon path,,"keokradon path, Ruma, Bandarban Hill District, Chattogram Division, Bangladesh","কোকরাডন পথ, বান্দরবান পার্বত্য জেলা, চট্টগ্রাম বিভাগ, বাংলাদেশ",Ruma,বাংলাদেশ,চট্টগ্রাম বিভাগ,street,,,,Bangladesh,Chittagong,Bandarban,Ruma,RemakriPransa,bcac54e828249bb092b8d207efcc1675
1044332392.0,893cdc9a867ffff,21.9513513602893,92.51385912866743,Bogalake to Keokradong,,"Bogalake to Keokradong, Ruma, Bandarban Hill District, Chattogram Division, Bangladesh","বোগালাকে কোকরাডংকে, বান্দরবান পার্বত্য জেলা, চট্টগ্রাম বিভাগ, বাংলাদেশ",Ruma,বাংলাদেশ,চট্টগ্রাম বিভাগ,street,,,,Bangladesh,Chittagong,Bandarban,Ruma,RemakriPransa,bcac54e828249bb092b8d207efcc1675
1748322547.0,893cdc9a817ffff,21.9606188,92.5062457,দার্জিলিং পাড়া,"['দার্জিলিং পাড়া', 'Darjeling para']","Darjeeling laid, Darjeling para, Ruma, Bandarban Hill District, Chattogram Division, Bangladesh","দার্জিলিং পাড়া, বান্দরবান পার্বত্য জেলা, চট্টগ্রাম বিভাগ, বাংলাদেশ",Ruma,বাংলাদেশ,চট্টগ্রাম বিভাগ,locality,,,,Bangladesh,Chittagong,Bandarban,Ruma,RemakriPransa,bcac54e828249bb092b8d207efcc1675
4215808906.0,893cdcc62a3ffff,21.6774472,92.5195642,রেমাক্রী,"['রেমাক্রি', 'রেমাক্রী', 'Remarki']","Remacri, Remarki, Thanchi, Bandarban Hill District, Chattogram Division, Bangladesh","রেমাক্রী, বান্দরবান পার্বত্য জেলা, চট্টগ্রাম বিভাগ, বাংলাদেশ",Thanchi,বাংলাদেশ,চট্টগ্রাম বিভাগ,locality,,,,Bangladesh,Chittagong,Bandarban,Thanchi,Remakry,7cc9cac8345f1549a9529427a7c521c1
2633862064.0,893cdc88383ffff,21.7860497,92.6095448,সাকা হাফং,"['ত্ল্যাংময়', 'সাকা হাফং', 'Saka Haphong']","Saka Huffong, Thanchi, Bandarban Hill District, Chattogram Division, Bangladesh","সাকা হাফং, বান্দরবান পার্বত্য জেলা, চট্টগ্রাম বিভাগ, বাংলাদেশ",Thanchi,বাংলাদেশ,চট্টগ্রাম বিভাগ,local_admin,boundaries,['peak'],[],Bangladesh,Chittagong,Bandarban,Thanchi,Tindu,04d10c9a340f114ea7c0bc54cf909cad
10029915757.0,893cdc55333ffff,21.3024288,92.6200334,,,"Thanchi, Bandarban Hill District, Chattogram Division, Bangladesh","বান্দরবান পার্বত্য জেলা, চট্টগ্রাম বিভাগ, বাংলাদেশ",Thanchi,বাংলাদেশ,চট্টগ্রাম বিভাগ,local_admin,boundaries,['helipad'],[],Bangladesh,Chittagong,Bandarban,Thanchi,Remakry,7cc9cac8345f1549a9529427a7c521c1
10029915758.0,893cdc42c2fffff,21.2753333,92.6191074,,,"Thanchi, Bandarban Hill District, Chattogram Division, Bangladesh","বান্দরবান পার্বত্য জেলা, চট্টগ্রাম বিভাগ, বাংলাদেশ",Thanchi,বাংলাদেশ,চট্টগ্রাম বিভাগ,local_admin,boundaries,['helipad'],[],Bangladesh,Chittagong,Bandarban,Thanchi,Remakry,7cc9cac8345f1549a9529427a7c521c1
4782250373.0,893cc26a09bffff,21.8774896,92.0885397,CRE Mosque,,"CRE Mosque, Cox's Bazar District, Chattogram Division, Bangladesh","ক্রে মসজিদ, কক্সবাজার জেলা, চট্টগ্রাম বিভাগ, বাংলাদেশ",,বাংলাদেশ,চট্টগ্রাম বিভাগ,admin2,boundaries,['place_of_worship_muslim'],[],Bangladesh,Chittagong,Bandarban,Lama,Faitang,eabfc24373e59c42d5c1ac991cbb2597
5144308221.0,893cc278a03ffff,21.9029167,92.0613425,Aziz Nagar,,"Aziz Nagar, Cox's Bazar District, Chattogram Division, Bangladesh","আজিজ নগর, কক্সবাজার জেলা, চট্টগ্রাম বিভাগ, বাংলাদেশ",,বাংলাদেশ,চট্টগ্রাম বিভাগ,street,boundaries,['bus_stop'],[],Bangladesh,Chittagong,Bandarban,Lama,Aziznagar,aa308ce2880ff3ce3b62d953afd4d8a5
162212760.0,893cd1a4eabffff,21.6546563959073,92.13111867423744,Telipati Road,,"Telipati Road, Cox's Bazar District, Chattogram Division, Bangladesh","টেলিপাতি রোড, কক্সবাজার জেলা, চট্টগ্রাম বিভাগ, বাংলাদেশ",,বাংলাদেশ,চট্টগ্রাম বিভাগ,street,,,,Bangladesh,Chittagong,Bandarban,Lama,Fasyakhali,d0d6f81d3d87e8962c6bb2f64be97fda
7562554616.0,893cc26a007ffff,21.8705797,92.0995901,আজিজনগর,['Aziznagar'],"Aziznagar, Bandarban Hill District, Chattogram Division, Bangladesh","আজিজনগর, বান্দরবান পার্বত্য জেলা, চট্টগ্রাম বিভাগ, বাংলাদেশ",,বাংলাদেশ,চট্টগ্রাম বিভাগ,locality,,,,Bangladesh,Chittagong,Bandarban,Lama,Faitang,eabfc24373e59c42d5c1ac991cbb2597
477229972.0,893cc276167ffff,22.1836774,92.2177953,Ruma Bus stopage,,"Ruma Bus stopage, Bandarban Hill District, Chattogram Division, Bangladesh","রুমা বাস স্টপেজ, বান্দরবান পার্বত্য জেলা, চট্টগ্রাম বিভাগ, বাংলাদেশ",,বাংলাদেশ,চট্টগ্রাম বিভাগ,street,boundaries,['bus_stop'],[],Bangladesh,Chittagong,Bandarban,BandarbanSadar,BandarbanPaurashava,41c7e237c37b67a48886890b8cbb0cf9
477230450.0,893cc276123ffff,22.1899118,92.2189398,Thanchi Stand,,"Thanchi Stand, Bandarban Hill District, Chattogram Division, Bangladesh","থানচি স্ট্যান্ড, বান্দরবান পার্বত্য জেলা, চট্টগ্রাম বিভাগ, বাংলাদেশ",,বাংলাদেশ,চট্টগ্রাম বিভাগ,street,boundaries,['bus_stop'],[],Bangladesh,Chittagong,Bandarban,Rowangchhari,Tarachha,9d37466edc127248da7e413c2442678c
477231481.0,893cc27451bffff,22.1506745,92.2168769,Shailopropat waterfall,,"Shailopropat waterfall, Bandarban Hill District, Chattogram Division, Bangladesh","শাইলোপ্রোপ্যাট জলপ্রপাত, বান্দরবান পার্বত্য জেলা, চট্টগ্রাম বিভাগ, বাংলাদেশ",,বাংলাদেশ,চট্টগ্রাম বিভাগ,admin2,boundaries,['attraction'],[],Bangladesh,Chittagong,Bandarban,Rowangchhari,Tarachha,9d37466edc127248da7e413c2442678c
477234209.0,893cc276e43ffff,22.1686077,92.2228421,Milon Chori,,"Milon Chori, Bandarban Hill District, Chattogram Division, Bangladesh","মিলন চোরি, বান্দরবান পার্বত্য জেলা, চট্টগ্রাম বিভাগ, বাংলাদেশ",,বাংলাদেশ,চট্টগ্রাম বিভাগ,admin2,boundaries,['guest_house'],[],Bangladesh,Chittagong,Bandarban,Rowangchhari,Tarachha,9d37466edc127248da7e413c2442678c
479696056.0,893cc27610fffff,22.1884142,92.2140359,Bandarban Interdistrict bus stop,,"Bandarban Interdistrict bus stop, Bandarban Hill District, Chattogram Division, Bangladesh","বান্দারবান আন্তঃব্যক্তিক বাস স্টপ, বান্দরবান পার্বত্য জেলা, চট্টগ্রাম বিভাগ, বাংলাদেশ",,বাংলাদেশ,চট্টগ্রাম বিভাগ,street,boundaries,['bus_stop'],[],Bangladesh,Chittagong,Bandarban,BandarbanSadar,BandarbanPaurashava,41c7e237c37b67a48886890b8cbb0cf9
1748374114.0,893cc23929bffff,22.2179327,92.2088724,Govt Girls College,,"Govt Girls College, Bandarban Hill District, Chattogram Division, Bangladesh","গভর্ন্ট গার্লস কলেজ, বান্দরবান পার্বত্য জেলা, চট্টগ্রাম বিভাগ, বাংলাদেশ",,বাংলাদেশ,চট্টগ্রাম বিভাগ,admin2,boundaries,['school'],[],Bangladesh,Chittagong,Bandarban,BandarbanSadar,BandarbanPaurashava,41c7e237c37b67a48886890b8cbb0cf9
2629950962.0,893cc276c23ffff,22.1962062,92.2441954,,,"Bandarban Hill District, Chattogram Division, Bangladesh","বান্দরবান পার্বত্য জেলা, চট্টগ্রাম বিভাগ, বাংলাদেশ",,বাংলাদেশ,চট্টগ্রাম বিভাগ,admin2,boundaries,['monument'],[],Bangladesh,Chittagong,Bandarban,Rowangchhari,Tarachha,9d37466edc127248da7e413c2442678c
2638156708.0,893cc2761afffff,22.196363,92.2189171,Islami Bank Bangladesh Limited,,"Islami Bank Bangladesh Limited, Bandarban Hill District, Chattogram Division, Bangladesh","ইসলামি ব্যাংক বাংলাদেশ লিমিটেড, বান্দরবান পার্বত্য জেলা, চট্টগ্রাম বিভাগ, বাংলাদেশ",,বাংলাদেশ,চট্টগ্রাম বিভাগ,admin2,boundaries,['bank'],[],Bangladesh,Chittagong,Bandarban,BandarbanSadar,BandarbanPaurashava,41c7e237c37b67a48886890b8cbb0cf9
2638157419.0,893cc2761afffff,22.1966875,92.2191331,Bandarban Central Mosque,,"Bandarban Central Mosque, Bandarban Hill District, Chattogram Division, Bangladesh","বান্ডারবান কেন্দ্রীয় মসজিদ, বান্দরবান পার্বত্য জেলা, চট্টগ্রাম বিভাগ, বাংলাদেশ",,বাংলাদেশ,চট্টগ্রাম বিভাগ,admin2,boundaries,['place_of_worship_muslim'],[],Bangladesh,Chittagong,Bandarban,BandarbanSadar,BandarbanPaurashava,41c7e237c37b67a48886890b8cbb0cf9
2638159693.0,893cc276cdbffff,22.1977411,92.220804,Bandarban Government Girls' High School,,"Bandarban Government Girls' High School, Bandarban Hill District, Chattogram Division, Bangladesh","বান্ডারবান সরকারী মেয়েদের উচ্চ বিদ্যালয়, বান্দরবান পার্বত্য জেলা, চট্টগ্রাম বিভাগ, বাংলাদেশ",,বাংলাদেশ,চট্টগ্রাম বিভাগ,admin2,boundaries,['school'],[],Bangladesh,Chittagong,Bandarban,Rowangchhari,Tarachha,9d37466edc127248da7e413c2442678c
2638160939.0,893cc2761a7ffff,22.1972165,92.2187298,Bandarban Government High School,,"Bandarban Government High School, Bandarban Hill District, Chattogram Division, Bangladesh","বান্ডারবান সরকার উচ্চ বিদ্যালয়, বান্দরবান পার্বত্য জেলা, চট্টগ্রাম বিভাগ, বাংলাদেশ",,বাংলাদেশ,চট্টগ্রাম বিভাগ,admin2,boundaries,['school'],[],Bangladesh,Chittagong,Bandarban,BandarbanSadar,BandarbanPaurashava,41c7e237c37b67a48886890b8cbb0cf9
2638176499.0,893cc2761abffff,22.1941237,92.2160783,Thana Masjid,,"Thana Masjid, Bandarban Hill District, Chattogram Division, Bangladesh","থানা মসজিদ, বান্দরবান পার্বত্য জেলা, চট্টগ্রাম বিভাগ, বাংলাদেশ",,বাংলাদেশ,চট্টগ্রাম বিভাগ,admin2,boundaries,['place_of_worship_muslim'],[],Bangladesh,Chittagong,Bandarban,BandarbanSadar,BandarbanPaurashava,41c7e237c37b67a48886890b8cbb0cf9
2638186093.0,893cc276107ffff,22.1898093,92.2147878,Hotel Hill View,,"Hotel Hill View, Bandarban Hill District, Chattogram Division, Bangladesh","হোটেল হিল ভিউ, বান্দরবান পার্বত্য জেলা, চট্টগ্রাম বিভাগ, বাংলাদেশ",,বাংলাদেশ,চট্টগ্রাম বিভাগ,admin2,boundaries,['hotel'],[],Bangladesh,Chittagong,Bandarban,BandarbanSadar,BandarbanPaurashava,41c7e237c37b67a48886890b8cbb0cf9
2638190607.0,893cc2761afffff,22.1965282,92.2175811,Pouro Shopping Mall,,"Pouro Shopping Mall, Bandarban Hill District, Chattogram Division, Bangladesh","পোরো শপিংমল, বান্দরবান পার্বত্য জেলা, চট্টগ্রাম বিভাগ, বাংলাদেশ",,বাংলাদেশ,চট্টগ্রাম বিভাগ,admin2,boundaries,['mall'],[],Bangladesh,Chittagong,Bandarban,BandarbanSadar,BandarbanPaurashava,41c7e237c37b67a48886890b8cbb0cf9
2830461934.0,893cc2761a7ffff,22.198225,92.2188209,Agrani Bank Limited,,"Agrani Bank Limited, Bandarban Hill District, Chattogram Division, Bangladesh","আগরানী ব্যাংক লিমিটেড, বান্দরবান পার্বত্য জেলা, চট্টগ্রাম বিভাগ, বাংলাদেশ",,বাংলাদেশ,চট্টগ্রাম বিভাগ,admin2,boundaries,['bank'],[],Bangladesh,Chittagong,Bandarban,BandarbanSadar,BandarbanPaurashava,41c7e237c37b67a48886890b8cbb0cf9
2830464898.0,893cc2761afffff,22.1959159,92.2177857,Bardarban Shishu Academy,,"Bardarban Shishu Academy, Bandarban Hill District, Chattogram Division, Bangladesh","বারদারবান শিশু একাডেমি, বান্দরবান পার্বত্য জেলা, চট্টগ্রাম বিভাগ, বাংলাদেশ",,বাংলাদেশ,চট্টগ্রাম বিভাগ,admin2,boundaries,['arts_centre'],[],Bangladesh,Chittagong,Bandarban,BandarbanSadar,BandarbanPaurashava,41c7e237c37b67a48886890b8cbb0cf9
2830468633.0,893cc2761afffff,22.195543,92.2175971,সোনালী ব্যাংক লিমিটেড এটিএম,['Sonali Bank Limited ATM'],"Sonali Bank Ltd ATM, Bandarban Hill District, Chattogram Division, Bangladesh","সোনালী ব্যাংক লিমিটেড এটিএম, বান্দরবান পার্বত্য জেলা, চট্টগ্রাম বিভাগ, বাংলাদেশ",,বাংলাদেশ,চট্টগ্রাম বিভাগ,admin2,boundaries,['atm'],[],Bangladesh,Chittagong,Bandarban,BandarbanSadar,BandarbanPaurashava,41c7e237c37b67a48886890b8cbb0cf9
2830470140.0,893cc2761abffff,22.1944716,92.2163562,Bardarban Sadar Thana,,"Bardarban Sadar Thana, Bandarban Hill District, Chattogram Division, Bangladesh","বারদারবান সদর থানা, বান্দরবান পার্বত্য জেলা, চট্টগ্রাম বিভাগ, বাংলাদেশ",,বাংলাদেশ,চট্টগ্রাম বিভাগ,admin2,boundaries,['police'],[],Bangladesh,Chittagong,Bandarban,BandarbanSadar,BandarbanPaurashava,41c7e237c37b67a48886890b8cbb0cf9
2830470141.0,893cc276133ffff,22.1912079,92.2165745,Al Faruque School,,"Al Faruque School, Bandarban Hill District, Chattogram Division, Bangladesh","আল ফারুক স্কুল, বান্দরবান পার্বত্য জেলা, চট্টগ্রাম বিভাগ, বাংলাদেশ",,বাংলাদেশ,চট্টগ্রাম বিভাগ,admin2,boundaries,['school'],[],Bangladesh,Chittagong,Bandarban,BandarbanSadar,BandarbanPaurashava,41c7e237c37b67a48886890b8cbb0cf9
2830470142.0,893cc276123ffff,22.190914,92.2189777,Circuit House,,"Circuit House, Bandarban Hill District, Chattogram Division, Bangladesh","সার্কিট হাউস, বান্দরবান পার্বত্য জেলা, চট্টগ্রাম বিভাগ, বাংলাদেশ",,বাংলাদেশ,চট্টগ্রাম বিভাগ,admin2,boundaries,['guest_house'],[],Bangladesh,Chittagong,Bandarban,Rowangchhari,Tarachha,9d37466edc127248da7e413c2442678c
2830476296.0,893cc2761afffff,22.1937948,92.2185408,Collectorate School Bandarba,,"Collectorate School Bandarba, Bandarban Hill District, Chattogram Division, Bangladesh","কালেক্টরেট স্কুল বান্দারবা, বান্দরবান পার্বত্য জেলা, চট্টগ্রাম বিভাগ, বাংলাদেশ",,বাংলাদেশ,চট্টগ্রাম বিভাগ,admin2,boundaries,['school'],[],Bangladesh,Chittagong,Bandarban,BandarbanSadar,BandarbanPaurashava,41c7e237c37b67a48886890b8cbb0cf9
2830476489.0,893cc276133ffff,22.1927345,92.2164631,Hotel Plaza,,"Hotel Plaza, Bandarban Hill District, Chattogram Division, Bangladesh","হোটেল প্লাজা, বান্দরবান পার্বত্য জেলা, চট্টগ্রাম বিভাগ, বাংলাদেশ",,বাংলাদেশ,চট্টগ্রাম বিভাগ,admin2,boundaries,['hotel'],[],Bangladesh,Chittagong,Bandarban,BandarbanSadar,BandarbanPaurashava,41c7e237c37b67a48886890b8cbb0cf9
2830477578.0,893cc276127ffff,22.1902929,92.2246432,Bandarban District Jail,,"Bandarban District Jail, Bandarban Hill District, Chattogram Division, Bangladesh","বান্ডারবান জেলা জেল, বান্দরবান পার্বত্য জেলা, চট্টগ্রাম বিভাগ, বাংলাদেশ",,বাংলাদেশ,চট্টগ্রাম বিভাগ,admin2,boundaries,['prison'],[],Bangladesh,Chittagong,Bandarban,Rowangchhari,Tarachha,9d37466edc127248da7e413c2442678c
2830478665.0,893cc276e4bffff,22.1641251,92.2210706,Osing Tong Resort,,"Osing Tong Resort, Bandarban Hill District, Chattogram Division, Bangladesh","ওসিং টং রিসর্ট, বান্দরবান পার্বত্য জেলা, চট্টগ্রাম বিভাগ, বাংলাদেশ",,বাংলাদেশ,চট্টগ্রাম বিভাগ,admin2,boundaries,['hotel'],[],Bangladesh,Chittagong,Bandarban,Rowangchhari,Tarachha,9d37466edc127248da7e413c2442678c
2830479892.0,893cc2745cfffff,22.1508086,92.2165935,Shoylo Propat,,"Shoylo Propat, Bandarban Hill District, Chattogram Division, Bangladesh","শোলো প্রোপাট, বান্দরবান পার্বত্য জেলা, চট্টগ্রাম বিভাগ, বাংলাদেশ",,বাংলাদেশ,চট্টগ্রাম বিভাগ,admin2,boundaries,['waterfall'],[],Bangladesh,Chittagong,Bandarban,Rowangchhari,Tarachha,9d37466edc127248da7e413c2442678c
2831087228.0,893cdcd26a7ffff,21.7594219,92.2082045,Lama Matamuhuri College,,"Lama Matamuhuri College, Bandarban Hill District, Chattogram Division, Bangladesh","লামা মাতামুহুরি কলেজ, বান্দরবান পার্বত্য জেলা, চট্টগ্রাম বিভাগ, বাংলাদেশ",,বাংলাদেশ,চট্টগ্রাম বিভাগ,admin2,boundaries,['college'],[],Bangladesh,Chittagong,Bandarban,Lama,Lama,eda3261d3db43f437371f103eb4de50a
4707928642.0,893cc2761afffff,22.196832,92.2175667,Hotel Zaman Biriyani House & Restaurant,,"Hotel Zaman Biriyani House & Restaurant, Bandarban Hill District, Chattogram Division, Bangladesh","হোটেল জামান বিরিয়ানি হাউস ও রেস্তোঁরা, বান্দরবান পার্বত্য জেলা, চট্টগ্রাম বিভাগ, বাংলাদেশ",,বাংলাদেশ,চট্টগ্রাম বিভাগ,admin2,boundaries,['restaurant'],[],Bangladesh,Chittagong,Bandarban,BandarbanSadar,BandarbanPaurashava,41c7e237c37b67a48886890b8cbb0cf9
4707928664.0,893cc2761afffff,22.1965439,92.2182537,Hotel Amirabad,,"Hotel Amirabad, Bandarban Hill District, Chattogram Division, Bangladesh","হোটেল আমিরাবাদ, বান্দরবান পার্বত্য জেলা, চট্টগ্রাম বিভাগ, বাংলাদেশ",,বাংলাদেশ,চট্টগ্রাম বিভাগ,admin2,boundaries,['restaurant'],[],Bangladesh,Chittagong,Bandarban,BandarbanSadar,BandarbanPaurashava,41c7e237c37b67a48886890b8cbb0cf9
4707928665.0,893cc2761a7ffff,22.1987054,92.2188704,Master Shopping Center (Burmese Market),,"Master Shopping Center Burmese Market, Bandarban Hill District, Chattogram Division, Bangladesh","মাস্টার শপিং সেন্টার বার্মিজ মার্কেট, বান্দরবান পার্বত্য জেলা, চট্টগ্রাম বিভাগ, বাংলাদেশ",,বাংলাদেশ,চট্টগ্রাম বিভাগ,admin2,boundaries,['marketplace'],[],Bangladesh,Chittagong,Bandarban,BandarbanSadar,BandarbanPaurashava,41c7e237c37b67a48886890b8cbb0cf9
4707928666.0,893cc2761a7ffff,22.1975679,92.219884,Bandarban Cinema Hall,,"Bandarban Cinema Hall, Bandarban Hill District, Chattogram Division, Bangladesh","বান্ডারবান সিনেমা হল, বান্দরবান পার্বত্য জেলা, চট্টগ্রাম বিভাগ, বাংলাদেশ",,বাংলাদেশ,চট্টগ্রাম বিভাগ,admin2,boundaries,['cinema'],[],Bangladesh,Chittagong,Bandarban,BandarbanSadar,BandarbanPaurashava,41c7e237c37b67a48886890b8cbb0cf9
4707928672.0,893cc276cd3ffff,22.1992429,92.2215536,Tohzah Restaurant,,"Tohzah Restaurant, Bandarban Hill District, Chattogram Division, Bangladesh","তোহজাহ রেস্তোঁরা, বান্দরবান পার্বত্য জেলা, চট্টগ্রাম বিভাগ, বাংলাদেশ",,বাংলাদেশ,চট্টগ্রাম বিভাগ,admin2,boundaries,['restaurant'],[],Bangladesh,Chittagong,Bandarban,BandarbanSadar,BandarbanPaurashava,41c7e237c37b67a48886890b8cbb0cf9
4707928673.0,893cc276cd3ffff,22.1987039,92.2216519,Kong Rong Mundi Restaurent,,"Kong Rong Mundi Restaurent, Bandarban Hill District, Chattogram Division, Bangladesh","কং রং মুন্ডি রেস্তোঁরা, বান্দরবান পার্বত্য জেলা, চট্টগ্রাম বিভাগ, বাংলাদেশ",,বাংলাদেশ,চট্টগ্রাম বিভাগ,admin2,boundaries,['restaurant'],[],Bangladesh,Chittagong,Bandarban,BandarbanSadar,BandarbanPaurashava,41c7e237c37b67a48886890b8cbb0cf9
4707928678.0,893cc276cc3ffff,22.1973788,92.2233893,Ujani Para Buddhist Temple,,"Ujani Para Buddhist Temple, Bandarban Hill District, Chattogram Division, Bangladesh","উজানি প্যারা বৌদ্ধ মন্দির, বান্দরবান পার্বত্য জেলা, চট্টগ্রাম বিভাগ, বাংলাদেশ",,বাংলাদেশ,চট্টগ্রাম বিভাগ,admin2,boundaries,['place_of_worship'],[],Bangladesh,Chittagong,Bandarban,Rowangchhari,Tarachha,9d37466edc127248da7e413c2442678c
4707929090.0,893cc276c23ffff,22.1955224,92.2444087,Ram Jadi,,"Ram Jadi, Bandarban Hill District, Chattogram Division, Bangladesh","রাম জাদি, বান্দরবান পার্বত্য জেলা, চট্টগ্রাম বিভাগ, বাংলাদেশ",,বাংলাদেশ,চট্টগ্রাম বিভাগ,admin2,boundaries,['place_of_worship'],[],Bangladesh,Chittagong,Bandarban,Rowangchhari,Tarachha,9d37466edc127248da7e413c2442678c
4839087022.0,893cc22b603ffff,22.1709969,92.2948439,,['kay shoi lah'],"Bandarban Hill District, Chattogram Division, Bangladesh","বান্দরবান পার্বত্য জেলা, চট্টগ্রাম বিভাগ, বাংলাদেশ",,বাংলাদেশ,চট্টগ্রাম বিভাগ,admin2,boundaries,['greengrocer'],[],Bangladesh,Chittagong,Bandarban,Rowangchhari,Rowangchhari,11e1a0b5973654ae0c996cb138433baf
4889457522.0,893cc22b617ffff,22.174843,92.2942377,,['lahpaimukh para'],"Bandarban Hill District, Chattogram Division, Bangladesh","বান্দরবান পার্বত্য জেলা, চট্টগ্রাম বিভাগ, বাংলাদেশ",,বাংলাদেশ,চট্টগ্রাম বিভাগ,admin2,boundaries,['greengrocer'],[],Bangladesh,Chittagong,Bandarban,Rowangchhari,Rowangchhari,11e1a0b5973654ae0c996cb138433baf
4946017621.0,893cc260d4bffff,21.9832499,92.2369016,,,"Bandarban Hill District, Chattogram Division, Bangladesh","বান্দরবান পার্বত্য জেলা, চট্টগ্রাম বিভাগ, বাংলাদেশ",,বাংলাদেশ,চট্টগ্রাম বিভাগ,admin2,boundaries,['bus_station'],[],Bangladesh,Chittagong,Bandarban,Lama,Sarai,f3a3666d3f039807e730f70fdd6992f8
4984204125.0,893cc260c03ffff,21.9861916,92.2213203,,,"Bandarban Hill District, Chattogram Division, Bangladesh","বান্দরবান পার্বত্য জেলা, চট্টগ্রাম বিভাগ, বাংলাদেশ",,বাংলাদেশ,চট্টগ্রাম বিভাগ,admin2,boundaries,['atm'],[],Bangladesh,Chittagong,Bandarban,Lama,Sarai,f3a3666d3f039807e730f70fdd6992f8
4984220522.0,893cc260c3bffff,21.9862814,92.2254476,,,"Bandarban Hill District, Chattogram Division, Bangladesh","বান্দরবান পার্বত্য জেলা, চট্টগ্রাম বিভাগ, বাংলাদেশ",,বাংলাদেশ,চট্টগ্রাম বিভাগ,admin2,boundaries,['atm'],[],Bangladesh,Chittagong,Bandarban,Lama,Sarai,f3a3666d3f039807e730f70fdd6992f8
4984220721.0,893cc260cc3ffff,21.9856028,92.2092305,,,"Bandarban Hill District, Chattogram Division, Bangladesh","বান্দরবান পার্বত্য জেলা, চট্টগ্রাম বিভাগ, বাংলাদেশ",,বাংলাদেশ,চট্টগ্রাম বিভাগ,admin2,boundaries,['atm'],[],Bangladesh,Chittagong,Bandarban,Lama,Sarai,f3a3666d3f039807e730f70fdd6992f8
4984220921.0,893cc260c03ffff,21.985812,92.2184549,,,"Bandarban Hill District, Chattogram Division, Bangladesh","বান্দরবান পার্বত্য জেলা, চট্টগ্রাম বিভাগ, বাংলাদেশ",,বাংলাদেশ,চট্টগ্রাম বিভাগ,admin2,boundaries,['atm'],[],Bangladesh,Chittagong,Bandarban,Lama,Sarai,f3a3666d3f039807e730f70fdd6992f8
4984221021.0,893cc260c03ffff,21.9859071,92.2194624,,,"Bandarban Hill District, Chattogram Division, Bangladesh","বান্দরবান পার্বত্য জেলা, চট্টগ্রাম বিভাগ, বাংলাদেশ",,বাংলাদেশ,চট্টগ্রাম বিভাগ,admin2,boundaries,['atm'],[],Bangladesh,Chittagong,Bandarban,Lama,Sarai,f3a3666d3f039807e730f70fdd6992f8
4993385921.0,893cc260c1bffff,21.9843904,92.215062,,,"Bandarban Hill District, Chattogram Division, Bangladesh","বান্দরবান পার্বত্য জেলা, চট্টগ্রাম বিভাগ, বাংলাদেশ",,বাংলাদেশ,চট্টগ্রাম বিভাগ,admin2,boundaries,['atm'],[],Bangladesh,Chittagong,Bandarban,Lama,Sarai,f3a3666d3f039807e730f70fdd6992f8
5097494197.0,893cc2761b7ffff,22.2003537,92.2161139,Tiger Hill,,"Tiger Hill, Bandarban Hill District, Chattogram Division, Bangladesh","টাইগার হিল, বান্দরবান পার্বত্য জেলা, চট্টগ্রাম বিভাগ, বাংলাদেশ",,বাংলাদেশ,চট্টগ্রাম বিভাগ,admin2,boundaries,['park'],[],Bangladesh,Chittagong,Bandarban,BandarbanSadar,BandarbanPaurashava,41c7e237c37b67a48886890b8cbb0cf9
5224542571.0,893cc2654a3ffff,21.9909076,92.2934191,tea stall,,"tea stall, Bandarban Hill District, Chattogram Division, Bangladesh","চা স্টল, বান্দরবান পার্বত্য জেলা, চট্টগ্রাম বিভাগ, বাংলাদেশ",,বাংলাদেশ,চট্টগ্রাম বিভাগ,admin2,boundaries,['cafe'],[],Bangladesh,Chittagong,Bandarban,BandarbanSadar,Tankabati,5d2367be131750cd6a6df70ad392800a
5542805390.0,893cc260b1bffff,21.9535918,92.2526864,,['WFP Nutrition Nayapara'],"Bandarban Hill District, Chattogram Division, Bangladesh","বান্দরবান পার্বত্য জেলা, চট্টগ্রাম বিভাগ, বাংলাদেশ",,বাংলাদেশ,চট্টগ্রাম বিভাগ,admin2,boundaries,['ngo'],[],Bangladesh,Chittagong,Bandarban,BandarbanSadar,Tankabati,5d2367be131750cd6a6df70ad392800a
5542855558.0,893cc260833ffff,21.9708179,92.2436313,,['WFP Nutrition FDP Leda MS'],"Bandarban Hill District, Chattogram Division, Bangladesh","বান্দরবান পার্বত্য জেলা, চট্টগ্রাম বিভাগ, বাংলাদেশ",,বাংলাদেশ,চট্টগ্রাম বিভাগ,admin2,boundaries,['ngo'],[],Bangladesh,Chittagong,Bandarban,BandarbanSadar,Tankabati,5d2367be131750cd6a6df70ad392800a
5643568043.0,893cd135d3bffff,21.3572924,92.2073849,,,"Bandarban Hill District, Chattogram Division, Bangladesh","বান্দরবান পার্বত্য জেলা, চট্টগ্রাম বিভাগ, বাংলাদেশ",,বাংলাদেশ,চট্টগ্রাম বিভাগ,admin2,boundaries,['ford'],[],Bangladesh,Chittagong,Bandarban,Naikhongchhari,Ghandung,4ac5ec69f101c7526332f8c707bc83a6
5646775418.0,893cd135d0fffff,21.3564745,92.2048607,,,"Bandarban Hill District, Chattogram Division, Bangladesh","বান্দরবান পার্বত্য জেলা, চট্টগ্রাম বিভাগ, বাংলাদেশ",,বাংলাদেশ,চট্টগ্রাম বিভাগ,admin2,boundaries,['ford'],[],Bangladesh,Chittagong,Bandarban,Naikhongchhari,Ghandung,4ac5ec69f101c7526332f8c707bc83a6
5646775957.0,893cd135d0fffff,21.3559811,92.2041679,,,"Bandarban Hill District, Chattogram Division, Bangladesh","বান্দরবান পার্বত্য জেলা, চট্টগ্রাম বিভাগ, বাংলাদেশ",,বাংলাদেশ,চট্টগ্রাম বিভাগ,admin2,boundaries,['ford'],[],Bangladesh,Chittagong,Bandarban,Naikhongchhari,Ghandung,4ac5ec69f101c7526332f8c707bc83a6
6636665202.0,893cdcd2627ffff,21.7539993,92.2121653,Lama Bazar,,"Lama Bazar, Bandarban Hill District, Chattogram Division, Bangladesh","লামা বাজার, বান্দরবান পার্বত্য জেলা, চট্টগ্রাম বিভাগ, বাংলাদেশ",,বাংলাদেশ,চট্টগ্রাম বিভাগ,admin2,boundaries,['marketplace'],[],Bangladesh,Chittagong,Bandarban,Lama,Lama,eda3261d3db43f437371f103eb4de50a
7395734441.0,893cdcca473ffff,21.5006935,92.2880651,,,"Bandarban Hill District, Chattogram Division, Bangladesh","বান্দরবান পার্বত্য জেলা, চট্টগ্রাম বিভাগ, বাংলাদেশ",,বাংলাদেশ,চট্টগ্রাম বিভাগ,admin2,boundaries,['ford'],[],Bangladesh,Chittagong,Bandarban,Naikhongchhari,Dochhari,473dde9a78ec788871a640312f692027
7395734465.0,893cdcca6b3ffff,21.4927756,92.2837226,,,"Bandarban Hill District, Chattogram Division, Bangladesh","বান্দরবান পার্বত্য জেলা, চট্টগ্রাম বিভাগ, বাংলাদেশ",,বাংলাদেশ,চট্টগ্রাম বিভাগ,admin2,boundaries,['ford'],[],Bangladesh,Chittagong,Bandarban,Naikhongchhari,Dochhari,473dde9a78ec788871a640312f692027
7395802191.0,893cdcca447ffff,21.5006226,92.2870539,,,"Bandarban Hill District, Chattogram Division, Bangladesh","বান্দরবান পার্বত্য জেলা, চট্টগ্রাম বিভাগ, বাংলাদেশ",,বাংলাদেশ,চট্টগ্রাম বিভাগ,admin2,boundaries,['ford'],[],Bangladesh,Chittagong,Bandarban,Naikhongchhari,Dochhari,473dde9a78ec788871a640312f692027
7396162142.0,893cdcd9c87ffff,21.5190554,92.2194475,,,"Bandarban Hill District, Chattogram Division, Bangladesh","বান্দরবান পার্বত্য জেলা, চট্টগ্রাম বিভাগ, বাংলাদেশ",,বাংলাদেশ,চট্টগ্রাম বিভাগ,admin2,boundaries,['ford'],[],Bangladesh,Chittagong,Bandarban,Naikhongchhari,Dochhari,473dde9a78ec788871a640312f692027
7396162659.0,893cdcd8b1bffff,21.5291047,92.2914366,,,"Bandarban Hill District, Chattogram Division, Bangladesh","বান্দরবান পার্বত্য জেলা, চট্টগ্রাম বিভাগ, বাংলাদেশ",,বাংলাদেশ,চট্টগ্রাম বিভাগ,admin2,boundaries,['ford'],[],Bangladesh,Chittagong,Bandarban,Naikhongchhari,Dochhari,473dde9a78ec788871a640312f692027
8061621224.0,893cdcd2a0bffff,21.7320465,92.2838395,,,"Bandarban Hill District, Chattogram Division, Bangladesh","বান্দরবান পার্বত্য জেলা, চট্টগ্রাম বিভাগ, বাংলাদেশ",,বাংলাদেশ,চট্টগ্রাম বিভাগ,admin2,boundaries,['ford'],[],Bangladesh,Chittagong,Bandarban,Alikadam,Chokhyong,d939fff41bb7656140080dd8032388c9
9530594592.0,893cd135d77ffff,21.3559868,92.2057442,MONOHAR PUR HIGH SCHOOL,,"MONOHAR PUR HIGH SCHOOL, Bandarban Hill District, Chattogram Division, Bangladesh","মনোহর পুর উচ্চ বিদ্যালয়, বান্দরবান পার্বত্য জেলা, চট্টগ্রাম বিভাগ, বাংলাদেশ",,বাংলাদেশ,চট্টগ্রাম বিভাগ,admin2,boundaries,"['educational_institution', 'school']",[],Bangladesh,Chittagong,Bandarban,Naikhongchhari,Ghandung,4ac5ec69f101c7526332f8c707bc83a6
9530594600.0,893cc276e23ffff,22.1736511,92.236785,CHAINGYA GOVT. PRIMARY SCHOOL,,"CHAINGYA GOVT. PRIMARY SCHOOL, Bandarban Hill District, Chattogram Division, Bangladesh","চাঙ্গ্যা সরকারপ্রাথমিক বিদ্যালয়, বান্দরবান পার্বত্য জেলা, চট্টগ্রাম বিভাগ, বাংলাদেশ",,বাংলাদেশ,চট্টগ্রাম বিভাগ,admin2,boundaries,"['educational_institution', 'school']",[],Bangladesh,Chittagong,Bandarban,Rowangchhari,Tarachha,9d37466edc127248da7e413c2442678c
9530594601.0,893cc276117ffff,22.1933447,92.2125132,SANGU HIGH SCHOOL,,"SANGU HIGH SCHOOL, Bandarban Hill District, Chattogram Division, Bangladesh","সাঙ্গু হাই স্কুল, বান্দরবান পার্বত্য জেলা, চট্টগ্রাম বিভাগ, বাংলাদেশ",,বাংলাদেশ,চট্টগ্রাম বিভাগ,admin2,boundaries,"['educational_institution', 'school']",[],Bangladesh,Chittagong,Bandarban,BandarbanSadar,BandarbanPaurashava,41c7e237c37b67a48886890b8cbb0cf9
9530594602.0,893cc276cdbffff,22.1950522,92.2212953,B.  HAPPY  LEARNING  CENTER,,"B. HAPPY LEARNING CENTER, Bandarban Hill District, Chattogram Division, Bangladesh","বি। হ্যাপি লার্নিং সেন্টার, বান্দরবান পার্বত্য জেলা, চট্টগ্রাম বিভাগ, বাংলাদেশ",,বাংলাদেশ,চট্টগ্রাম বিভাগ,admin2,boundaries,"['educational_institution', 'school']",[],Bangladesh,Chittagong,Bandarban,Rowangchhari,Tarachha,9d37466edc127248da7e413c2442678c
9530594603.0,893cc276cdbffff,22.1970975,92.2228928,DONBOSCO HIGH SCHOOL,,"DONBOSCO HIGH SCHOOL, Bandarban Hill District, Chattogram Division, Bangladesh","ডোনবস্কো হাই স্কুল, বান্দরবান পার্বত্য জেলা, চট্টগ্রাম বিভাগ, বাংলাদেশ",,বাংলাদেশ,চট্টগ্রাম বিভাগ,admin2,boundaries,"['educational_institution', 'school']",[],Bangladesh,Chittagong,Bandarban,Rowangchhari,Tarachha,9d37466edc127248da7e413c2442678c
9530594604.0,893cc23927bffff,22.2030304,92.2164972,BANDARBAN BUDDAH ANATHALOY  JUNIOR HIGH SCHOOL,,"BANDARBAN BUDDAH ANATHALOY JUNIOR HIGH SCHOOL, Bandarban Hill District, Chattogram Division, Bangladesh","বান্দরবান বুদদা আনথালয় জুনিয়র হাই স্কুল, বান্দরবান পার্বত্য জেলা, চট্টগ্রাম বিভাগ, বাংলাদেশ",,বাংলাদেশ,চট্টগ্রাম বিভাগ,admin2,boundaries,"['educational_institution', 'school']",[],Bangladesh,Chittagong,Bandarban,BandarbanSadar,BandarbanPaurashava,41c7e237c37b67a48886890b8cbb0cf9
9530594605.0,893cc23921bffff,22.2132804,92.2126618,BALAGHATA BILKICH BEGUM HIGH SCHOOL,,"BALAGHATA BILKICH BEGUM HIGH SCHOOL, Bandarban Hill District, Chattogram Division, Bangladesh","বালাগাটা বিলকিচ বেগম উচ্চ বিদ্যালয়, বান্দরবান পার্বত্য জেলা, চট্টগ্রাম বিভাগ, বাংলাদেশ",,বাংলাদেশ,চট্টগ্রাম বিভাগ,admin2,boundaries,"['educational_institution', 'school']",[],Bangladesh,Chittagong,Bandarban,BandarbanSadar,BandarbanPaurashava,41c7e237c37b67a48886890b8cbb0cf9
9581935667.0,893cc2761afffff,22.1967763,92.2174858,Bazar Mashjid,,"Bazar Mashjid, Bandarban Hill District, Chattogram Division, Bangladesh","বাজর মাশজিদ, বান্দরবান পার্বত্য জেলা, চট্টগ্রাম বিভাগ, বাংলাদেশ",,বাংলাদেশ,চট্টগ্রাম বিভাগ,admin2,boundaries,['place_of_worship'],[],Bangladesh,Chittagong,Bandarban,BandarbanSadar,BandarbanPaurashava,41c7e237c37b67a48886890b8cbb0cf9
9592063259.0,893cc23921bffff,22.2108614,92.21243,Balaghata Bilkich Begum High School,,"Balaghata Bilkich Begum High School, Bandarban Hill District, Chattogram Division, Bangladesh","বালাগাটা বিলকিচ বেগম উচ্চ বিদ্যালয়, বান্দরবান পার্বত্য জেলা, চট্টগ্রাম বিভাগ, বাংলাদেশ",,বাংলাদেশ,চট্টগ্রাম বিভাগ,admin2,boundaries,['school'],[],Bangladesh,Chittagong,Bandarban,BandarbanSadar,BandarbanPaurashava,41c7e237c37b67a48886890b8cbb0cf9
9592063260.0,893cc239247ffff,22.2060978,92.2135238,Bandarban Buddah Anathaloy Junior High School,,"Bandarban Buddah Anathaloy Junior High School, Bandarban Hill District, Chattogram Division, Bangladesh","বান্দরবান বুদদা আনথালয় জুনিয়র হাই স্কুল, বান্দরবান পার্বত্য জেলা, চট্টগ্রাম বিভাগ, বাংলাদেশ",,বাংলাদেশ,চট্টগ্রাম বিভাগ,admin2,boundaries,['school'],[],Bangladesh,Chittagong,Bandarban,BandarbanSadar,BandarbanPaurashava,41c7e237c37b67a48886890b8cbb0cf9
9738827729.0,893cdcd1ebbffff,21.6520415,92.2593664,,,"Bandarban Hill District, Chattogram Division, Bangladesh","বান্দরবান পার্বত্য জেলা, চট্টগ্রাম বিভাগ, বাংলাদেশ",,বাংলাদেশ,চট্টগ্রাম বিভাগ,admin2,boundaries,['information'],[],Bangladesh,Chittagong,Bandarban,Alikadam,Chokhyong,d939fff41bb7656140080dd8032388c9
9738837092.0,893cdcc36b7ffff,21.6019062,92.2958537,,,"Bandarban Hill District, Chattogram Division, Bangladesh","বান্দরবান পার্বত্য জেলা, চট্টগ্রাম বিভাগ, বাংলাদেশ",,বাংলাদেশ,চট্টগ্রাম বিভাগ,admin2,boundaries,['ford'],[],Bangladesh,Chittagong,Bandarban,Alikadam,Chokhyong,d939fff41bb7656140080dd8032388c9
10086762779.0,893cc276cdbffff,22.1971214,92.2205791,রাজার মাঠ,,"The king's field, Bandarban Hill District, Chattogram Division, Bangladesh","রাজার মাঠ, বান্দরবান পার্বত্য জেলা, চট্টগ্রাম বিভাগ, বাংলাদেশ",,বাংলাদেশ,চট্টগ্রাম বিভাগ,admin2,boundaries,['playground'],[],Bangladesh,Chittagong,Bandarban,Rowangchhari,Tarachha,9d37466edc127248da7e413c2442678c
10089049705.0,893cc276333ffff,22.1686271,92.2098814,Nilachol Tourist Spot,,"Nilachol Tourist Spot, Bandarban Hill District, Chattogram Division, Bangladesh","নীলচল পর্যটন স্পট, বান্দরবান পার্বত্য জেলা, চট্টগ্রাম বিভাগ, বাংলাদেশ",,বাংলাদেশ,চট্টগ্রাম বিভাগ,admin2,boundaries,['attraction'],[],Bangladesh,Chittagong,Bandarban,BandarbanSadar,BandarbanPaurashava,41c7e237c37b67a48886890b8cbb0cf9
141430374.0,893cc276127ffff,22.19188918,92.22340667,Bandarban Stadium,,"Bandarban Stadium, Bandarban Hill District, Chattogram Division, Bangladesh","বান্দারবান স্টেডিয়াম, বান্দরবান পার্বত্য জেলা, চট্টগ্রাম বিভাগ, বাংলাদেশ",,বাংলাদেশ,চট্টগ্রাম বিভাগ,admin2,boundaries,['stadium'],[],Bangladesh,Chittagong,Bandarban,Rowangchhari,Tarachha,9d37466edc127248da7e413c2442678c
258470389.0,893cc276c5bffff,22.18944274,92.22654712,Bandarban Sadar Hospital,,"Bandarban Sadar Hospital, Bandarban Hill District, Chattogram Division, Bangladesh","বান্ডারবান সদর হাসপাতাল, বান্দরবান পার্বত্য জেলা, চট্টগ্রাম বিভাগ, বাংলাদেশ",,বাংলাদেশ,চট্টগ্রাম বিভাগ,admin2,boundaries,['hospital'],[],Bangladesh,Chittagong,Bandarban,Rowangchhari,Tarachha,9d37466edc127248da7e413c2442678c
783064135.0,893cc2619cfffff,21.92321816,92.21898885,Quantum Cosmo School,,"Quantum Cosmo School, Bandarban Hill District, Chattogram Division, Bangladesh","কোয়ান্টাম কসমো স্কুল, বান্দরবান পার্বত্য জেলা, চট্টগ্রাম বিভাগ, বাংলাদেশ",,বাংলাদেশ,চট্টগ্রাম বিভাগ,admin2,boundaries,['school'],[],Bangladesh,Chittagong,Bandarban,Lama,Sarai,f3a3666d3f039807e730f70fdd6992f8
783064136.0,893cc26191bffff,21.92548211,92.22052629,Quantamom Mosque,,"Quantamom Mosque, Bandarban Hill District, Chattogram Division, Bangladesh","কোয়ান্টামম মসজিদ, বান্দরবান পার্বত্য জেলা, চট্টগ্রাম বিভাগ, বাংলাদেশ",,বাংলাদেশ,চট্টগ্রাম বিভাগ,admin2,boundaries,['place_of_worship_muslim'],[],Bangladesh,Chittagong,Bandarban,Lama,Sarai,f3a3666d3f039807e730f70fdd6992f8
162797958.0,893cc276dcfffff,22.20021821212099,92.25122570936118,বান্দরবান-রোয়াংছড়ি সড়ক,['Bandarban Rowangchari Road'],"Bandarban-Roangchari road, Bandarban Rowangchari Road, Bandarban Hill District, Chattogram Division, Bangladesh","বান্দরবান-রোয়াংছড়ি সড়ক, বান্দরবান পার্বত্য জেলা, চট্টগ্রাম বিভাগ, বাংলাদেশ",,বাংলাদেশ,চট্টগ্রাম বিভাগ,street,,,,Bangladesh,Chittagong,Bandarban,Rowangchhari,Tarachha,9d37466edc127248da7e413c2442678c
141136700.0,893cc2762bbffff,22.169093693821065,92.1817350660823,Chittagong Bandarban Highway,,"Chittagong Bandarban Highway, Bandarban Hill District, Chattogram Division, Bangladesh","চট্টগ্রাম বান্দারবান হাইওয়ে, বান্দরবান পার্বত্য জেলা, চট্টগ্রাম বিভাগ, বাংলাদেশ",,বাংলাদেশ,চট্টগ্রাম বিভাগ,street,,,,Bangladesh,Chittagong,Bandarban,BandarbanSadar,Swalak,56ce00a17f29464553e21d7a16be0176
477438550.0,893cc2761afffff,22.19649445,92.21800595,2 No. Goli Road,,"2 No. Goli Road, Bandarban Hill District, Chattogram Division, Bangladesh","2 নং গোলি রোড, বান্দরবান পার্বত্য জেলা, চট্টগ্রাম বিভাগ, বাংলাদেশ",,বাংলাদেশ,চট্টগ্রাম বিভাগ,street,,,,Bangladesh,Chittagong,Bandarban,BandarbanSadar,BandarbanPaurashava,41c7e237c37b67a48886890b8cbb0cf9
141430362.0,893cc276c3bffff,22.194347871347013,92.24138568918376,Bandarban Rowangchari Road,,"Bandarban Rowangchari Road, Bandarban Hill District, Chattogram Division, Bangladesh","বান্দরবান রোআয়াংচারি রোড, বান্দরবান পার্বত্য জেলা, চট্টগ্রাম বিভাগ, বাংলাদেশ",,বাংলাদেশ,চট্টগ্রাম বিভাগ,street,,,,Bangladesh,Chittagong,Bandarban,Rowangchhari,Tarachha,9d37466edc127248da7e413c2442678c
162797960.0,893cc276d1bffff,22.200921562586128,92.25649994608187,বান্দরবান-রোয়াংছড়ি সড়ক,['Bandarban Rowangchari Road'],"Bandarban-Roangchari road, Bandarban Rowangchari Road, Bandarban Hill District, Chattogram Division, Bangladesh","বান্দরবান-রোয়াংছড়ি সড়ক, বান্দরবান পার্বত্য জেলা, চট্টগ্রাম বিভাগ, বাংলাদেশ",,বাংলাদেশ,চট্টগ্রাম বিভাগ,street,,,,Bangladesh,Chittagong,Bandarban,Rowangchhari,Tarachha,9d37466edc127248da7e413c2442678c
910442276.0,893cc276c43ffff,22.18961355,92.22832845,Kalaghata Road,,"Kalaghata Road, Bandarban Hill District, Chattogram Division, Bangladesh","কালাগাটা রোড, বান্দরবান পার্বত্য জেলা, চট্টগ্রাম বিভাগ, বাংলাদেশ",,বাংলাদেশ,চট্টগ্রাম বিভাগ,street,,,,Bangladesh,Chittagong,Bandarban,Rowangchhari,Tarachha,9d37466edc127248da7e413c2442678c
141430330.0,893cc276c9bffff,22.202580516168315,92.22723928209564,Bandarban Rowangchari Road,,"Bandarban Rowangchari Road, Bandarban Hill District, Chattogram Division, Bangladesh","বান্দরবান রোআয়াংচারি রোড, বান্দরবান পার্বত্য জেলা, চট্টগ্রাম বিভাগ, বাংলাদেশ",,বাংলাদেশ,চট্টগ্রাম বিভাগ,street,,,,Bangladesh,Chittagong,Bandarban,BandarbanSadar,BandarbanPaurashava,41c7e237c37b67a48886890b8cbb0cf9
477438548.0,893cc2761afffff,22.196300077839144,92.21821185320812,1 No. Goli Road,,"1 No. Goli Road, Bandarban Hill District, Chattogram Division, Bangladesh","1 নং গোলি রোড, বান্দরবান পার্বত্য জেলা, চট্টগ্রাম বিভাগ, বাংলাদেশ",,বাংলাদেশ,চট্টগ্রাম বিভাগ,street,,,,Bangladesh,Chittagong,Bandarban,BandarbanSadar,BandarbanPaurashava,41c7e237c37b67a48886890b8cbb0cf9
706292955.0,893cdcd3593ffff,21.742205650424538,92.18527909960362,Alikadam Upazila Road,,"Alikadam Upazila Road, Bandarban Hill District, Chattogram Division, Bangladesh","আলিকাদম উপজিলা রোড, বান্দরবান পার্বত্য জেলা, চট্টগ্রাম বিভাগ, বাংলাদেশ",,বাংলাদেশ,চট্টগ্রাম বিভাগ,street,,,,Bangladesh,Chittagong,Bandarban,Lama,Lama,eda3261d3db43f437371f103eb4de50a
477438546.0,893cc2761afffff,22.19676125,92.2176189,Kacha Bazar Road,,"Kacha Bazar Road, Bandarban Hill District, Chattogram Division, Bangladesh","কাচা বাজার রোড, বান্দরবান পার্বত্য জেলা, চট্টগ্রাম বিভাগ, বাংলাদেশ",,বাংলাদেশ,চট্টগ্রাম বিভাগ,street,,,,Bangladesh,Chittagong,Bandarban,BandarbanSadar,BandarbanPaurashava,41c7e237c37b67a48886890b8cbb0cf9
512137862.0,893cdcd040fffff,21.71844672698667,92.23699330443536,Alikadam Upazila Road,,"Alikadam Upazila Road, Bandarban Hill District, Chattogram Division, Bangladesh","আলিকাদম উপজিলা রোড, বান্দরবান পার্বত্য জেলা, চট্টগ্রাম বিভাগ, বাংলাদেশ",,বাংলাদেশ,চট্টগ্রাম বিভাগ,street,,,,Bangladesh,Chittagong,Bandarban,Lama,Lama,eda3261d3db43f437371f103eb4de50a
141430341.0,893cc276d53ffff,22.199113,92.2504232,Bandarban Rowangchari Road,,"Bandarban Rowangchari Road, Bandarban Hill District, Chattogram Division, Bangladesh","বান্দরবান রোআয়াংচারি রোড, বান্দরবান পার্বত্য জেলা, চট্টগ্রাম বিভাগ, বাংলাদেশ",,বাংলাদেশ,চট্টগ্রাম বিভাগ,street,,,,Bangladesh,Chittagong,Bandarban,Rowangchhari,Tarachha,9d37466edc127248da7e413c2442678c
162797961.0,893cc276d07ffff,22.20472754819224,92.26349261999856,বান্দরবান-রোয়াংছড়ি সড়ক,['Bandarban Rowangchari Road'],"Bandarban-Roangchari road, Bandarban Rowangchari Road, Bandarban Hill District, Chattogram Division, Bangladesh","বান্দরবান-রোয়াংছড়ি সড়ক, বান্দরবান পার্বত্য জেলা, চট্টগ্রাম বিভাগ, বাংলাদেশ",,বাংলাদেশ,চট্টগ্রাম বিভাগ,street,,,,Bangladesh,Chittagong,Bandarban,BandarbanSadar,Bandarban,13cb303678dfba1aa2824cb8d9b10fe6
141430353.0,893cc276c47ffff,22.189972103764944,92.2321822648407,Kalaghata Road,,"Kalaghata Road, Bandarban Hill District, Chattogram Division, Bangladesh","কালাগাটা রোড, বান্দরবান পার্বত্য জেলা, চট্টগ্রাম বিভাগ, বাংলাদেশ",,বাংলাদেশ,চট্টগ্রাম বিভাগ,street,,,,Bangladesh,Chittagong,Bandarban,Rowangchhari,Tarachha,9d37466edc127248da7e413c2442678c
910442275.0,893cc276c5bffff,22.1893849,92.2273276,Kalaghata Road,,"Kalaghata Road, Bandarban Hill District, Chattogram Division, Bangladesh","কালাগাটা রোড, বান্দরবান পার্বত্য জেলা, চট্টগ্রাম বিভাগ, বাংলাদেশ",,বাংলাদেশ,চট্টগ্রাম বিভাগ,street,,,,Bangladesh,Chittagong,Bandarban,Rowangchhari,Tarachha,9d37466edc127248da7e413c2442678c
162681787.0,893cc275943ffff,22.073697550042255,92.26430181952742,Bandarban - Thanchi Road,,"Bandarban - Thanchi Road, Bandarban Hill District, Chattogram Division, Bangladesh","বান্ডারবান - থানচি রোড, বান্দরবান পার্বত্য জেলা, চট্টগ্রাম বিভাগ, বাংলাদেশ",,বাংলাদেশ,চট্টগ্রাম বিভাগ,street,,,,Bangladesh,Chittagong,Bandarban,Rowangchhari,Tarachha,9d37466edc127248da7e413c2442678c
477438549.0,893cc2761afffff,22.196518174975104,92.21822064200389,3 No. Goli Road,,"3 No. Goli Road, Bandarban Hill District, Chattogram Division, Bangladesh","3 নং গোলি রোড, বান্দরবান পার্বত্য জেলা, চট্টগ্রাম বিভাগ, বাংলাদেশ",,বাংলাদেশ,চট্টগ্রাম বিভাগ,street,,,,Bangladesh,Chittagong,Bandarban,BandarbanSadar,BandarbanPaurashava,41c7e237c37b67a48886890b8cbb0cf9
4215808585.0,893cc26f297ffff,21.852674,92.2225256,গজালিয়া,"['গজালিয়া', 'Gajalia']","Gajalia, Bandarban Hill District, Chattogram Division, Bangladesh","গজালিয়া, বান্দরবান পার্বত্য জেলা, চট্টগ্রাম বিভাগ, বাংলাদেশ",,বাংলাদেশ,চট্টগ্রাম বিভাগ,locality,,,,Bangladesh,Chittagong,Bandarban,Lama,Gajalia,67ff65e16e3594f7a6826a62b4010ff6
7562554630.0,893cc26760bffff,22.0116553,92.2496222,টংকাবতী,['Tankabati'],"Tankabati, Bandarban Hill District, Chattogram Division, Bangladesh","টংকাবতী, বান্দরবান পার্বত্য জেলা, চট্টগ্রাম বিভাগ, বাংলাদেশ",,বাংলাদেশ,চট্টগ্রাম বিভাগ,locality,,,,Bangladesh,Chittagong,Bandarban,BandarbanSadar,Tankabati,5d2367be131750cd6a6df70ad392800a
4215808583.0,893cdcd8a2fffff,21.5194549,92.2831221,দোছড়ি,"['দোছড়ি', 'Dochhari']","Bark, Dochhari, Bandarban Hill District, Chattogram Division, Bangladesh","দোছড়ি, বান্দরবান পার্বত্য জেলা, চট্টগ্রাম বিভাগ, বাংলাদেশ",,বাংলাদেশ,চট্টগ্রাম বিভাগ,locality,,,,Bangladesh,Chittagong,Bandarban,Naikhongchhari,Dochhari,473dde9a78ec788871a640312f692027
477231537.0,893cc27402fffff,22.1276983,92.2284211,মুরোলং পাড়া,"['মুরোলং পাড়া', 'Murolong Para']","Murlang Para, Murolong Para, Bandarban Hill District, Chattogram Division, Bangladesh","মুরোলং পাড়া, বান্দরবান পার্বত্য জেলা, চট্টগ্রাম বিভাগ, বাংলাদেশ",,বাংলাদেশ,চট্টগ্রাম বিভাগ,locality,,,,Bangladesh,Chittagong,Bandarban,BandarbanSadar,Swalak,56ce00a17f29464553e21d7a16be0176
4215808909.0,893cc261913ffff,21.9281748,92.224328,সরই,"['সরই', 'Sarai']","Surrey, Sarai, Bandarban Hill District, Chattogram Division, Bangladesh","সরই, বান্দরবান পার্বত্য জেলা, চট্টগ্রাম বিভাগ, বাংলাদেশ",,বাংলাদেশ,চট্টগ্রাম বিভাগ,locality,,,,Bangladesh,Chittagong,Bandarban,Lama,Sarai,f3a3666d3f039807e730f70fdd6992f8
477231483.0,893cc2740b7ffff,22.139338,92.2210397,সারণ পাড়া,"['সারণ পাড়া', 'Saron Para']","Sage latter, Saron Para, Bandarban Hill District, Chattogram Division, Bangladesh","সারণ পাড়া, বান্দরবান পার্বত্য জেলা, চট্টগ্রাম বিভাগ, বাংলাদেশ",,বাংলাদেশ,চট্টগ্রাম বিভাগ,locality,,,,Bangladesh,Chittagong,Bandarban,BandarbanSadar,Swalak,56ce00a17f29464553e21d7a16be0176
4215808572.0,893cdcda3a3ffff,21.5928164,92.203042,বাইছড়ি,"['বাইছড়ি', 'Baichari']","Baichhari, Baichari, Bandarban Hill District, Chattogram Division, Bangladesh","বাইছড়ি, বান্দরবান পার্বত্য জেলা, চট্টগ্রাম বিভাগ, বাংলাদেশ",,বাংলাদেশ,চট্টগ্রাম বিভাগ,locality,,,,Bangladesh,Chittagong,Bandarban,Naikhongchhari,Baishari,631d135631b43df12b94e568fc6d462f
2481967208.0,893cdcd20cbffff,21.7553161,92.2128559,লামা,"['লামা', 'Lama']","Lama, Bandarban Hill District, Chattogram Division, Bangladesh","লামা, বান্দরবান পার্বত্য জেলা, চট্টগ্রাম বিভাগ, বাংলাদেশ",,বাংলাদেশ,চট্টগ্রাম বিভাগ,locality,,,,Bangladesh,Chittagong,Bandarban,Lama,Lama,eda3261d3db43f437371f103eb4de50a
477230902.0,893cc27458bffff,22.1569546,92.215804,লাইমি পাড়া,"['লাইমি পাড়া', 'Laimi Para']","Limmy laid, Laimi Para, Bandarban Hill District, Chattogram Division, Bangladesh","লাইমি পাড়া, বান্দরবান পার্বত্য জেলা, চট্টগ্রাম বিভাগ, বাংলাদেশ",,বাংলাদেশ,চট্টগ্রাম বিভাগ,locality,,,,Bangladesh,Chittagong,Bandarban,Rowangchhari,Tarachha,9d37466edc127248da7e413c2442678c
9822348841.0,893cdcd8e07ffff,21.5395327,92.2540961,Sinaipara,,"Sinaipara, Bandarban Hill District, Chattogram Division, Bangladesh","সিনাইপারা, বান্দরবান পার্বত্য জেলা, চট্টগ্রাম বিভাগ, বাংলাদেশ",,বাংলাদেশ,চট্টগ্রাম বিভাগ,locality,,,,Bangladesh,Chittagong,Bandarban,Naikhongchhari,Dochhari,473dde9a78ec788871a640312f692027
1623159366.0,893cc276cdbffff,22.1972889,92.2217498,বান্দরবান,"['বান্দরবান', 'Bandarban', 'Bandarban']","Bandarban, Bandarban Hill District, Chattogram Division, Bangladesh","বান্দরবান, বান্দরবান পার্বত্য জেলা, চট্টগ্রাম বিভাগ, বাংলাদেশ",,বাংলাদেশ,চট্টগ্রাম বিভাগ,locality,,,,Bangladesh,Chittagong,Bandarban,Rowangchhari,Tarachha,9d37466edc127248da7e413c2442678c
7341264540.0,893cc2380b3ffff,22.2949434,92.2619283,,,"Bandarban Hill District, Chattogram Division, Bangladesh","বান্দরবান পার্বত্য জেলা, চট্টগ্রাম বিভাগ, বাংলাদেশ",,বাংলাদেশ,চট্টগ্রাম বিভাগ,admin2,,,,Bangladesh,Chittagong,Bandarban,BandarbanSadar,Rajbila,0f875e5770ea7ec03b455d9a59a0981d
9124174218.0,893cc276cd3ffff,22.1995052,92.2222352,মধ্যমপাড়া,['Maddhampara'],"Midparapara, Maddhampara, Bandarban Hill District, Chattogram Division, Bangladesh","মধ্যমপাড়া, বান্দরবান পার্বত্য জেলা, চট্টগ্রাম বিভাগ, বাংলাদেশ",,বাংলাদেশ,চট্টগ্রাম বিভাগ,admin2,,,,Bangladesh,Chittagong,Bandarban,BandarbanSadar,BandarbanPaurashava,41c7e237c37b67a48886890b8cbb0cf9
1544979770.0,893cc239647ffff,22.2231095,92.1977168,Buddha Dhatu Jadi,['স্বর্ণ মন্দির'],"Buddha Dhatu Jadi, Bandarban Hill District, Chattogram Division, Bangladesh","বুদ্ধ ধাতু যাদি, বান্দরবান পার্বত্য জেলা, চট্টগ্রাম বিভাগ, বাংলাদেশ",,বাংলাদেশ,চট্টগ্রাম বিভাগ,admin2,boundaries,['place_of_worship'],[],Bangladesh,Chittagong,Bandarban,BandarbanSadar,BandarbanPaurashava,41c7e237c37b67a48886890b8cbb0cf9
2831092362.0,893cdcd24c3ffff,21.7760145,92.1962907,Lama Girls High School,,"Lama Girls High School, Cox's Bazar District, Chattogram Division, Bangladesh","লামা গার্লস হাই স্কুল, কক্সবাজার জেলা, চট্টগ্রাম বিভাগ, বাংলাদেশ",,বাংলাদেশ,চট্টগ্রাম বিভাগ,admin2,boundaries,['school'],[],Bangladesh,Chittagong,Bandarban,Lama,Lama,eda3261d3db43f437371f103eb4de50a
2831093873.0,893cdcd24d3ffff,21.7782017,92.1947117,সোনালী ব্যাংক লিমিটেড,"['সোনালী ব্যাংক লিমিটেড', 'Sonali Bank Limited']","Sonali Bank Limited, Cox's Bazar District, Chattogram Division, Bangladesh","সোনালী ব্যাংক লিমিটেড, কক্সবাজার জেলা, চট্টগ্রাম বিভাগ, বাংলাদেশ",,বাংলাদেশ,চট্টগ্রাম বিভাগ,admin2,boundaries,['bank'],[],Bangladesh,Chittagong,Bandarban,Lama,Lama,eda3261d3db43f437371f103eb4de50a
2831094740.0,893cdcd24c3ffff,21.777161,92.1950354,Lama Bazar,,"Lama Bazar, Cox's Bazar District, Chattogram Division, Bangladesh","লামা বাজার, কক্সবাজার জেলা, চট্টগ্রাম বিভাগ, বাংলাদেশ",,বাংলাদেশ,চট্টগ্রাম বিভাগ,admin2,boundaries,['marketplace'],[],Bangladesh,Chittagong,Bandarban,Lama,Lama,eda3261d3db43f437371f103eb4de50a
2831095046.0,893cdcd24cfffff,21.7719849,92.198681,Lama Thana,,"Lama Thana, Bandarban Hill District, Chattogram Division, Bangladesh","লামা থানা, বান্দরবান পার্বত্য জেলা, চট্টগ্রাম বিভাগ, বাংলাদেশ",,বাংলাদেশ,চট্টগ্রাম বিভাগ,admin2,boundaries,['police'],[],Bangladesh,Chittagong,Bandarban,Lama,Lama,eda3261d3db43f437371f103eb4de50a
2831099181.0,893cc268a67ffff,21.7831876,92.1958431,Lama Government High School,,"Lama Government High School, Cox's Bazar District, Chattogram Division, Bangladesh","লামা সরকার উচ্চ বিদ্যালয়, কক্সবাজার জেলা, চট্টগ্রাম বিভাগ, বাংলাদেশ",,বাংলাদেশ,চট্টগ্রাম বিভাগ,admin2,boundaries,['school'],[],Bangladesh,Chittagong,Bandarban,Lama,Lama,eda3261d3db43f437371f103eb4de50a
3975321067.0,893cd120e6fffff,21.213207,92.1681641,"ACF office, Kutapalong",['ACF EMOP CENTER'],"ACF office Kutapalong, Cox's Bazar District, Chattogram Division, Bangladesh","এসিএফ অফিস কুতপালং, কক্সবাজার জেলা, চট্টগ্রাম বিভাগ, বাংলাদেশ",,বাংলাদেশ,চট্টগ্রাম বিভাগ,admin2,boundaries,['ngo'],[],Bangladesh,Chittagong,Bandarban,Naikhongchhari,Ghandung,4ac5ec69f101c7526332f8c707bc83a6
4311184947.0,893cd134327ffff,21.374908,92.1939289,,,"Bandarban Hill District, Chattogram Division, Bangladesh","বান্দরবান পার্বত্য জেলা, চট্টগ্রাম বিভাগ, বাংলাদেশ",,বাংলাদেশ,চট্টগ্রাম বিভাগ,admin2,boundaries,['ford'],[],Bangladesh,Chittagong,Bandarban,Naikhongchhari,Naikhongchhari,5fe0b8100359d27e5f5d30dfecfbe0cc
4649110523.0,893cd120e77ffff,21.220267,92.1667437,,,"Cox's Bazar District, Chattogram Division, Bangladesh","কক্সবাজার জেলা, চট্টগ্রাম বিভাগ, বাংলাদেশ",,বাংলাদেশ,চট্টগ্রাম বিভাগ,admin2,boundaries,['ford'],[],Bangladesh,Chittagong,Bandarban,Naikhongchhari,Ghandung,4ac5ec69f101c7526332f8c707bc83a6
4649110546.0,893cd120e63ffff,21.2179754,92.1670388,,,"Cox's Bazar District, Chattogram Division, Bangladesh","কক্সবাজার জেলা, চট্টগ্রাম বিভাগ, বাংলাদেশ",,বাংলাদেশ,চট্টগ্রাম বিভাগ,admin2,boundaries,['ford'],[],Bangladesh,Chittagong,Bandarban,Naikhongchhari,Ghandung,4ac5ec69f101c7526332f8c707bc83a6
4707929117.0,893cc27736fffff,22.1055869,92.1731684,Prantik Lake,,"Prantik Lake, Bandarban Hill District, Chattogram Division, Bangladesh","প্রান্তিক লেক, বান্দরবান পার্বত্য জেলা, চট্টগ্রাম বিভাগ, বাংলাদেশ",,বাংলাদেশ,চট্টগ্রাম বিভাগ,admin2,boundaries,['attraction'],[],Bangladesh,Chittagong,Bandarban,BandarbanSadar,Swalak,56ce00a17f29464553e21d7a16be0176
4939109975.0,893cd120e6fffff,21.2136275,92.1680481,Kutupalong Hospital,,"Kutupalong Hospital, Cox's Bazar District, Chattogram Division, Bangladesh","কুতুপালং হাসপাতাল, কক্সবাজার জেলা, চট্টগ্রাম বিভাগ, বাংলাদেশ",,বাংলাদেশ,চট্টগ্রাম বিভাগ,admin2,boundaries,['hospital'],[],Bangladesh,Chittagong,Bandarban,Naikhongchhari,Ghandung,4ac5ec69f101c7526332f8c707bc83a6
5119534111.0,893cd120e6fffff,21.2138944,92.1683392,,,"Cox's Bazar District, Chattogram Division, Bangladesh","কক্সবাজার জেলা, চট্টগ্রাম বিভাগ, বাংলাদেশ",,বাংলাদেশ,চট্টগ্রাম বিভাগ,admin2,boundaries,['communication_tower'],[],Bangladesh,Chittagong,Bandarban,Naikhongchhari,Ghandung,4ac5ec69f101c7526332f8c707bc83a6
5191414059.0,893cd120ac3ffff,21.2105689,92.1709975,,,"Cox's Bazar District, Chattogram Division, Bangladesh","কক্সবাজার জেলা, চট্টগ্রাম বিভাগ, বাংলাদেশ",,বাংলাদেশ,চট্টগ্রাম বিভাগ,admin2,boundaries,['ford'],[],Bangladesh,Chittagong,Bandarban,Naikhongchhari,Ghandung,4ac5ec69f101c7526332f8c707bc83a6
5343622566.0,893cd120e6fffff,21.2139788,92.1682776,,,"Cox's Bazar District, Chattogram Division, Bangladesh","কক্সবাজার জেলা, চট্টগ্রাম বিভাগ, বাংলাদেশ",,বাংলাদেশ,চট্টগ্রাম বিভাগ,admin2,boundaries,['communication_tower'],[],Bangladesh,Chittagong,Bandarban,Naikhongchhari,Ghandung,4ac5ec69f101c7526332f8c707bc83a6
5343622601.0,893cd120ad7ffff,21.2117246,92.1703161,,,"Cox's Bazar District, Chattogram Division, Bangladesh","কক্সবাজার জেলা, চট্টগ্রাম বিভাগ, বাংলাদেশ",,বাংলাদেশ,চট্টগ্রাম বিভাগ,admin2,boundaries,['ford'],[],Bangladesh,Chittagong,Bandarban,Naikhongchhari,Ghandung,4ac5ec69f101c7526332f8c707bc83a6
5343643616.0,893cd120acfffff,21.2075868,92.1747237,,,"Cox's Bazar District, Chattogram Division, Bangladesh","কক্সবাজার জেলা, চট্টগ্রাম বিভাগ, বাংলাদেশ",,বাংলাদেশ,চট্টগ্রাম বিভাগ,admin2,boundaries,['ford'],[],Bangladesh,Chittagong,Bandarban,Naikhongchhari,Ghandung,4ac5ec69f101c7526332f8c707bc83a6
5343643976.0,893cd120ad7ffff,21.2113646,92.1709793,,,"Cox's Bazar District, Chattogram Division, Bangladesh","কক্সবাজার জেলা, চট্টগ্রাম বিভাগ, বাংলাদেশ",,বাংলাদেশ,চট্টগ্রাম বিভাগ,admin2,boundaries,['ford'],[],Bangladesh,Chittagong,Bandarban,Naikhongchhari,Ghandung,4ac5ec69f101c7526332f8c707bc83a6
5547552736.0,893cd136a4bffff,21.4100952,92.1899117,,,"Cox's Bazar District, Chattogram Division, Bangladesh","কক্সবাজার জেলা, চট্টগ্রাম বিভাগ, বাংলাদেশ",,বাংলাদেশ,চট্টগ্রাম বিভাগ,admin2,boundaries,['ford'],[],Bangladesh,Chittagong,Bandarban,Naikhongchhari,Naikhongchhari,5fe0b8100359d27e5f5d30dfecfbe0cc
5647224176.0,893cd1340b3ffff,21.4001783,92.1662431,,,"Bandarban Hill District, Chattogram Division, Bangladesh","বান্দরবান পার্বত্য জেলা, চট্টগ্রাম বিভাগ, বাংলাদেশ",,বাংলাদেশ,চট্টগ্রাম বিভাগ,admin2,boundaries,['ford'],[],Bangladesh,Chittagong,Bandarban,Naikhongchhari,Naikhongchhari,5fe0b8100359d27e5f5d30dfecfbe0cc
6723591742.0,893cd135327ffff,21.3246118,92.1599567,,,"Bandarban Hill District, Chattogram Division, Bangladesh","বান্দরবান পার্বত্য জেলা, চট্টগ্রাম বিভাগ, বাংলাদেশ",,বাংলাদেশ,চট্টগ্রাম বিভাগ,admin2,boundaries,['ford'],[],Bangladesh,Chittagong,Bandarban,Naikhongchhari,Ghandung,4ac5ec69f101c7526332f8c707bc83a6
9530594593.0,893cd134e43ffff,21.3747917,92.1996374,CHAK DALA SESDP MODEL  SCHOOL,,"CHAK DALA SESDP MODEL SCHOOL, Bandarban Hill District, Chattogram Division, Bangladesh","চক ডালা এসইএসডিপি মডেল স্কুল, বান্দরবান পার্বত্য জেলা, চট্টগ্রাম বিভাগ, বাংলাদেশ",,বাংলাদেশ,চট্টগ্রাম বিভাগ,admin2,boundaries,"['educational_institution', 'school']",[],Bangladesh,Chittagong,Bandarban,Naikhongchhari,Naikhongchhari,5fe0b8100359d27e5f5d30dfecfbe0cc
9530594594.0,893cdcd9557ffff,21.5152989,92.1744952,BASHABARIA HASSAN ALI SCHOOL,,"BASHABARIA HASSAN ALI SCHOOL, Bandarban Hill District, Chattogram Division, Bangladesh","বাশাবেরিয়া হাসান আলী স্কুল, বান্দরবান পার্বত্য জেলা, চট্টগ্রাম বিভাগ, বাংলাদেশ",,বাংলাদেশ,চট্টগ্রাম বিভাগ,admin2,boundaries,"['educational_institution', 'school']",[],Bangladesh,Chittagong,Bandarban,Naikhongchhari,Baishari,631d135631b43df12b94e568fc6d462f
591535132.0,893cd13552fffff,21.3583505,92.14553365,boddho mondir,,"boddho mondir, Bandarban Hill District, Chattogram Division, Bangladesh","বোদ্দো মন্ডির, বান্দরবান পার্বত্য জেলা, চট্টগ্রাম বিভাগ, বাংলাদেশ",,বাংলাদেশ,চট্টগ্রাম বিভাগ,admin2,boundaries,['place_of_worship'],[],Bangladesh,Chittagong,Bandarban,Naikhongchhari,Ghandung,4ac5ec69f101c7526332f8c707bc83a6
162212760.0,893cd1a4eabffff,21.6546563959073,92.13111867423744,Telipati Road,,"Telipati Road, Bandarban Hill District, Chattogram Division, Bangladesh","টেলিপাতি রোড, বান্দরবান পার্বত্য জেলা, চট্টগ্রাম বিভাগ, বাংলাদেশ",,বাংলাদেশ,চট্টগ্রাম বিভাগ,street,,,,Bangladesh,Chittagong,Bandarban,Lama,Fasyakhali,d0d6f81d3d87e8962c6bb2f64be97fda
1039499480.0,893cd120ad3ffff,21.21075085,92.1681328,কক্সবাজার-টেকনাফ সড়ক,"[""Cox's Bazar-Teknaf Road""]","Cox's Bazar-Teknaf Road, Cox's Bazar District, Chattogram Division, Bangladesh","কক্সবাজার-টেকনাফ সড়ক, কক্সবাজার জেলা, চট্টগ্রাম বিভাগ, বাংলাদেশ",,বাংলাদেশ,চট্টগ্রাম বিভাগ,street,,,,Bangladesh,Chittagong,Bandarban,Naikhongchhari,Ghandung,4ac5ec69f101c7526332f8c707bc83a6
571899437.0,893cd1a6927ffff,21.716699150516355,92.1574780686328,Alikadam Upazila Road,,"Alikadam Upazila Road, Bandarban Hill District, Chattogram Division, Bangladesh","আলিকাদম উপজিলা রোড, বান্দরবান পার্বত্য জেলা, চট্টগ্রাম বিভাগ, বাংলাদেশ",,বাংলাদেশ,চট্টগ্রাম বিভাগ,street,,,,Bangladesh,Chittagong,Bandarban,Lama,Fasyakhali,d0d6f81d3d87e8962c6bb2f64be97fda
571899440.0,893cd1a6907ffff,21.719709687494408,92.146440368064,Alikadam Upazila Road,,"Alikadam Upazila Road, Bandarban Hill District, Chattogram Division, Bangladesh","আলিকাদম উপজিলা রোড, বান্দরবান পার্বত্য জেলা, চট্টগ্রাম বিভাগ, বাংলাদেশ",,বাংলাদেশ,চট্টগ্রাম বিভাগ,street,,,,Bangladesh,Chittagong,Bandarban,Lama,Fasyakhali,d0d6f81d3d87e8962c6bb2f64be97fda
706292956.0,893cdcd34c7ffff,21.7236683,92.1628884,Alikadam Upazila Road,,"Alikadam Upazila Road, Bandarban Hill District, Chattogram Division, Bangladesh","আলিকাদম উপজিলা রোড, বান্দরবান পার্বত্য জেলা, চট্টগ্রাম বিভাগ, বাংলাদেশ",,বাংলাদেশ,চট্টগ্রাম বিভাগ,street,,,,Bangladesh,Chittagong,Bandarban,Lama,Fasyakhali,d0d6f81d3d87e8962c6bb2f64be97fda
141136700.0,893cc2762bbffff,22.169093693821065,92.1817350660823,Chittagong Bandarban Highway,,"Chittagong Bandarban Highway, Chattogram District, Chattogram Division, Bangladesh","চট্টগ্রাম বান্দারবান হাইওয়ে, চট্টগ্রাম জেলা, চট্টগ্রাম বিভাগ, বাংলাদেশ",,বাংলাদেশ,চট্টগ্রাম বিভাগ,street,,,,Bangladesh,Chittagong,Bandarban,BandarbanSadar,Swalak,56ce00a17f29464553e21d7a16be0176
571895152.0,893cd1a6827ffff,21.71129060788069,92.13272000991856,Alikadam Upazila Road,,"Alikadam Upazila Road, Bandarban Hill District, Chattogram Division, Bangladesh","আলিকাদম উপজিলা রোড, বান্দরবান পার্বত্য জেলা, চট্টগ্রাম বিভাগ, বাংলাদেশ",,বাংলাদেশ,চট্টগ্রাম বিভাগ,street,,,,Bangladesh,Chittagong,Bandarban,Lama,Fasyakhali,d0d6f81d3d87e8962c6bb2f64be97fda
571895152.0,893cd1a6827ffff,21.71129060788069,92.13272000991856,Alikadam Upazila Road,,"Alikadam Upazila Road, Cox's Bazar District, Chattogram Division, Bangladesh","আলিকাদম উপজিলা রোড, কক্সবাজার জেলা, চট্টগ্রাম বিভাগ, বাংলাদেশ",,বাংলাদেশ,চট্টগ্রাম বিভাগ,street,,,,Bangladesh,Chittagong,Bandarban,Lama,Fasyakhali,d0d6f81d3d87e8962c6bb2f64be97fda
571895151.0,893cd1a681bffff,21.70924123958873,92.11666303560716,Alikadam Upazila Road,,"Alikadam Upazila Road, Bandarban Hill District, Chattogram Division, Bangladesh","আলিকাদম উপজিলা রোড, বান্দরবান পার্বত্য জেলা, চট্টগ্রাম বিভাগ, বাংলাদেশ",,বাংলাদেশ,চট্টগ্রাম বিভাগ,street,,,,Bangladesh,Chittagong,Bandarban,Lama,Fasyakhali,d0d6f81d3d87e8962c6bb2f64be97fda
571895151.0,893cd1a681bffff,21.70924123958873,92.11666303560716,Alikadam Upazila Road,,"Alikadam Upazila Road, Cox's Bazar District, Chattogram Division, Bangladesh","আলিকাদম উপজিলা রোড, কক্সবাজার জেলা, চট্টগ্রাম বিভাগ, বাংলাদেশ",,বাংলাদেশ,চট্টগ্রাম বিভাগ,street,,,,Bangladesh,Chittagong,Bandarban,Lama,Fasyakhali,d0d6f81d3d87e8962c6bb2f64be97fda
2481967213.0,893cd136e7bffff,21.4275595,92.1780535,নাইক্ষ্যংছড়ি,"['নাইক্ষ্যংছড়ি', 'Naikhongchari']","Nayakshangchari, Naikhongchari, Cox's Bazar District, Chattogram Division, Bangladesh","নাইক্ষ্যংছড়ি, কক্সবাজার জেলা, চট্টগ্রাম বিভাগ, বাংলাদেশ",,বাংলাদেশ,চট্টগ্রাম বিভাগ,locality,,,,Bangladesh,Chittagong,Bandarban,Naikhongchhari,Naikhongchhari,5fe0b8100359d27e5f5d30dfecfbe0cc
4215808578.0,893cd135107ffff,21.3470416,92.1536036,ছানদুং,"['ছানদুং', 'Chandung']","Chhanadung, Chandung, Bandarban Hill District, Chattogram Division, Bangladesh","ছানদুং, বান্দরবান পার্বত্য জেলা, চট্টগ্রাম বিভাগ, বাংলাদেশ",,বাংলাদেশ,চট্টগ্রাম বিভাগ,locality,,,,Bangladesh,Chittagong,Bandarban,Naikhongchhari,Ghandung,4ac5ec69f101c7526332f8c707bc83a6
4215808584.0,893cdcd366fffff,21.6911853,92.1698256,ফাঁসিয়াখালী,"['ফাসিয়াখালী', 'ফাঁসিয়াখালী', 'Fasyakhali']","Foliliakhali, Fasyakhali, Bandarban Hill District, Chattogram Division, Bangladesh","ফাঁসিয়াখালী, বান্দরবান পার্বত্য জেলা, চট্টগ্রাম বিভাগ, বাংলাদেশ",,বাংলাদেশ,চট্টগ্রাম বিভাগ,locality,,,,Bangladesh,Chittagong,Bandarban,Lama,Fasyakhali,d0d6f81d3d87e8962c6bb2f64be97fda
3824576.0,893cdcd6453ffff,21.81544165,92.3685503,বানদরবান পারবতয জেলা,"['Ð‘Ð°Ð½Ð´Ð°Ñ€Ð±Ð°Ð½', 'à¦¬à¦¾à¦¨à§�à¦¦à¦°à¦¬à¦¨ à¦œà§‡à¦²à¦¾', 'Bandarban', 'à¦¬à¦¾à¦¨à§�à¦¦à¦°à¦¬à¦¾à¦¨ à¦ªà¦¾à¦°à§�à¦¬à¦¤à§�à¦¯ à¦œà§‡à¦²à¦¾', 'Bandarban', 'Bandarban Hill District']","Bandarban Parbatya District, Bandarban Hill District, Chattogram Division, Bangladesh","বানদরবান পারবতয জেলা, চটটগরাম বিভাগ, বাংলাদেশ",,বাংলাদেশ,চটটগরাম বিভাগ,admin2,,,,Bangladesh,Chittagong,Bandarban,Alikadam,Chokhyong,d939fff41bb7656140080dd8032388c9
14326739.0,893cc22a263ffff,22.19757908,92.35450765,Rowangchhari,,"Rowangchhari, Bandarban Hill District, Chattogram Division, Bangladesh","রোয়েংখারি, বানদরবান পারবতয জেলা, চটটগরাম বিভাগ, বাংলাদেশ",Rowangchhari,বাংলাদেশ,চটটগরাম বিভাগ,local_admin,,,,Bangladesh,Chittagong,Bandarban,Rowangchhari,Rowangchhari,11e1a0b5973654ae0c996cb138433baf
14326668.0,893cdcc4427ffff,21.65481649,92.5457774,Thanchi,,"Thanchi, Bandarban Hill District, Chattogram Division, Bangladesh","থানচি, বানদরবান পারবতয জেলা, চটটগরাম বিভাগ, বাংলাদেশ",Thanchi,বাংলাদেশ,চটটগরাম বিভাগ,local_admin,,,,Bangladesh,Chittagong,Bandarban,Thanchi,Remakry,7cc9cac8345f1549a9529427a7c521c1
14326727.0,893cdcc0a47ffff,21.56198888,92.43905099,Alikadam,,"Alikadam, Bandarban Hill District, Chattogram Division, Bangladesh","আলিকাদম, বানদরবান পারবতয জেলা, চটটগরাম বিভাগ, বাংলাদেশ",Alikadam,বাংলাদেশ,চটটগরাম বিভাগ,local_admin,,,,Bangladesh,Chittagong,Bandarban,Alikadam,Chokhyong,d939fff41bb7656140080dd8032388c9
14326694.0,893cdc9169bffff,22.0112095,92.44387988,Ruma,,"Ruma, Bandarban Hill District, Chattogram Division, Bangladesh","রুমা, বানদরবান পারবতয জেলা, চটটগরাম বিভাগ, বাংলাদেশ",Ruma,বাংলাদেশ,চটটগরাম বিভাগ,local_admin,,,,Bangladesh,Chittagong,Bandarban,Ruma,Ruma,336f4571b690be14a4b7ed66df30751b
162212760.0,893cd1a4eabffff,21.6546563959073,92.13111867423744,Telipati Road,,"Telipati Road, Cox's Bazar District, Chattogram Division, Bangladesh","টেলিপাতি রোড, ককসবাজার জেলা, চটটগরাম বিভাগ, বাংলাদেশ",,বাংলাদেশ,চটটগরাম বিভাগ,street,,,,Bangladesh,Chittagong,Bandarban,Lama,Fasyakhali,d0d6f81d3d87e8962c6bb2f64be97fda
571895151.0,893cd1a681bffff,21.70924123958873,92.11666303560716,Alikadam Upazila Road,,"Alikadam Upazila Road, Cox's Bazar District, Chattogram Division, Bangladesh","আলিকাদম উপজিলা রোড, ককসবাজার জেলা, চটটগরাম বিভাগ, বাংলাদেশ",,বাংলাদেশ,চটটগরাম বিভাগ,street,,,,Bangladesh,Chittagong,Bandarban,Lama,Fasyakhali,d0d6f81d3d87e8962c6bb2f64be97fda
162797962.0,893cc22b407ffff,22.195784310693785,92.3052041519323,বানদরবান-রোয়াংছড়ি সড়ক,['Bandarban Rowangchari Road'],"Bandarban-Roangchari road, Bandarban Rowangchari Road, Rowangchhari, Bandarban Hill District, Chattogram Division, Bangladesh","বানদরবান-রোয়াংছড়ি সড়ক, বানদরবান পারবতয জেলা, চটটগরাম বিভাগ, বাংলাদেশ",Rowangchhari,বাংলাদেশ,চটটগরাম বিভাগ,street,,,,Bangladesh,Chittagong,Bandarban,BandarbanSadar,Bandarban,13cb303678dfba1aa2824cb8d9b10fe6
141136700.0,893cc2762bbffff,22.169093693821065,92.1817350660823,Chittagong Bandarban Highway,,"Chittagong Bandarban Highway, Bandarban Hill District, Chattogram Division, Bangladesh","চট্টগ্রাম বান্দারবান হাইওয়ে, বানদরবান পারবতয জেলা, চটটগরাম বিভাগ, বাংলাদেশ",,বাংলাদেশ,চটটগরাম বিভাগ,street,,,,Bangladesh,Chittagong,Bandarban,BandarbanSadar,Swalak,56ce00a17f29464553e21d7a16be0176
477438548.0,893cc2761afffff,22.196300077839144,92.21821185320812,1 No. Goli Road,,"1 No. Goli Road, Bandarban Hill District, Chattogram Division, Bangladesh","1 নং গোলি রোড, বানদরবান পারবতয জেলা, চটটগরাম বিভাগ, বাংলাদেশ",,বাংলাদেশ,চটটগরাম বিভাগ,street,,,,Bangladesh,Chittagong,Bandarban,BandarbanSadar,BandarbanPaurashava,41c7e237c37b67a48886890b8cbb0cf9
162212760.0,893cd1a4eabffff,21.6546563959073,92.13111867423744,Telipati Road,,"Telipati Road, Bandarban Hill District, Chattogram Division, Bangladesh","টেলিপাতি রোড, বানদরবান পারবতয জেলা, চটটগরাম বিভাগ, বাংলাদেশ",,বাংলাদেশ,চটটগরাম বিভাগ,street,,,,Bangladesh,Chittagong,Bandarban,Lama,Fasyakhali,d0d6f81d3d87e8962c6bb2f64be97fda
141430362.0,893cc276c3bffff,22.194347871347013,92.24138568918376,Bandarban Rowangchari Road,,"Bandarban Rowangchari Road, Bandarban Hill District, Chattogram Division, Bangladesh","বান্দরবান রোআয়াংচারি রোড, বানদরবান পারবতয জেলা, চটটগরাম বিভাগ, বাংলাদেশ",,বাংলাদেশ,চটটগরাম বিভাগ,street,,,,Bangladesh,Chittagong,Bandarban,Rowangchhari,Tarachha,9d37466edc127248da7e413c2442678c
477438546.0,893cc2761afffff,22.19676125,92.2176189,Kacha Bazar Road,,"Kacha Bazar Road, Bandarban Hill District, Chattogram Division, Bangladesh","কাচা বাজার রোড, বানদরবান পারবতয জেলা, চটটগরাম বিভাগ, বাংলাদেশ",,বাংলাদেশ,চটটগরাম বিভাগ,street,,,,Bangladesh,Chittagong,Bandarban,BandarbanSadar,BandarbanPaurashava,41c7e237c37b67a48886890b8cbb0cf9
512137862.0,893cdcd040fffff,21.71844672698667,92.23699330443536,Alikadam Upazila Road,,"Alikadam Upazila Road, Bandarban Hill District, Chattogram Division, Bangladesh","আলিকাদম উপজিলা রোড, বানদরবান পারবতয জেলা, চটটগরাম বিভাগ, বাংলাদেশ",,বাংলাদেশ,চটটগরাম বিভাগ,street,,,,Bangladesh,Chittagong,Bandarban,Lama,Lama,eda3261d3db43f437371f103eb4de50a
162681787.0,893cc275943ffff,22.073697550042255,92.26430181952742,Bandarban - Thanchi Road,,"Bandarban - Thanchi Road, Bandarban Hill District, Chattogram Division, Bangladesh","বান্ডারবান - থানচি রোড, বানদরবান পারবতয জেলা, চটটগরাম বিভাগ, বাংলাদেশ",,বাংলাদেশ,চটটগরাম বিভাগ,street,,,,Bangladesh,Chittagong,Bandarban,Rowangchhari,Tarachha,9d37466edc127248da7e413c2442678c
477438549.0,893cc2761afffff,22.196518174975104,92.21822064200389,3 No. Goli Road,,"3 No. Goli Road, Bandarban Hill District, Chattogram Division, Bangladesh","3 নং গোলি রোড, বানদরবান পারবতয জেলা, চটটগরাম বিভাগ, বাংলাদেশ",,বাংলাদেশ,চটটগরাম বিভাগ,street,,,,Bangladesh,Chittagong,Bandarban,BandarbanSadar,BandarbanPaurashava,41c7e237c37b67a48886890b8cbb0cf9
