osm_id,h3level9,lat,lon,name,alt_names,name_en,name_bn,local_admin_name,admin0_name,admin2_name,addr_level,poi_addr_match,poi_class,poi_keywords,country,division,district,thana,union,region_hash
2343347187.0,893cd4a5203ffff,22.0335498,89.9658496,Patharghata Upazila Health Complex,,"Patharghata Upazila Health Complex, Pathorghata Subdistrict, Barguna District, Barishal Division, Bangladesh","পাঠারঘাট আপাজিলা স্বাস্থ্য কমপ্লেক্স, পাথরঘাটা উপজেলা, বরগুনা জেলা, বরিশাল বিভাগ, বাংলাদেশ",পাথরঘাটা উপজেলা,বাংলাদেশ,বরিশাল বিভাগ,local_admin,boundaries,['hospital'],[],Bangladesh,Barisal,Barguna,Patharghata,Paurashava,42aa51218affecc3150d6e87aae6b0e2
2343347181.0,893cd5d3153ffff,22.1563767,90.1279307,Barguna General Hospital,,"Barguna General Hospital, Barguna Sadar Subdistrict, Barguna District, Barishal Division, Bangladesh","বারগুনা জেনারেল হাসপাতাল, বরগুনা সদর উপজেলা, বরগুনা জেলা, বরিশাল বিভাগ, বাংলাদেশ",বরগুনা সদর উপজেলা,বাংলাদেশ,বরিশাল বিভাগ,local_admin,boundaries,['hospital'],[],Bangladesh,Barisal,Barguna,BargunaSadar,Paurashava,8955a1255859d5f783ab4ef6545219ed
2343347182.0,893cf36080bffff,22.4135824,90.1601989,Betagi Upazila Health Complex,,"Betagi Upazila Health Complex, Betagi Subdistrict, Barguna District, Barishal Division, Bangladesh","বেতাগী উপজিলা স্বাস্থ্য কমপ্লেক্স, বেতাগী উপজেলা, বরগুনা জেলা, বরিশাল বিভাগ, বাংলাদেশ",বেতাগী উপজেলা,বাংলাদেশ,বরিশাল বিভাগ,local_admin,boundaries,['hospital'],[],Bangladesh,Barisal,Barguna,Betagi,Paurashava,415fe46cc63a3d9a74af941e3d290caa
4380160493.0,893cd4a5063ffff,22.0488173,89.9761249,,"['BADC, Patharghata, Barguna']","Pathorghata Subdistrict, Barguna District, Barishal Division, Bangladesh","পাথরঘাটা উপজেলা, বরগুনা জেলা, বরিশাল বিভাগ, বাংলাদেশ",পাথরঘাটা উপজেলা,বাংলাদেশ,বরিশাল বিভাগ,local_admin,boundaries,['seafood'],[],Bangladesh,Barisal,Barguna,Patharghata,Kalmegha,9b9adc16fd5d9daa5ab8bb28ee251718
4380188190.0,893cd4ac54bffff,21.9613687,89.9662277,,['Haringhata Rederve Forest'],"Pathorghata Subdistrict, Barguna District, Barishal Division, Bangladesh","পাথরঘাটা উপজেলা, বরগুনা জেলা, বরিশাল বিভাগ, বাংলাদেশ",পাথরঘাটা উপজেলা,বাংলাদেশ,বরিশাল বিভাগ,local_admin,boundaries,['viewpoint'],[],Bangladesh,Barisal,Barguna,Patharghata,Patharghata,6af1fc878382be261e6f7ed456eb3fab
4631096724.0,893cd4a5067ffff,22.0481775,89.9774118,,,"Pathorghata Subdistrict, Barguna District, Barishal Division, Bangladesh","পাথরঘাটা উপজেলা, বরগুনা জেলা, বরিশাল বিভাগ, বাংলাদেশ",পাথরঘাটা উপজেলা,বাংলাদেশ,বরিশাল বিভাগ,local_admin,boundaries,['ferry_terminal'],[],Bangladesh,Barisal,Barguna,Patharghata,Kalmegha,9b9adc16fd5d9daa5ab8bb28ee251718
3603073509.0,893cd5d1247ffff,22.072635,90.1325147,Tube well,['logic_undp'],"Tube well, Taltali Subdistrict, Barguna District, Barishal Division, Bangladesh","টিউব ভাল, তালতলি উপজেলা, বরগুনা জেলা, বরিশাল বিভাগ, বাংলাদেশ",তালতলি উপজেলা,বাংলাদেশ,বরিশাল বিভাগ,local_admin,boundaries,['water_well'],[],Bangladesh,Barisal,Barguna,Amtali,PanchaKoralia,1c40b04c31c9a53382461b87c89dfb12
4380157394.0,893cd5d31cbffff,22.1613343,90.1246302,,"['Sadhinota Chattor, Charcolony']","Barguna Sadar Subdistrict, Barguna District, Barishal Division, Bangladesh","বরগুনা সদর উপজেলা, বরগুনা জেলা, বরিশাল বিভাগ, বাংলাদেশ",বরগুনা সদর উপজেলা,বাংলাদেশ,বরিশাল বিভাগ,local_admin,boundaries,['attraction'],[],Bangladesh,Barisal,Barguna,BargunaSadar,Paurashava,8955a1255859d5f783ab4ef6545219ed
4380157395.0,893cd5d3563ffff,22.1714897,90.1207954,,['Petrol Pump Barguna'],"Barguna Sadar Subdistrict, Barguna District, Barishal Division, Bangladesh","বরগুনা সদর উপজেলা, বরগুনা জেলা, বরিশাল বিভাগ, বাংলাদেশ",বরগুনা সদর উপজেলা,বাংলাদেশ,বরিশাল বিভাগ,local_admin,boundaries,['fuel'],[],Bangladesh,Barisal,Barguna,BargunaSadar,Gaurichanna,faa1d2a8b1c10d483030acf0d7f3bd57
4380157396.0,893cd5d310fffff,22.1596848,90.1376375,,['Stedium Bus Stand'],"Barguna Sadar Subdistrict, Barguna District, Barishal Division, Bangladesh","বরগুনা সদর উপজেলা, বরগুনা জেলা, বরিশাল বিভাগ, বাংলাদেশ",বরগুনা সদর উপজেলা,বাংলাদেশ,বরিশাল বিভাগ,local_admin,boundaries,['bus_station'],[],Bangladesh,Barisal,Barguna,BargunaSadar,Paurashava,8955a1255859d5f783ab4ef6545219ed
4590712294.0,893cd5da0a7ffff,22.059833,90.1126749,Ghat,['logic_undp'],"Ghat, Taltali Subdistrict, Barguna District, Barishal Division, Bangladesh","ঘাট, তালতলি উপজেলা, বরগুনা জেলা, বরিশাল বিভাগ, বাংলাদেশ",তালতলি উপজেলা,বাংলাদেশ,বরিশাল বিভাগ,local_admin,boundaries,['ferry_terminal'],[],Bangladesh,Barisal,Barguna,Amtali,ChhotaBagi,c1aed91dcf85ce84297faf4cc38008f5
4719778500.0,893cd5d30afffff,22.1607003,90.120239,,['Barguna Bazar'],"Barguna Sadar Subdistrict, Barguna District, Barishal Division, Bangladesh","বরগুনা সদর উপজেলা, বরগুনা জেলা, বরিশাল বিভাগ, বাংলাদেশ",বরগুনা সদর উপজেলা,বাংলাদেশ,বরিশাল বিভাগ,local_admin,boundaries,['beverages'],[],Bangladesh,Barisal,Barguna,BargunaSadar,Paurashava,8955a1255859d5f783ab4ef6545219ed
4719778501.0,893cd5d31c3ffff,22.1627331,90.1247552,,['Moha Sarak Bridge'],"Barguna Sadar Subdistrict, Barguna District, Barishal Division, Bangladesh","বরগুনা সদর উপজেলা, বরগুনা জেলা, বরিশাল বিভাগ, বাংলাদেশ",বরগুনা সদর উপজেলা,বাংলাদেশ,বরিশাল বিভাগ,local_admin,boundaries,['viewpoint'],[],Bangladesh,Barisal,Barguna,BargunaSadar,Paurashava,8955a1255859d5f783ab4ef6545219ed
4988321721.0,893cd5d310bffff,22.1599026,90.1334079,BRTC Bus Counter,['Dhaka Bus Station'],"BRTC Bus Counter, Barguna Sadar Subdistrict, Barguna District, Barishal Division, Bangladesh","বিআরটিসি বাস কাউন্টার, বরগুনা সদর উপজেলা, বরগুনা জেলা, বরিশাল বিভাগ, বাংলাদেশ",বরগুনা সদর উপজেলা,বাংলাদেশ,বরিশাল বিভাগ,local_admin,boundaries,['bus_station'],[],Bangladesh,Barisal,Barguna,BargunaSadar,Paurashava,8955a1255859d5f783ab4ef6545219ed
4988321722.0,893cd5d3153ffff,22.1574193,90.127586,,['Barguna Circuit House'],"Barguna Sadar Subdistrict, Barguna District, Barishal Division, Bangladesh","বরগুনা সদর উপজেলা, বরগুনা জেলা, বরিশাল বিভাগ, বাংলাদেশ",বরগুনা সদর উপজেলা,বাংলাদেশ,বরিশাল বিভাগ,local_admin,boundaries,['attraction'],[],Bangladesh,Barisal,Barguna,BargunaSadar,Paurashava,8955a1255859d5f783ab4ef6545219ed
5680791665.0,893cd4a7503ffff,22.1301145,89.948679,,,"Pathorghata Subdistrict, Barguna District, Barishal Division, Bangladesh","পাথরঘাটা উপজেলা, বরগুনা জেলা, বরিশাল বিভাগ, বাংলাদেশ",পাথরঘাটা উপজেলা,বাংলাদেশ,বরিশাল বিভাগ,local_admin,boundaries,['ford'],[],Bangladesh,Barisal,Barguna,Patharghata,Kanthaltali,dbbddaadac58eb68c85f352d564a55fa
5787482557.0,893cd4a625bffff,22.1313365,89.9626932,Kalipur manikkkhali govt primary school cum cyclone shelter,['logic_undp'],"Kalipur manikkkhali govt primary school cum cyclone shelter, Pathorghata Subdistrict, Barguna District, Barishal Division, Bangladesh","কালিপুর মনিক্কালি সরকারী প্রাথমিক বিদ্যালয়ের কাম ঘূর্ণিঝড় আশ্রয়, পাথরঘাটা উপজেলা, বরগুনা জেলা, বরিশাল বিভাগ, বাংলাদেশ",পাথরঘাটা উপজেলা,বাংলাদেশ,বরিশাল বিভাগ,local_admin,boundaries,['school'],[],Bangladesh,Barisal,Barguna,Patharghata,Kanthaltali,dbbddaadac58eb68c85f352d564a55fa
5787483460.0,893cd4a6247ffff,22.1320902,89.9703655,Tubewell Kalidash aster,"['logic_undp', 'Salaine water intrution in ground water']","Tubewell Kalidash aster, Pathorghata Subdistrict, Barguna District, Barishal Division, Bangladesh","টিউবেল কালিদাশ অ্যাস্টার, পাথরঘাটা উপজেলা, বরগুনা জেলা, বরিশাল বিভাগ, বাংলাদেশ",পাথরঘাটা উপজেলা,বাংলাদেশ,বরিশাল বিভাগ,local_admin,boundaries,['water_well'],[],Bangladesh,Barisal,Barguna,Patharghata,Kanthaltali,dbbddaadac58eb68c85f352d564a55fa
5787483480.0,893cd4a6247ffff,22.1321561,89.9703467,Tubewell ft,"['logic_undp', 'SIDR']","Tubewell ft, Pathorghata Subdistrict, Barguna District, Barishal Division, Bangladesh","টিউবেল ফুট, পাথরঘাটা উপজেলা, বরগুনা জেলা, বরিশাল বিভাগ, বাংলাদেশ",পাথরঘাটা উপজেলা,বাংলাদেশ,বরিশাল বিভাগ,local_admin,boundaries,['water_well'],[],Bangladesh,Barisal,Barguna,Patharghata,Kanthaltali,dbbddaadac58eb68c85f352d564a55fa
5787483484.0,893cd4a44d7ffff,22.12455,89.98191,tubewell,,"tubewell, Pathorghata Subdistrict, Barguna District, Barishal Division, Bangladesh","টিউবেল, পাথরঘাটা উপজেলা, বরগুনা জেলা, বরিশাল বিভাগ, বাংলাদেশ",পাথরঘাটা উপজেলা,বাংলাদেশ,বরিশাল বিভাগ,local_admin,boundaries,['water_well'],[],Bangladesh,Barisal,Barguna,Patharghata,Kanthaltali,dbbddaadac58eb68c85f352d564a55fa
6096083719.0,893cd4a536bffff,22.029245,89.9908952,Bazar,"['logic_undp', 'no']","Bazar, Barguna Sadar Subdistrict, Barguna District, Barishal Division, Bangladesh","বাজর, বরগুনা সদর উপজেলা, বরগুনা জেলা, বরিশাল বিভাগ, বাংলাদেশ",বরগুনা সদর উপজেলা,বাংলাদেশ,বরিশাল বিভাগ,local_admin,boundaries,['marketplace'],[],Bangladesh,Barisal,Barguna,BargunaSadar,Naltona,6e8b9a030b62a58f562ab2901e52d077
6096318609.0,893cd4a536fffff,22.0296453,89.9966124,,"['logic_undp', 'no']","Barguna Sadar Subdistrict, Barguna District, Barishal Division, Bangladesh","বরগুনা সদর উপজেলা, বরগুনা জেলা, বরিশাল বিভাগ, বাংলাদেশ",বরগুনা সদর উপজেলা,বাংলাদেশ,বরিশাল বিভাগ,local_admin,boundaries,['school'],[],Bangladesh,Barisal,Barguna,BargunaSadar,Naltona,6e8b9a030b62a58f562ab2901e52d077
6096318610.0,893cd4a5363ffff,22.0331411,89.9941984,Madrasa,"['logic_undp', 'Mohasen']","Madrasa, Barguna Sadar Subdistrict, Barguna District, Barishal Division, Bangladesh","মাদ্রাসা, বরগুনা সদর উপজেলা, বরগুনা জেলা, বরিশাল বিভাগ, বাংলাদেশ",বরগুনা সদর উপজেলা,বাংলাদেশ,বরিশাল বিভাগ,local_admin,boundaries,['school'],[],Bangladesh,Barisal,Barguna,BargunaSadar,Naltona,6e8b9a030b62a58f562ab2901e52d077
6100703117.0,893cd4aed9bffff,22.0316617,89.9990344,Tubewell,"['logic_undp', 'Sidr, Aila, Mohasen']","Tubewell, Barguna Sadar Subdistrict, Barguna District, Barishal Division, Bangladesh","টিউবেল, বরগুনা সদর উপজেলা, বরগুনা জেলা, বরিশাল বিভাগ, বাংলাদেশ",বরগুনা সদর উপজেলা,বাংলাদেশ,বরিশাল বিভাগ,local_admin,boundaries,['water_well'],[],Bangladesh,Barisal,Barguna,BargunaSadar,Naltona,6e8b9a030b62a58f562ab2901e52d077
6100703133.0,893cd4a5373ffff,22.035329,89.9904996,Shallow tubewell,"['logic_undp', 'Sidr, Aila, Mohasen']","Shallow tubewell, Barguna Sadar Subdistrict, Barguna District, Barishal Division, Bangladesh","অগভীর টিউবেল, বরগুনা সদর উপজেলা, বরগুনা জেলা, বরিশাল বিভাগ, বাংলাদেশ",বরগুনা সদর উপজেলা,বাংলাদেশ,বরিশাল বিভাগ,local_admin,boundaries,['water_well'],[],Bangladesh,Barisal,Barguna,BargunaSadar,Naltona,6e8b9a030b62a58f562ab2901e52d077
6100703134.0,893cd4a530fffff,22.0363098,89.9917535,Tubewell,"['logic_undp', 'Sidr, Aila, Mohasen']","Tubewell, Barguna Sadar Subdistrict, Barguna District, Barishal Division, Bangladesh","টিউবেল, বরগুনা সদর উপজেলা, বরগুনা জেলা, বরিশাল বিভাগ, বাংলাদেশ",বরগুনা সদর উপজেলা,বাংলাদেশ,বরিশাল বিভাগ,local_admin,boundaries,['water_well'],[],Bangladesh,Barisal,Barguna,BargunaSadar,Naltona,6e8b9a030b62a58f562ab2901e52d077
6102348648.0,893cd4a5363ffff,22.0308934,89.9946409,Core centre,"['logic_undp', 'no']","Core centre, Barguna Sadar Subdistrict, Barguna District, Barishal Division, Bangladesh","মূল কেন্দ্র, বরগুনা সদর উপজেলা, বরগুনা জেলা, বরিশাল বিভাগ, বাংলাদেশ",বরগুনা সদর উপজেলা,বাংলাদেশ,বরিশাল বিভাগ,local_admin,boundaries,['community_centre'],[],Bangladesh,Barisal,Barguna,BargunaSadar,Naltona,6e8b9a030b62a58f562ab2901e52d077
6102348649.0,893cd4a5367ffff,22.0333449,89.9968685,Core centre,"['logic_undp', 'no']","Core centre, Barguna Sadar Subdistrict, Barguna District, Barishal Division, Bangladesh","মূল কেন্দ্র, বরগুনা সদর উপজেলা, বরগুনা জেলা, বরিশাল বিভাগ, বাংলাদেশ",বরগুনা সদর উপজেলা,বাংলাদেশ,বরিশাল বিভাগ,local_admin,boundaries,['community_centre'],[],Bangladesh,Barisal,Barguna,BargunaSadar,Naltona,6e8b9a030b62a58f562ab2901e52d077
6102348650.0,893cd4a5367ffff,22.0333673,89.998046,Core centre,"['logic_undp', 'no']","Core centre, Barguna Sadar Subdistrict, Barguna District, Barishal Division, Bangladesh","মূল কেন্দ্র, বরগুনা সদর উপজেলা, বরগুনা জেলা, বরিশাল বিভাগ, বাংলাদেশ",বরগুনা সদর উপজেলা,বাংলাদেশ,বরিশাল বিভাগ,local_admin,boundaries,['community_centre'],[],Bangladesh,Barisal,Barguna,BargunaSadar,Naltona,6e8b9a030b62a58f562ab2901e52d077
6102348656.0,893cd4a536fffff,22.0297994,89.9963455,Cyclone centre,"['logic_undp', 'no']","Cyclone centre, Barguna Sadar Subdistrict, Barguna District, Barishal Division, Bangladesh","ঘূর্ণিঝড় কেন্দ্র, বরগুনা সদর উপজেলা, বরগুনা জেলা, বরিশাল বিভাগ, বাংলাদেশ",বরগুনা সদর উপজেলা,বাংলাদেশ,বরিশাল বিভাগ,local_admin,boundaries,['shelter'],[],Bangladesh,Barisal,Barguna,BargunaSadar,Naltona,6e8b9a030b62a58f562ab2901e52d077
6102351162.0,893cd4aed53ffff,22.0193451,89.9982592,cyclone centre cum school,"['logic_undp', 'no']","cyclone centre cum school, Barguna Sadar Subdistrict, Barguna District, Barishal Division, Bangladesh","ঘূর্ণিঝড় কেন্দ্র কাম স্কুল, বরগুনা সদর উপজেলা, বরগুনা জেলা, বরিশাল বিভাগ, বাংলাদেশ",বরগুনা সদর উপজেলা,বাংলাদেশ,বরিশাল বিভাগ,local_admin,boundaries,['shelter'],[],Bangladesh,Barisal,Barguna,BargunaSadar,Naltona,6e8b9a030b62a58f562ab2901e52d077
6102351163.0,893cd4aecafffff,22.021803,89.9926883,PSF,"['logic_undp', 'Sidr, Aila, Mohasen']","PSF, Barguna Sadar Subdistrict, Barguna District, Barishal Division, Bangladesh","পিএসএফ, বরগুনা সদর উপজেলা, বরগুনা জেলা, বরিশাল বিভাগ, বাংলাদেশ",বরগুনা সদর উপজেলা,বাংলাদেশ,বরিশাল বিভাগ,local_admin,boundaries,['government'],[],Bangladesh,Barisal,Barguna,BargunaSadar,Naltona,6e8b9a030b62a58f562ab2901e52d077
6102351176.0,893cd4a536bffff,22.0294836,89.9914893,Community clinic,"['logic_undp', 'no']","Community clinic, Barguna Sadar Subdistrict, Barguna District, Barishal Division, Bangladesh","সম্প্রদায় ক্লিনিক, বরগুনা সদর উপজেলা, বরগুনা জেলা, বরিশাল বিভাগ, বাংলাদেশ",বরগুনা সদর উপজেলা,বাংলাদেশ,বরিশাল বিভাগ,local_admin,boundaries,['clinic'],[],Bangladesh,Barisal,Barguna,BargunaSadar,Naltona,6e8b9a030b62a58f562ab2901e52d077
6102351178.0,893cd4a536bffff,22.0299063,89.9933803,Cyclone centre,"['logic_undp', 'no']","Cyclone centre, Barguna Sadar Subdistrict, Barguna District, Barishal Division, Bangladesh","ঘূর্ণিঝড় কেন্দ্র, বরগুনা সদর উপজেলা, বরগুনা জেলা, বরিশাল বিভাগ, বাংলাদেশ",বরগুনা সদর উপজেলা,বাংলাদেশ,বরিশাল বিভাগ,local_admin,boundaries,['shelter'],[],Bangladesh,Barisal,Barguna,BargunaSadar,Naltona,6e8b9a030b62a58f562ab2901e52d077
6114707404.0,893cd4a702fffff,22.1064051,89.954377,Al Amin'S Saw Mill,"['logic_undp', 'Sidr, Aila']","Al Amin'S Saw Mill, Pathorghata Subdistrict, Barguna District, Barishal Division, Bangladesh","আল আমিনের করাত মিল, পাথরঘাটা উপজেলা, বরগুনা জেলা, বরিশাল বিভাগ, বাংলাদেশ",পাথরঘাটা উপজেলা,বাংলাদেশ,বরিশাল বিভাগ,local_admin,boundaries,['sawmill'],[],Bangladesh,Barisal,Barguna,Patharghata,Kanthaltali,dbbddaadac58eb68c85f352d564a55fa
6114707405.0,893cd4a702fffff,22.1062597,89.9543568,Vai Vai Rice Mill,"['logic_undp', 'Sidr']","Vai Vai Rice Mill, Pathorghata Subdistrict, Barguna District, Barishal Division, Bangladesh","ভাই ভাই রাইস মিল, পাথরঘাটা উপজেলা, বরগুনা জেলা, বরিশাল বিভাগ, বাংলাদেশ",পাথরঘাটা উপজেলা,বাংলাদেশ,বরিশাল বিভাগ,local_admin,boundaries,['sawmill'],[],Bangladesh,Barisal,Barguna,Patharghata,Kanthaltali,dbbddaadac58eb68c85f352d564a55fa
6114707406.0,893cd4a702fffff,22.1060497,89.9541745,Shapla Rice Mill,['logic_undp'],"Shapla Rice Mill, Pathorghata Subdistrict, Barguna District, Barishal Division, Bangladesh","শাপলা রাইস মিল, পাথরঘাটা উপজেলা, বরগুনা জেলা, বরিশাল বিভাগ, বাংলাদেশ",পাথরঘাটা উপজেলা,বাংলাদেশ,বরিশাল বিভাগ,local_admin,boundaries,['sawmill'],[],Bangladesh,Barisal,Barguna,Patharghata,Kanthaltali,dbbddaadac58eb68c85f352d564a55fa
6114707416.0,893cd4a73a7ffff,22.1030962,89.9688113,Gross Market,['logic_undp'],"Gross Market, Pathorghata Subdistrict, Barguna District, Barishal Division, Bangladesh","মোট বাজার, পাথরঘাটা উপজেলা, বরগুনা জেলা, বরিশাল বিভাগ, বাংলাদেশ",পাথরঘাটা উপজেলা,বাংলাদেশ,বরিশাল বিভাগ,local_admin,boundaries,['marketplace'],[],Bangladesh,Barisal,Barguna,Patharghata,Kanthaltali,dbbddaadac58eb68c85f352d564a55fa
6114707417.0,893cd4a448fffff,22.1280269,89.9881741,Saw mill,"['logic_undp', 'No']","Saw mill, Pathorghata Subdistrict, Barguna District, Barishal Division, Bangladesh","সো মিল, পাথরঘাটা উপজেলা, বরগুনা জেলা, বরিশাল বিভাগ, বাংলাদেশ",পাথরঘাটা উপজেলা,বাংলাদেশ,বরিশাল বিভাগ,local_admin,boundaries,['sawmill'],[],Bangladesh,Barisal,Barguna,Patharghata,Kalmegha,9b9adc16fd5d9daa5ab8bb28ee251718
6114707459.0,893cd4a7303ffff,22.0930536,89.9584553,Saw Mill,"['logic_undp', 'Sidr, Aila']","Saw Mill, Pathorghata Subdistrict, Barguna District, Barishal Division, Bangladesh","সো মিল, পাথরঘাটা উপজেলা, বরগুনা জেলা, বরিশাল বিভাগ, বাংলাদেশ",পাথরঘাটা উপজেলা,বাংলাদেশ,বরিশাল বিভাগ,local_admin,boundaries,['sawmill'],[],Bangladesh,Barisal,Barguna,Patharghata,Kanthaltali,dbbddaadac58eb68c85f352d564a55fa
6114707460.0,893cd4a716fffff,22.1050967,89.9728829,Bazar,"['logic_undp', 'Sidor']","Bazar, Pathorghata Subdistrict, Barguna District, Barishal Division, Bangladesh","বাজর, পাথরঘাটা উপজেলা, বরগুনা জেলা, বরিশাল বিভাগ, বাংলাদেশ",পাথরঘাটা উপজেলা,বাংলাদেশ,বরিশাল বিভাগ,local_admin,boundaries,['marketplace'],[],Bangladesh,Barisal,Barguna,Patharghata,Kanthaltali,dbbddaadac58eb68c85f352d564a55fa
6114707461.0,893cd4a4437ffff,22.1241434,89.9989942,Gross Market,"['logic_undp', 'Sidr']","Gross Market, Pathorghata Subdistrict, Barguna District, Barishal Division, Bangladesh","মোট বাজার, পাথরঘাটা উপজেলা, বরগুনা জেলা, বরিশাল বিভাগ, বাংলাদেশ",পাথরঘাটা উপজেলা,বাংলাদেশ,বরিশাল বিভাগ,local_admin,boundaries,['marketplace'],[],Bangladesh,Barisal,Barguna,Patharghata,Kalmegha,9b9adc16fd5d9daa5ab8bb28ee251718
6114707468.0,893cd4a7097ffff,22.1200373,89.9372564,Kheya Ghat Bazar,"['logic_undp', 'Sidr']","Kheya Ghat Bazar, Pathorghata Subdistrict, Barguna District, Barishal Division, Bangladesh","খীয়া ঘাট বাজার, পাথরঘাটা উপজেলা, বরগুনা জেলা, বরিশাল বিভাগ, বাংলাদেশ",পাথরঘাটা উপজেলা,বাংলাদেশ,বরিশাল বিভাগ,street,boundaries,['bus_stop'],[],Bangladesh,Barisal,Barguna,Patharghata,CharDuanti,5f6c39241c64fd48c97f97b1c5409a8b
6114707469.0,893cd4a718bffff,22.1209281,89.9595201,Kathal Toli Union Parisad Bazar,"['logic_undp', 'Sidr']","Kathal Toli Union Parisad Bazar, Pathorghata Subdistrict, Barguna District, Barishal Division, Bangladesh","কাঠাল টলি ইউনিয়ন প্যারিসাদ বাজার, পাথরঘাটা উপজেলা, বরগুনা জেলা, বরিশাল বিভাগ, বাংলাদেশ",পাথরঘাটা উপজেলা,বাংলাদেশ,বরিশাল বিভাগ,local_admin,boundaries,['marketplace'],[],Bangladesh,Barisal,Barguna,Patharghata,Kanthaltali,dbbddaadac58eb68c85f352d564a55fa
6114707474.0,893cd4a7477ffff,22.1206001,89.9285674,Ice Mill,['logic_undp'],"Ice Mill, Pathorghata Subdistrict, Barguna District, Barishal Division, Bangladesh","আইস মিল, পাথরঘাটা উপজেলা, বরগুনা জেলা, বরিশাল বিভাগ, বাংলাদেশ",পাথরঘাটা উপজেলা,বাংলাদেশ,বরিশাল বিভাগ,local_admin,boundaries,['sawmill'],[],Bangladesh,Barisal,Barguna,Patharghata,CharDuanti,5f6c39241c64fd48c97f97b1c5409a8b
6114707479.0,893cd4b5b03ffff,22.1472432,89.9283649,Market,"['logic_undp', 'Sidr']","Market, Pathorghata Subdistrict, Barguna District, Barishal Division, Bangladesh","বাজার, পাথরঘাটা উপজেলা, বরগুনা জেলা, বরিশাল বিভাগ, বাংলাদেশ",পাথরঘাটা উপজেলা,বাংলাদেশ,বরিশাল বিভাগ,local_admin,boundaries,['marketplace'],[],Bangladesh,Barisal,Barguna,Patharghata,Kanthaltali,dbbddaadac58eb68c85f352d564a55fa
6114707484.0,893cd4b594bffff,22.1568708,89.9295317,Bazar,"['logic_undp', 'Sidr']","Bazar, Pathorghata Subdistrict, Barguna District, Barishal Division, Bangladesh","বাজর, পাথরঘাটা উপজেলা, বরগুনা জেলা, বরিশাল বিভাগ, বাংলাদেশ",পাথরঘাটা উপজেলা,বাংলাদেশ,বরিশাল বিভাগ,local_admin,boundaries,['marketplace'],[],Bangladesh,Barisal,Barguna,Patharghata,Kanthaltali,dbbddaadac58eb68c85f352d564a55fa
6116231631.0,893cd4b5933ffff,22.1712557,89.9443012,School Cum Cyclone Shelter,['logic_undp'],"School Cum Cyclone Shelter, Pathorghata Subdistrict, Barguna District, Barishal Division, Bangladesh","স্কুল কাম ঘূর্ণিঝড় আশ্রয়, পাথরঘাটা উপজেলা, বরগুনা জেলা, বরিশাল বিভাগ, বাংলাদেশ",পাথরঘাটা উপজেলা,বাংলাদেশ,বরিশাল বিভাগ,local_admin,boundaries,['school'],[],Bangladesh,Barisal,Barguna,Patharghata,NachnaPara,fc339ea90960720e38ed187e310c8eb2
6116231633.0,893cd4b590fffff,22.1666381,89.9380839,Madrasa,['logic_undp'],"Madrasa, Pathorghata Subdistrict, Barguna District, Barishal Division, Bangladesh","মাদ্রাসা, পাথরঘাটা উপজেলা, বরগুনা জেলা, বরিশাল বিভাগ, বাংলাদেশ",পাথরঘাটা উপজেলা,বাংলাদেশ,বরিশাল বিভাগ,local_admin,boundaries,['school'],[],Bangladesh,Barisal,Barguna,Patharghata,NachnaPara,fc339ea90960720e38ed187e310c8eb2
6116231634.0,893cd4a66d7ffff,22.1577775,89.9465275,,"['logic_undp', 'Sidr']","Pathorghata Subdistrict, Barguna District, Barishal Division, Bangladesh","পাথরঘাটা উপজেলা, বরগুনা জেলা, বরিশাল বিভাগ, বাংলাদেশ",পাথরঘাটা উপজেলা,বাংলাদেশ,বরিশাল বিভাগ,local_admin,boundaries,['school'],[],Bangladesh,Barisal,Barguna,Patharghata,Kanthaltali,dbbddaadac58eb68c85f352d564a55fa
6116231635.0,893cd4a66d3ffff,22.155856,89.9409002,,"['logic_undp', 'Sidr']","Pathorghata Subdistrict, Barguna District, Barishal Division, Bangladesh","পাথরঘাটা উপজেলা, বরগুনা জেলা, বরিশাল বিভাগ, বাংলাদেশ",পাথরঘাটা উপজেলা,বাংলাদেশ,বরিশাল বিভাগ,local_admin,boundaries,['school'],[],Bangladesh,Barisal,Barguna,Patharghata,Kanthaltali,dbbddaadac58eb68c85f352d564a55fa
6116231636.0,893cd4b594fffff,22.1588307,89.932631,,"['logic_undp', 'Sidr']","Pathorghata Subdistrict, Barguna District, Barishal Division, Bangladesh","পাথরঘাটা উপজেলা, বরগুনা জেলা, বরিশাল বিভাগ, বাংলাদেশ",পাথরঘাটা উপজেলা,বাংলাদেশ,বরিশাল বিভাগ,local_admin,boundaries,['school'],[],Bangladesh,Barisal,Barguna,Patharghata,NachnaPara,fc339ea90960720e38ed187e310c8eb2
6116231637.0,893cd4b5b3bffff,22.1456594,89.9348867,Mohila Madrasa,['logic_undp'],"Mohila Madrasa, Pathorghata Subdistrict, Barguna District, Barishal Division, Bangladesh","মোহিলা মাদ্রাস, পাথরঘাটা উপজেলা, বরগুনা জেলা, বরিশাল বিভাগ, বাংলাদেশ",পাথরঘাটা উপজেলা,বাংলাদেশ,বরিশাল বিভাগ,local_admin,boundaries,['school'],[],Bangladesh,Barisal,Barguna,Patharghata,Kanthaltali,dbbddaadac58eb68c85f352d564a55fa
6116231638.0,893cd4b586fffff,22.1538575,89.9182382,School Cum Cyclone Shelter And P.S.F,['logic_undp'],"School Cum Cyclone Shelter And P.S.F, Pathorghata Subdistrict, Barguna District, Barishal Division, Bangladesh","স্কুল কাম ঘূর্ণিঝড় আশ্রয় এবং পি.এস.এফ., পাথরঘাটা উপজেলা, বরগুনা জেলা, বরিশাল বিভাগ, বাংলাদেশ",পাথরঘাটা উপজেলা,বাংলাদেশ,বরিশাল বিভাগ,local_admin,boundaries,['school'],[],Bangladesh,Barisal,Barguna,Patharghata,Kanthaltali,dbbddaadac58eb68c85f352d564a55fa
6116231639.0,893cd4b5b03ffff,22.1468146,89.9291414,School Cum Collage,['logic_undp'],"School Cum Collage, Pathorghata Subdistrict, Barguna District, Barishal Division, Bangladesh","স্কুল কাম কোলাজ, পাথরঘাটা উপজেলা, বরগুনা জেলা, বরিশাল বিভাগ, বাংলাদেশ",পাথরঘাটা উপজেলা,বাংলাদেশ,বরিশাল বিভাগ,local_admin,boundaries,['college'],[],Bangladesh,Barisal,Barguna,Patharghata,Kanthaltali,dbbddaadac58eb68c85f352d564a55fa
6116231640.0,893cd4b5b03ffff,22.1470159,89.9282897,Primary School,['logic_undp'],"Primary School, Pathorghata Subdistrict, Barguna District, Barishal Division, Bangladesh","প্রাথমিক বিদ্যালয়, পাথরঘাটা উপজেলা, বরগুনা জেলা, বরিশাল বিভাগ, বাংলাদেশ",পাথরঘাটা উপজেলা,বাংলাদেশ,বরিশাল বিভাগ,local_admin,boundaries,['school'],[],Bangladesh,Barisal,Barguna,Patharghata,Kanthaltali,dbbddaadac58eb68c85f352d564a55fa
5158329658.0,893cf36d60bffff,22.2483939,90.1590819,জান্নাতি ইলেক্ট্রনিক্স,,"Paradise Electronics, Barguna Sadar Subdistrict, Barguna District, Barishal Division, Bangladesh","জান্নাতি ইলেক্ট্রনিক্স, বরগুনা সদর উপজেলা, বরগুনা জেলা, বরিশাল বিভাগ, বাংলাদেশ",বরগুনা সদর উপজেলা,বাংলাদেশ,বরিশাল বিভাগ,local_admin,boundaries,['electronics'],[],Bangladesh,Barisal,Barguna,BargunaSadar,Keorabunia,be1902102e4d773233c88d3e44df8a61
6116231641.0,893cd4a7487ffff,22.1324297,89.9219551,Primary School,['logic_undp'],"Primary School, Pathorghata Subdistrict, Barguna District, Barishal Division, Bangladesh","প্রাথমিক বিদ্যালয়, পাথরঘাটা উপজেলা, বরগুনা জেলা, বরিশাল বিভাগ, বাংলাদেশ",পাথরঘাটা উপজেলা,বাংলাদেশ,বরিশাল বিভাগ,local_admin,boundaries,['school'],[],Bangladesh,Barisal,Barguna,Patharghata,Kanthaltali,dbbddaadac58eb68c85f352d564a55fa
5158331179.0,893cf36d60bffff,22.2491249,90.1599595,Kholisha Khali Bazar,,"Kholisha Khali Bazar, Barguna Sadar Subdistrict, Barguna District, Barishal Division, Bangladesh","খোলিশা খালি বাজার, বরগুনা সদর উপজেলা, বরগুনা জেলা, বরিশাল বিভাগ, বাংলাদেশ",বরগুনা সদর উপজেলা,বাংলাদেশ,বরিশাল বিভাগ,local_admin,boundaries,['supermarket'],[],Bangladesh,Barisal,Barguna,BargunaSadar,Keorabunia,be1902102e4d773233c88d3e44df8a61
6116231642.0,893cd4a7433ffff,22.1249782,89.9291213,Dinia Madrasa,['logic_undp'],"Dinia Madrasa, Pathorghata Subdistrict, Barguna District, Barishal Division, Bangladesh","দিনিয়া মাদ্রাসা, পাথরঘাটা উপজেলা, বরগুনা জেলা, বরিশাল বিভাগ, বাংলাদেশ",পাথরঘাটা উপজেলা,বাংলাদেশ,বরিশাল বিভাগ,local_admin,boundaries,['school'],[],Bangladesh,Barisal,Barguna,Patharghata,Kanthaltali,dbbddaadac58eb68c85f352d564a55fa
5158331267.0,893cf36d60bffff,22.249057,90.1591737,চান্দখালি বাস স্ট্যান্ড,,"Chandkhali bus stand, Barguna Sadar Subdistrict, Barguna District, Barishal Division, Bangladesh","চান্দখালি বাস স্ট্যান্ড, বরগুনা সদর উপজেলা, বরগুনা জেলা, বরিশাল বিভাগ, বাংলাদেশ",বরগুনা সদর উপজেলা,বাংলাদেশ,বরিশাল বিভাগ,local_admin,boundaries,['bus_station'],[],Bangladesh,Barisal,Barguna,BargunaSadar,Keorabunia,be1902102e4d773233c88d3e44df8a61
6116231643.0,893cd4a75dbffff,22.1293811,89.9331325,Professor Bari Ebtedai Madrasha,['logic_undp'],"Professor Bari Ebtedai Madrasha, Pathorghata Subdistrict, Barguna District, Barishal Division, Bangladesh","অধ্যাপক বারী ইবেডেই মাদ্রাসাহ, পাথরঘাটা উপজেলা, বরগুনা জেলা, বরিশাল বিভাগ, বাংলাদেশ",পাথরঘাটা উপজেলা,বাংলাদেশ,বরিশাল বিভাগ,local_admin,boundaries,['school'],[],Bangladesh,Barisal,Barguna,Patharghata,Kanthaltali,dbbddaadac58eb68c85f352d564a55fa
5158335835.0,893cf36d60bffff,22.2491225,90.1591227,College Library & Stationery,,"College Library & Stationery, Betagi Subdistrict, Barguna District, Barishal Division, Bangladesh","কলেজ লাইব্রেরি এবং স্টেশনারি, বেতাগী উপজেলা, বরগুনা জেলা, বরিশাল বিভাগ, বাংলাদেশ",বেতাগী উপজেলা,বাংলাদেশ,বরিশাল বিভাগ,local_admin,boundaries,['library'],[],Bangladesh,Barisal,Barguna,BargunaSadar,Keorabunia,be1902102e4d773233c88d3e44df8a61
6116231644.0,893cd4a7517ffff,22.1354906,89.947823,Madrasa,"['logic_undp', 'Sidor']","Madrasa, Pathorghata Subdistrict, Barguna District, Barishal Division, Bangladesh","মাদ্রাসা, পাথরঘাটা উপজেলা, বরগুনা জেলা, বরিশাল বিভাগ, বাংলাদেশ",পাথরঘাটা উপজেলা,বাংলাদেশ,বরিশাল বিভাগ,local_admin,boundaries,['school'],[],Bangladesh,Barisal,Barguna,Patharghata,Kanthaltali,dbbddaadac58eb68c85f352d564a55fa
5158339603.0,893cf36d60bffff,22.2481958,90.1594573,Chandokhali Bazar Jame Mosque,,"Chandokhali Bazar Jame Mosque, Barguna Sadar Subdistrict, Barguna District, Barishal Division, Bangladesh","চান্দোখালি বাজার জামে মসজিদ, বরগুনা সদর উপজেলা, বরগুনা জেলা, বরিশাল বিভাগ, বাংলাদেশ",বরগুনা সদর উপজেলা,বাংলাদেশ,বরিশাল বিভাগ,local_admin,boundaries,['place_of_worship_muslim'],[],Bangladesh,Barisal,Barguna,BargunaSadar,Keorabunia,be1902102e4d773233c88d3e44df8a61
6116231645.0,893cd4a6673ffff,22.1480841,89.9547565,School&College,"['logic_undp', 'Sidor']","School&College, Pathorghata Subdistrict, Barguna District, Barishal Division, Bangladesh","স্কুল ও কলেজ, পাথরঘাটা উপজেলা, বরগুনা জেলা, বরিশাল বিভাগ, বাংলাদেশ",পাথরঘাটা উপজেলা,বাংলাদেশ,বরিশাল বিভাগ,local_admin,boundaries,['college'],[],Bangladesh,Barisal,Barguna,Patharghata,NachnaPara,fc339ea90960720e38ed187e310c8eb2
5158341052.0,893cf36d60bffff,22.248051,90.1592359,Sere Guru Cloth Store,,"Sere Guru Cloth Store, Barguna Sadar Subdistrict, Barguna District, Barishal Division, Bangladesh","সেরু গুরু কাপড়ের দোকান, বরগুনা সদর উপজেলা, বরগুনা জেলা, বরিশাল বিভাগ, বাংলাদেশ",বরগুনা সদর উপজেলা,বাংলাদেশ,বরিশাল বিভাগ,local_admin,boundaries,['clothes'],[],Bangladesh,Barisal,Barguna,BargunaSadar,Keorabunia,be1902102e4d773233c88d3e44df8a61
6116231646.0,893cd4a6673ffff,22.1479599,89.9549442,,"['logic_undp', 'Sidor']","Pathorghata Subdistrict, Barguna District, Barishal Division, Bangladesh","পাথরঘাটা উপজেলা, বরগুনা জেলা, বরিশাল বিভাগ, বাংলাদেশ",পাথরঘাটা উপজেলা,বাংলাদেশ,বরিশাল বিভাগ,local_admin,boundaries,['school'],[],Bangladesh,Barisal,Barguna,Patharghata,NachnaPara,fc339ea90960720e38ed187e310c8eb2
5158341391.0,893cf36d60bffff,22.2480746,90.1594984,চান্দখালি বাজার,,"Chandkhali Bazar, Barguna Sadar Subdistrict, Barguna District, Barishal Division, Bangladesh","চান্দখালি বাজার, বরগুনা সদর উপজেলা, বরগুনা জেলা, বরিশাল বিভাগ, বাংলাদেশ",বরগুনা সদর উপজেলা,বাংলাদেশ,বরিশাল বিভাগ,local_admin,boundaries,['marketplace'],[],Bangladesh,Barisal,Barguna,BargunaSadar,Keorabunia,be1902102e4d773233c88d3e44df8a61
6116231647.0,893cd4a752bffff,22.1276617,89.9550904,Bujrugpur Hafizia Madrasha,['logic_undp'],"Bujrugpur Hafizia Madrasha, Pathorghata Subdistrict, Barguna District, Barishal Division, Bangladesh","বুজরুগপুর হাফিজিয়া মাদ্রাশা, পাথরঘাটা উপজেলা, বরগুনা জেলা, বরিশাল বিভাগ, বাংলাদেশ",পাথরঘাটা উপজেলা,বাংলাদেশ,বরিশাল বিভাগ,local_admin,boundaries,['school'],[],Bangladesh,Barisal,Barguna,Patharghata,Kanthaltali,dbbddaadac58eb68c85f352d564a55fa
5158343527.0,893cf36d60bffff,22.2480008,90.1591017,Tilok Library & Stationery,,"Tilok Library & Stationery, Barguna Sadar Subdistrict, Barguna District, Barishal Division, Bangladesh","টিলোক লাইব্রেরি এবং স্টেশনারি, বরগুনা সদর উপজেলা, বরগুনা জেলা, বরিশাল বিভাগ, বাংলাদেশ",বরগুনা সদর উপজেলা,বাংলাদেশ,বরিশাল বিভাগ,local_admin,boundaries,['jewelry'],[],Bangladesh,Barisal,Barguna,BargunaSadar,Keorabunia,be1902102e4d773233c88d3e44df8a61
6116231648.0,893cd4a719bffff,22.121025,89.9589112,Taluker Cahr Duyani Secondary Girls School Cum Cyclone Center,"['logic_undp', 'Sidr']","Taluker Cahr Duyani Secondary Girls School Cum Cyclone Center, Pathorghata Subdistrict, Barguna District, Barishal Division, Bangladesh","তালুকার কাহর ডুয়ানি মাধ্যমিক গার্লস স্কুল কাম সাইক্লোন সেন্টার, পাথরঘাটা উপজেলা, বরগুনা জেলা, বরিশাল বিভাগ, বাংলাদেশ",পাথরঘাটা উপজেলা,বাংলাদেশ,বরিশাল বিভাগ,local_admin,boundaries,['school'],[],Bangladesh,Barisal,Barguna,Patharghata,Kanthaltali,dbbddaadac58eb68c85f352d564a55fa
5158363715.0,893cf368b67ffff,22.2399091,90.1443344,গলাচিপা বাজার,,"Galachipa Market, Barguna Sadar Subdistrict, Barguna District, Barishal Division, Bangladesh","গলাচিপা বাজার, বরগুনা সদর উপজেলা, বরগুনা জেলা, বরিশাল বিভাগ, বাংলাদেশ",বরগুনা সদর উপজেলা,বাংলাদেশ,বরিশাল বিভাগ,local_admin,boundaries,['marketplace'],[],Bangladesh,Barisal,Barguna,BargunaSadar,Phuljhury,e018d69b88ef801eadd94188bbeea4d6
6116231649.0,893cd4a7117ffff,22.118411,89.9654129,Nehlia Ebtedai Madrasha,['logic_undp'],"Nehlia Ebtedai Madrasha, Pathorghata Subdistrict, Barguna District, Barishal Division, Bangladesh","নেহলিয়া এবেটেডয়ী মাদ্রাসাহ, পাথরঘাটা উপজেলা, বরগুনা জেলা, বরিশাল বিভাগ, বাংলাদেশ",পাথরঘাটা উপজেলা,বাংলাদেশ,বরিশাল বিভাগ,local_admin,boundaries,['school'],[],Bangladesh,Barisal,Barguna,Patharghata,Kanthaltali,dbbddaadac58eb68c85f352d564a55fa
5158367899.0,893cf36d647ffff,22.2472582,90.1589083,Chandkhali mobile ripear,,"Chandkhali mobile ripear, Barguna Sadar Subdistrict, Barguna District, Barishal Division, Bangladesh","চান্দখালি মোবাইল মেরামত, বরগুনা সদর উপজেলা, বরগুনা জেলা, বরিশাল বিভাগ, বাংলাদেশ",বরগুনা সদর উপজেলা,বাংলাদেশ,বরিশাল বিভাগ,local_admin,boundaries,['mobile_phone'],[],Bangladesh,Barisal,Barguna,BargunaSadar,Keorabunia,be1902102e4d773233c88d3e44df8a61
6116231650.0,893cd4a44abffff,22.127412,89.9947724,,"['logic_undp', 'Sidr']","Pathorghata Subdistrict, Barguna District, Barishal Division, Bangladesh","পাথরঘাটা উপজেলা, বরগুনা জেলা, বরিশাল বিভাগ, বাংলাদেশ",পাথরঘাটা উপজেলা,বাংলাদেশ,বরিশাল বিভাগ,local_admin,boundaries,['school'],[],Bangladesh,Barisal,Barguna,Patharghata,Kalmegha,9b9adc16fd5d9daa5ab8bb28ee251718
5158372278.0,893cf368b67ffff,22.2399829,90.144421,গলাচিপা বাস স্ট্যান্ড,,"Galachipa bus stand, Barguna Sadar Subdistrict, Barguna District, Barishal Division, Bangladesh","গলাচিপা বাস স্ট্যান্ড, বরগুনা সদর উপজেলা, বরগুনা জেলা, বরিশাল বিভাগ, বাংলাদেশ",বরগুনা সদর উপজেলা,বাংলাদেশ,বরিশাল বিভাগ,local_admin,boundaries,['bus_station'],[],Bangladesh,Barisal,Barguna,BargunaSadar,Phuljhury,e018d69b88ef801eadd94188bbeea4d6
6116231651.0,893cd4a44afffff,22.1272443,89.9967036,Madrasha,"['logic_undp', 'No']","Madrasha, Pathorghata Subdistrict, Barguna District, Barishal Division, Bangladesh","মাদ্রাশা, পাথরঘাটা উপজেলা, বরগুনা জেলা, বরিশাল বিভাগ, বাংলাদেশ",পাথরঘাটা উপজেলা,বাংলাদেশ,বরিশাল বিভাগ,local_admin,boundaries,['school'],[],Bangladesh,Barisal,Barguna,Patharghata,Kalmegha,9b9adc16fd5d9daa5ab8bb28ee251718
5159232949.0,893cd5d3037ffff,22.1581344,90.1199792,Barguna Girls School,,"Barguna Girls School, Barguna Sadar Subdistrict, Barguna District, Barishal Division, Bangladesh","বারগুনা গার্লস স্কুল, বরগুনা সদর উপজেলা, বরগুনা জেলা, বরিশাল বিভাগ, বাংলাদেশ",বরগুনা সদর উপজেলা,বাংলাদেশ,বরিশাল বিভাগ,local_admin,boundaries,['school'],[],Bangladesh,Barisal,Barguna,BargunaSadar,Paurashava,8955a1255859d5f783ab4ef6545219ed
6116231652.0,893cd4a4437ffff,22.1248018,89.9999839,,"['logic_undp', 'No']","Pathorghata Subdistrict, Barguna District, Barishal Division, Bangladesh","পাথরঘাটা উপজেলা, বরগুনা জেলা, বরিশাল বিভাগ, বাংলাদেশ",পাথরঘাটা উপজেলা,বাংলাদেশ,বরিশাল বিভাগ,local_admin,boundaries,['kindergarten'],[],Bangladesh,Barisal,Barguna,Patharghata,Kalmegha,9b9adc16fd5d9daa5ab8bb28ee251718
5168430800.0,893cd5d3037ffff,22.1605365,90.1203759,Alom Hotel,,"Alom Hotel, Barguna Sadar Subdistrict, Barguna District, Barishal Division, Bangladesh","অ্যালম হোটেল, বরগুনা সদর উপজেলা, বরগুনা জেলা, বরিশাল বিভাগ, বাংলাদেশ",বরগুনা সদর উপজেলা,বাংলাদেশ,বরিশাল বিভাগ,local_admin,boundaries,['hotel'],[],Bangladesh,Barisal,Barguna,BargunaSadar,Paurashava,8955a1255859d5f783ab4ef6545219ed
6116231653.0,893cd4a4477ffff,22.1193577,89.9942172,,"['logic_undp', 'No']","Pathorghata Subdistrict, Barguna District, Barishal Division, Bangladesh","পাথরঘাটা উপজেলা, বরগুনা জেলা, বরিশাল বিভাগ, বাংলাদেশ",পাথরঘাটা উপজেলা,বাংলাদেশ,বরিশাল বিভাগ,local_admin,boundaries,['school'],[],Bangladesh,Barisal,Barguna,Patharghata,Kalmegha,9b9adc16fd5d9daa5ab8bb28ee251718
5168435083.0,893cd5d30afffff,22.1607795,90.1203058,বরগুনা মাছ বাজার,,"Barguna Fish Market, Barguna Sadar Subdistrict, Barguna District, Barishal Division, Bangladesh","বরগুনা মাছ বাজার, বরগুনা সদর উপজেলা, বরগুনা জেলা, বরিশাল বিভাগ, বাংলাদেশ",বরগুনা সদর উপজেলা,বাংলাদেশ,বরিশাল বিভাগ,local_admin,boundaries,['seafood'],[],Bangladesh,Barisal,Barguna,BargunaSadar,Paurashava,8955a1255859d5f783ab4ef6545219ed
6116231654.0,893cd4a7023ffff,22.1075445,89.9496442,Dokkhin Taluker Char Duyani Nesariya Dakhil Madrasah,"['logic_undp', 'Sidr']","Dokkhin Taluker Char Duyani Nesariya Dakhil Madrasah, Pathorghata Subdistrict, Barguna District, Barishal Division, Bangladesh","ডকখিন তালুকার চর দুয়ানি নেসারিয়া দাখিল মাদ্রাসাহ, পাথরঘাটা উপজেলা, বরগুনা জেলা, বরিশাল বিভাগ, বাংলাদেশ",পাথরঘাটা উপজেলা,বাংলাদেশ,বরিশাল বিভাগ,local_admin,boundaries,['school'],[],Bangladesh,Barisal,Barguna,Patharghata,Kanthaltali,dbbddaadac58eb68c85f352d564a55fa
5168435682.0,893cd5d3037ffff,22.1602155,90.1205814,ISLAMIA BOSTRALOY,,"ISLAMIA BOSTRALOY, Barguna Sadar Subdistrict, Barguna District, Barishal Division, Bangladesh","ইসলামিয়া বোস্ট্রালয়, বরগুনা সদর উপজেলা, বরগুনা জেলা, বরিশাল বিভাগ, বাংলাদেশ",বরগুনা সদর উপজেলা,বাংলাদেশ,বরিশাল বিভাগ,local_admin,boundaries,['clothes'],[],Bangladesh,Barisal,Barguna,BargunaSadar,Paurashava,8955a1255859d5f783ab4ef6545219ed
6116231655.0,893cd4a716fffff,22.1049253,89.9721345,,"['logic_undp', 'Sidor']","Pathorghata Subdistrict, Barguna District, Barishal Division, Bangladesh","পাথরঘাটা উপজেলা, বরগুনা জেলা, বরিশাল বিভাগ, বাংলাদেশ",পাথরঘাটা উপজেলা,বাংলাদেশ,বরিশাল বিভাগ,local_admin,boundaries,['school'],[],Bangladesh,Barisal,Barguna,Patharghata,Kanthaltali,dbbddaadac58eb68c85f352d564a55fa
5168435798.0,893cd5d30afffff,22.1604114,90.1198201,Ruchita foods,,"Ruchita foods, Barguna Sadar Subdistrict, Barguna District, Barishal Division, Bangladesh","রুচিতা খাবার, বরগুনা সদর উপজেলা, বরগুনা জেলা, বরিশাল বিভাগ, বাংলাদেশ",বরগুনা সদর উপজেলা,বাংলাদেশ,বরিশাল বিভাগ,local_admin,boundaries,['restaurant'],[],Bangladesh,Barisal,Barguna,BargunaSadar,Paurashava,8955a1255859d5f783ab4ef6545219ed
6116231656.0,893cd4a46d3ffff,22.1029906,89.9697541,Madrasha,"['logic_undp', 'Sidr']","Madrasha, Pathorghata Subdistrict, Barguna District, Barishal Division, Bangladesh","মাদ্রাশা, পাথরঘাটা উপজেলা, বরগুনা জেলা, বরিশাল বিভাগ, বাংলাদেশ",পাথরঘাটা উপজেলা,বাংলাদেশ,বরিশাল বিভাগ,local_admin,boundaries,['school'],[],Bangladesh,Barisal,Barguna,Patharghata,Kanthaltali,dbbddaadac58eb68c85f352d564a55fa
5168436173.0,893cd5d3037ffff,22.1601478,90.1201584,আরাফাত দোকান ও রাজিয়ার ট্রেডিং,,"Arafat Shop and Razia Trading, Barguna Sadar Subdistrict, Barguna District, Barishal Division, Bangladesh","আরাফাত দোকান ও রাজিয়ার ট্রেডিং, বরগুনা সদর উপজেলা, বরগুনা জেলা, বরিশাল বিভাগ, বাংলাদেশ",বরগুনা সদর উপজেলা,বাংলাদেশ,বরিশাল বিভাগ,local_admin,boundaries,['department_store'],[],Bangladesh,Barisal,Barguna,BargunaSadar,Paurashava,8955a1255859d5f783ab4ef6545219ed
5168436188.0,893cd5d30afffff,22.1601552,90.1198818,Islami Bank Bangladesh Limited,,"Islami Bank Bangladesh Limited, Barguna Sadar Subdistrict, Barguna District, Barishal Division, Bangladesh","ইসলামি ব্যাংক বাংলাদেশ লিমিটেড, বরগুনা সদর উপজেলা, বরগুনা জেলা, বরিশাল বিভাগ, বাংলাদেশ",বরগুনা সদর উপজেলা,বাংলাদেশ,বরিশাল বিভাগ,local_admin,boundaries,['bank'],[],Bangladesh,Barisal,Barguna,BargunaSadar,Paurashava,8955a1255859d5f783ab4ef6545219ed
6119416018.0,893cd4b5973ffff,22.1634846,89.9371304,P.S.F,['logic_undp'],"P.S.F, Pathorghata Subdistrict, Barguna District, Barishal Division, Bangladesh","পি.এস.এফ., পাথরঘাটা উপজেলা, বরগুনা জেলা, বরিশাল বিভাগ, বাংলাদেশ",পাথরঘাটা উপজেলা,বাংলাদেশ,বরিশাল বিভাগ,local_admin,boundaries,['administrative'],[],Bangladesh,Barisal,Barguna,Patharghata,NachnaPara,fc339ea90960720e38ed187e310c8eb2
5168436329.0,893cd5d3037ffff,22.1601875,90.1200411,Janata Bank Limited,,"Janata Bank Limited, Barguna Sadar Subdistrict, Barguna District, Barishal Division, Bangladesh","জনতা ব্যাংক লিমিটেড, বরগুনা সদর উপজেলা, বরগুনা জেলা, বরিশাল বিভাগ, বাংলাদেশ",বরগুনা সদর উপজেলা,বাংলাদেশ,বরিশাল বিভাগ,local_admin,boundaries,['bank'],[],Bangladesh,Barisal,Barguna,BargunaSadar,Paurashava,8955a1255859d5f783ab4ef6545219ed
6119416131.0,893cd4a625bffff,22.1287997,89.9637982,Psf,"['logic_undp', 'Sidor']","Psf, Pathorghata Subdistrict, Barguna District, Barishal Division, Bangladesh","পিএসএফ, পাথরঘাটা উপজেলা, বরগুনা জেলা, বরিশাল বিভাগ, বাংলাদেশ",পাথরঘাটা উপজেলা,বাংলাদেশ,বরিশাল বিভাগ,local_admin,boundaries,['administrative'],[],Bangladesh,Barisal,Barguna,Patharghata,Kanthaltali,dbbddaadac58eb68c85f352d564a55fa
5168437390.0,893cd5d3037ffff,22.1602521,90.1201487,Hizbullah Bostraloy,,"Hizbullah Bostraloy, Barguna Sadar Subdistrict, Barguna District, Barishal Division, Bangladesh","হিজবুল্লাহ বোস্ট্রালয়, বরগুনা সদর উপজেলা, বরগুনা জেলা, বরিশাল বিভাগ, বাংলাদেশ",বরগুনা সদর উপজেলা,বাংলাদেশ,বরিশাল বিভাগ,local_admin,boundaries,['clothes'],[],Bangladesh,Barisal,Barguna,BargunaSadar,Paurashava,8955a1255859d5f783ab4ef6545219ed
6119416132.0,893cd4a752bffff,22.1275002,89.9550676,Psf Infront Of Shikdar'S House,"['logic_undp', 'Sidr']","Psf Infront Of Shikdar'S House, Pathorghata Subdistrict, Barguna District, Barishal Division, Bangladesh","শিকদারের বাড়ির পিএসএফ ইনফ্রন্ট, পাথরঘাটা উপজেলা, বরগুনা জেলা, বরিশাল বিভাগ, বাংলাদেশ",পাথরঘাটা উপজেলা,বাংলাদেশ,বরিশাল বিভাগ,local_admin,boundaries,['administrative'],[],Bangladesh,Barisal,Barguna,Patharghata,Kanthaltali,dbbddaadac58eb68c85f352d564a55fa
6119416133.0,893cd4a7187ffff,22.1232066,89.9641952,Psf,"['logic_undp', 'Sidor']","Psf, Pathorghata Subdistrict, Barguna District, Barishal Division, Bangladesh","পিএসএফ, পাথরঘাটা উপজেলা, বরগুনা জেলা, বরিশাল বিভাগ, বাংলাদেশ",পাথরঘাটা উপজেলা,বাংলাদেশ,বরিশাল বিভাগ,local_admin,boundaries,['administrative'],[],Bangladesh,Barisal,Barguna,Patharghata,Kanthaltali,dbbddaadac58eb68c85f352d564a55fa
5170460455.0,893cd5d3037ffff,22.1593636,90.1193229,সেঞ্চুরি শপিং বরগুনা,,"Century Shopping Barguna, Barguna Sadar Subdistrict, Barguna District, Barishal Division, Bangladesh","সেঞ্চুরি শপিং বরগুনা, বরগুনা সদর উপজেলা, বরগুনা জেলা, বরিশাল বিভাগ, বাংলাদেশ",বরগুনা সদর উপজেলা,বাংলাদেশ,বরিশাল বিভাগ,local_admin,boundaries,['bag'],[],Bangladesh,Barisal,Barguna,BargunaSadar,Paurashava,8955a1255859d5f783ab4ef6545219ed
5170463551.0,893cd5d3033ffff,22.1592476,90.1190651,First Security Islami Bank Limited,['ফার্স্ট সিকিউরিটি ইসলামি ব্যাংক লিমিটেড'],"First Security Islami Bank Limited, Barguna Sadar Subdistrict, Barguna District, Barishal Division, Bangladesh","প্রথম সুরক্ষা ইসলামি ব্যাংক লিমিটেড, বরগুনা সদর উপজেলা, বরগুনা জেলা, বরিশাল বিভাগ, বাংলাদেশ",বরগুনা সদর উপজেলা,বাংলাদেশ,বরিশাল বিভাগ,local_admin,boundaries,['bank'],[],Bangladesh,Barisal,Barguna,BargunaSadar,Paurashava,8955a1255859d5f783ab4ef6545219ed
5170466082.0,893cd5d3033ffff,22.1593237,90.1190432,Hotel Swapno Bilash,,"Hotel Swapno Bilash, Barguna Sadar Subdistrict, Barguna District, Barishal Division, Bangladesh","হোটেল সোয়াপনো বিলাশ, বরগুনা সদর উপজেলা, বরগুনা জেলা, বরিশাল বিভাগ, বাংলাদেশ",বরগুনা সদর উপজেলা,বাংলাদেশ,বরিশাল বিভাগ,local_admin,boundaries,['hotel'],[],Bangladesh,Barisal,Barguna,BargunaSadar,Paurashava,8955a1255859d5f783ab4ef6545219ed
5170468980.0,893cd5d3033ffff,22.1593503,90.1189385,মেসার্স পলি কনস্ট্রাকসন,,"Messrs. Poly Construction, Barguna Sadar Subdistrict, Barguna District, Barishal Division, Bangladesh","মেসার্স পলি কনস্ট্রাকসন, বরগুনা সদর উপজেলা, বরগুনা জেলা, বরিশাল বিভাগ, বাংলাদেশ",বরগুনা সদর উপজেলা,বাংলাদেশ,বরিশাল বিভাগ,local_admin,boundaries,['mall'],[],Bangladesh,Barisal,Barguna,BargunaSadar,Paurashava,8955a1255859d5f783ab4ef6545219ed
5170473021.0,893cd5d3037ffff,22.1597053,90.1200462,Pubali Bank limited,,"Pubali Bank limited, Barguna Sadar Subdistrict, Barguna District, Barishal Division, Bangladesh","পাবালি ব্যাংক লিমিটেড, বরগুনা সদর উপজেলা, বরগুনা জেলা, বরিশাল বিভাগ, বাংলাদেশ",বরগুনা সদর উপজেলা,বাংলাদেশ,বরিশাল বিভাগ,local_admin,boundaries,['bank'],[],Bangladesh,Barisal,Barguna,BargunaSadar,Paurashava,8955a1255859d5f783ab4ef6545219ed
5170473122.0,893cd5d3033ffff,22.1594709,90.1190317,Rupali Bank Limited,['রূপালী ব্যাংক লিমিটেড'],"Rupali Bank Limited, Barguna Sadar Subdistrict, Barguna District, Barishal Division, Bangladesh","রুপালি ব্যাংক লিমিটেড, বরগুনা সদর উপজেলা, বরগুনা জেলা, বরিশাল বিভাগ, বাংলাদেশ",বরগুনা সদর উপজেলা,বাংলাদেশ,বরিশাল বিভাগ,local_admin,boundaries,['bank'],[],Bangladesh,Barisal,Barguna,BargunaSadar,Paurashava,8955a1255859d5f783ab4ef6545219ed
5170473948.0,893cd5d3033ffff,22.1595085,90.1186581,Uttara Bank Limited,,"Uttara Bank Limited, Barguna Sadar Subdistrict, Barguna District, Barishal Division, Bangladesh","উত্তরা ব্যাংক লিমিটেড, বরগুনা সদর উপজেলা, বরগুনা জেলা, বরিশাল বিভাগ, বাংলাদেশ",বরগুনা সদর উপজেলা,বাংলাদেশ,বরিশাল বিভাগ,local_admin,boundaries,['bank'],[],Bangladesh,Barisal,Barguna,BargunaSadar,Paurashava,8955a1255859d5f783ab4ef6545219ed
5170474082.0,893cd5d3033ffff,22.1595574,90.1185108,অগ্রনী ব্যংক লিমিটেড,,"Agrani Bank Limited, Barguna Sadar Subdistrict, Barguna District, Barishal Division, Bangladesh","অগ্রনী ব্যংক লিমিটেড, বরগুনা সদর উপজেলা, বরগুনা জেলা, বরিশাল বিভাগ, বাংলাদেশ",বরগুনা সদর উপজেলা,বাংলাদেশ,বরিশাল বিভাগ,local_admin,boundaries,['bank'],[],Bangladesh,Barisal,Barguna,BargunaSadar,Paurashava,8955a1255859d5f783ab4ef6545219ed
5170475037.0,893cd5d3033ffff,22.1594308,90.1188712,অন্তরঙ্গ শাড়ি বিতান,,"Intertly sarees, Barguna Sadar Subdistrict, Barguna District, Barishal Division, Bangladesh","অন্তরঙ্গ শাড়ি বিতান, বরগুনা সদর উপজেলা, বরগুনা জেলা, বরিশাল বিভাগ, বাংলাদেশ",বরগুনা সদর উপজেলা,বাংলাদেশ,বরিশাল বিভাগ,local_admin,boundaries,['clothes'],[],Bangladesh,Barisal,Barguna,BargunaSadar,Paurashava,8955a1255859d5f783ab4ef6545219ed
6119416260.0,893cd4a7133ffff,22.119272,89.9719964,Gps,"['logic_undp', 'Sidr']","Gps, Pathorghata Subdistrict, Barguna District, Barishal Division, Bangladesh","জিপিএস, পাথরঘাটা উপজেলা, বরগুনা জেলা, বরিশাল বিভাগ, বাংলাদেশ",পাথরঘাটা উপজেলা,বাংলাদেশ,বরিশাল বিভাগ,local_admin,boundaries,['administrative'],[],Bangladesh,Barisal,Barguna,Patharghata,Kanthaltali,dbbddaadac58eb68c85f352d564a55fa
5170476826.0,893cd5d30afffff,22.1596935,90.1190498,খান সুজ,,"Khan suj, Barguna Sadar Subdistrict, Barguna District, Barishal Division, Bangladesh","খান সুজ, বরগুনা সদর উপজেলা, বরগুনা জেলা, বরিশাল বিভাগ, বাংলাদেশ",বরগুনা সদর উপজেলা,বাংলাদেশ,বরিশাল বিভাগ,local_admin,boundaries,['shoes'],[],Bangladesh,Barisal,Barguna,BargunaSadar,Paurashava,8955a1255859d5f783ab4ef6545219ed
6119416274.0,893cd4a71d7ffff,22.1194174,89.9555853,Akhan Bari Psf,['logic_undp'],"Akhan Bari Psf, Pathorghata Subdistrict, Barguna District, Barishal Division, Bangladesh","আখান বারী পিএসএফ, পাথরঘাটা উপজেলা, বরগুনা জেলা, বরিশাল বিভাগ, বাংলাদেশ",পাথরঘাটা উপজেলা,বাংলাদেশ,বরিশাল বিভাগ,local_admin,boundaries,['government'],[],Bangladesh,Barisal,Barguna,Patharghata,Kanthaltali,dbbddaadac58eb68c85f352d564a55fa
5170478631.0,893cd5d30afffff,22.1597943,90.1192388,নাবিলা জেনারেল স্টোর,,"Nabila General Store, Barguna Sadar Subdistrict, Barguna District, Barishal Division, Bangladesh","নাবিলা জেনারেল স্টোর, বরগুনা সদর উপজেলা, বরগুনা জেলা, বরিশাল বিভাগ, বাংলাদেশ",বরগুনা সদর উপজেলা,বাংলাদেশ,বরিশাল বিভাগ,local_admin,boundaries,['department_store'],[],Bangladesh,Barisal,Barguna,BargunaSadar,Paurashava,8955a1255859d5f783ab4ef6545219ed
6119416412.0,893cd4a4443ffff,22.1138662,89.9837217,Psf,"['logic_undp', 'Sidor.Aila.Mahsen']","Psf, Pathorghata Subdistrict, Barguna District, Barishal Division, Bangladesh","পিএসএফ, পাথরঘাটা উপজেলা, বরগুনা জেলা, বরিশাল বিভাগ, বাংলাদেশ",পাথরঘাটা উপজেলা,বাংলাদেশ,বরিশাল বিভাগ,local_admin,boundaries,['administrative'],[],Bangladesh,Barisal,Barguna,Patharghata,Kalmegha,9b9adc16fd5d9daa5ab8bb28ee251718
5170482770.0,893cd5d30afffff,22.1599615,90.1190645,হোটেল তাজ এন্ড রেস্টুরেন্ট,['Hotel Taj and Restaurant'],"Hotel Taj & Restaurant, Barguna Sadar Subdistrict, Barguna District, Barishal Division, Bangladesh","হোটেল তাজ এন্ড রেস্টুরেন্ট, বরগুনা সদর উপজেলা, বরগুনা জেলা, বরিশাল বিভাগ, বাংলাদেশ",বরগুনা সদর উপজেলা,বাংলাদেশ,বরিশাল বিভাগ,local_admin,boundaries,['restaurant'],[],Bangladesh,Barisal,Barguna,BargunaSadar,Paurashava,8955a1255859d5f783ab4ef6545219ed
5170488417.0,893cd5d30afffff,22.1599661,90.1192212,Uttara Bank Limited,['উত্তরা ব্যংক লিমিটেড'],"Uttara Bank Limited, Barguna Sadar Subdistrict, Barguna District, Barishal Division, Bangladesh","উত্তরা ব্যাংক লিমিটেড, বরগুনা সদর উপজেলা, বরগুনা জেলা, বরিশাল বিভাগ, বাংলাদেশ",বরগুনা সদর উপজেলা,বাংলাদেশ,বরিশাল বিভাগ,local_admin,boundaries,['bank'],[],Bangladesh,Barisal,Barguna,BargunaSadar,Paurashava,8955a1255859d5f783ab4ef6545219ed
6119416426.0,893cd4a751bffff,22.1308147,89.9437728,"Psf, Infront Of Mondal'S House","['logic_undp', 'Sidr, Aila']","Psf Infront Of Mondal'S House, Pathorghata Subdistrict, Barguna District, Barishal Division, Bangladesh","মন্ডালের বাড়ির পিএসএফ ইনফ্রন্ট, পাথরঘাটা উপজেলা, বরগুনা জেলা, বরিশাল বিভাগ, বাংলাদেশ",পাথরঘাটা উপজেলা,বাংলাদেশ,বরিশাল বিভাগ,local_admin,boundaries,['administrative'],[],Bangladesh,Barisal,Barguna,Patharghata,Kanthaltali,dbbddaadac58eb68c85f352d564a55fa
5170499964.0,893cd5d30afffff,22.1610373,90.1200515,Ms Idris Tradders MIT,,"Ms Idris Tradders MIT, Barguna Sadar Subdistrict, Barguna District, Barishal Division, Bangladesh","এমএস ইদ্রিস ট্রেড্ডার্স এমআইটি, বরগুনা সদর উপজেলা, বরগুনা জেলা, বরিশাল বিভাগ, বাংলাদেশ",বরগুনা সদর উপজেলা,বাংলাদেশ,বরিশাল বিভাগ,local_admin,boundaries,['trade'],[],Bangladesh,Barisal,Barguna,BargunaSadar,Paurashava,8955a1255859d5f783ab4ef6545219ed
6119416427.0,893cd4a74a7ffff,22.1317787,89.9328831,Sdf,['logic_undp'],"Sdf, Pathorghata Subdistrict, Barguna District, Barishal Division, Bangladesh","এসডিএফ, পাথরঘাটা উপজেলা, বরগুনা জেলা, বরিশাল বিভাগ, বাংলাদেশ",পাথরঘাটা উপজেলা,বাংলাদেশ,বরিশাল বিভাগ,local_admin,boundaries,['government'],[],Bangladesh,Barisal,Barguna,Patharghata,Kanthaltali,dbbddaadac58eb68c85f352d564a55fa
5170500257.0,893cd5d30afffff,22.1607294,90.1196699,Mesars Shatota Vander,,"Mesars Shatota Vander, Barguna Sadar Subdistrict, Barguna District, Barishal Division, Bangladesh","মেসার্স শাতোটা ভ্যান্ডার, বরগুনা সদর উপজেলা, বরগুনা জেলা, বরিশাল বিভাগ, বাংলাদেশ",বরগুনা সদর উপজেলা,বাংলাদেশ,বরিশাল বিভাগ,local_admin,boundaries,['trade'],[],Bangladesh,Barisal,Barguna,BargunaSadar,Paurashava,8955a1255859d5f783ab4ef6545219ed
5170529959.0,893cd5d30afffff,22.1604206,90.1188541,বৈশাখী টেলিকম,['Boishakhi Telecom'],"Baishakhi Telecom, Barguna Sadar Subdistrict, Barguna District, Barishal Division, Bangladesh","বৈশাখী টেলিকম, বরগুনা সদর উপজেলা, বরগুনা জেলা, বরিশাল বিভাগ, বাংলাদেশ",বরগুনা সদর উপজেলা,বাংলাদেশ,বরিশাল বিভাগ,local_admin,boundaries,['mobile_phone'],[],Bangladesh,Barisal,Barguna,BargunaSadar,Paurashava,8955a1255859d5f783ab4ef6545219ed
6119416454.0,893cd4a71cfffff,22.1133096,89.9570149,Sdf,['logic_undp'],"Sdf, Pathorghata Subdistrict, Barguna District, Barishal Division, Bangladesh","এসডিএফ, পাথরঘাটা উপজেলা, বরগুনা জেলা, বরিশাল বিভাগ, বাংলাদেশ",পাথরঘাটা উপজেলা,বাংলাদেশ,বরিশাল বিভাগ,local_admin,boundaries,['administrative'],[],Bangladesh,Barisal,Barguna,Patharghata,Kanthaltali,dbbddaadac58eb68c85f352d564a55fa
6119416555.0,893cd4a74a3ffff,22.1312743,89.9284145,P.S.F,['logic_undp'],"P.S.F, Pathorghata Subdistrict, Barguna District, Barishal Division, Bangladesh","পি.এস.এফ., পাথরঘাটা উপজেলা, বরগুনা জেলা, বরিশাল বিভাগ, বাংলাদেশ",পাথরঘাটা উপজেলা,বাংলাদেশ,বরিশাল বিভাগ,local_admin,boundaries,['government'],[],Bangladesh,Barisal,Barguna,Patharghata,Kanthaltali,dbbddaadac58eb68c85f352d564a55fa
5170529960.0,893cd5d30afffff,22.1603783,90.1184896,বাংলাদেশ কৃষি ব্যাংক,"['বাংলাদেশ কৃষি ব্যাংক', 'Bangladesh Krishi Bank']","Bangladesh Agricultural Bank, Barguna Sadar Subdistrict, Barguna District, Barishal Division, Bangladesh","বাংলাদেশ কৃষি ব্যাংক, বরগুনা সদর উপজেলা, বরগুনা জেলা, বরিশাল বিভাগ, বাংলাদেশ",বরগুনা সদর উপজেলা,বাংলাদেশ,বরিশাল বিভাগ,local_admin,boundaries,['bank'],[],Bangladesh,Barisal,Barguna,BargunaSadar,Paurashava,8955a1255859d5f783ab4ef6545219ed
6119416556.0,893cd4b5a67ffff,22.131565,89.9133325,P.S.F,['logic_undp'],"P.S.F, Pathorghata Subdistrict, Barguna District, Barishal Division, Bangladesh","পি.এস.এফ., পাথরঘাটা উপজেলা, বরগুনা জেলা, বরিশাল বিভাগ, বাংলাদেশ",পাথরঘাটা উপজেলা,বাংলাদেশ,বরিশাল বিভাগ,local_admin,boundaries,['government'],[],Bangladesh,Barisal,Barguna,Patharghata,Kanthaltali,dbbddaadac58eb68c85f352d564a55fa
5170531524.0,893cd5d30afffff,22.1605357,90.1185427,Hotel Bay of Bengle,['হোটেল বে অব বেঙ্গল'],"Hotel Bay of Bengle, Barguna Sadar Subdistrict, Barguna District, Barishal Division, Bangladesh","বাংলার হোটেল বে, বরগুনা সদর উপজেলা, বরগুনা জেলা, বরিশাল বিভাগ, বাংলাদেশ",বরগুনা সদর উপজেলা,বাংলাদেশ,বরিশাল বিভাগ,local_admin,boundaries,['restaurant'],[],Bangladesh,Barisal,Barguna,BargunaSadar,Paurashava,8955a1255859d5f783ab4ef6545219ed
6119416568.0,893cd4a7437ffff,22.1284009,89.9324714,Professor Bari Psf,"['logic_undp', 'Sidr, Aila']","Professor Bari Psf, Pathorghata Subdistrict, Barguna District, Barishal Division, Bangladesh","অধ্যাপক বারী পিএসএফ, পাথরঘাটা উপজেলা, বরগুনা জেলা, বরিশাল বিভাগ, বাংলাদেশ",পাথরঘাটা উপজেলা,বাংলাদেশ,বরিশাল বিভাগ,local_admin,boundaries,['government'],[],Bangladesh,Barisal,Barguna,Patharghata,Kanthaltali,dbbddaadac58eb68c85f352d564a55fa
5170683663.0,893cd5d30afffff,22.1603376,90.1182696,Singer showroom,['সিঙ্গার শোরুম'],"Singer showroom, Barguna Sadar Subdistrict, Barguna District, Barishal Division, Bangladesh","গায়ক শোরুম, বরগুনা সদর উপজেলা, বরগুনা জেলা, বরিশাল বিভাগ, বাংলাদেশ",বরগুনা সদর উপজেলা,বাংলাদেশ,বরিশাল বিভাগ,local_admin,boundaries,['electronics'],[],Bangladesh,Barisal,Barguna,BargunaSadar,Paurashava,8955a1255859d5f783ab4ef6545219ed
6119416569.0,893cd4a75cfffff,22.1290705,89.9389744,Rahim Kha'S Mazar,"['logic_undp', 'Sidr, Aila']","Rahim Kha'S Mazar, Pathorghata Subdistrict, Barguna District, Barishal Division, Bangladesh","রহিম খের মাজার, পাথরঘাটা উপজেলা, বরগুনা জেলা, বরিশাল বিভাগ, বাংলাদেশ",পাথরঘাটা উপজেলা,বাংলাদেশ,বরিশাল বিভাগ,local_admin,boundaries,['marketplace'],[],Bangladesh,Barisal,Barguna,Patharghata,Kanthaltali,dbbddaadac58eb68c85f352d564a55fa
5170695343.0,893cd5d30afffff,22.1602839,90.1177596,,,"Barguna Sadar Subdistrict, Barguna District, Barishal Division, Bangladesh","বরগুনা সদর উপজেলা, বরগুনা জেলা, বরিশাল বিভাগ, বাংলাদেশ",বরগুনা সদর উপজেলা,বাংলাদেশ,বরিশাল বিভাগ,local_admin,boundaries,['atm'],[],Bangladesh,Barisal,Barguna,BargunaSadar,Paurashava,8955a1255859d5f783ab4ef6545219ed
5170696931.0,893cd5d30afffff,22.1602616,90.1175888,বরগুনা নদী বন্দর,,"The port of the Barguna River, Barguna Sadar Subdistrict, Barguna District, Barishal Division, Bangladesh","বরগুনা নদী বন্দর, বরগুনা সদর উপজেলা, বরগুনা জেলা, বরিশাল বিভাগ, বাংলাদেশ",বরগুনা সদর উপজেলা,বাংলাদেশ,বরিশাল বিভাগ,local_admin,boundaries,['ferry_terminal'],[],Bangladesh,Barisal,Barguna,BargunaSadar,Paurashava,8955a1255859d5f783ab4ef6545219ed
6119416570.0,893cd4a7553ffff,22.1275058,89.9405482,Bojlu Munsi Bari Psf,['logic_undp'],"Bojlu Munsi Bari Psf, Pathorghata Subdistrict, Barguna District, Barishal Division, Bangladesh","বোজলু মুন্সি বারী পিএসএফ, পাথরঘাটা উপজেলা, বরগুনা জেলা, বরিশাল বিভাগ, বাংলাদেশ",পাথরঘাটা উপজেলা,বাংলাদেশ,বরিশাল বিভাগ,local_admin,boundaries,['administrative'],[],Bangladesh,Barisal,Barguna,Patharghata,Kanthaltali,dbbddaadac58eb68c85f352d564a55fa
5170698185.0,893cd5d30afffff,22.1604509,90.1176106,Al Arafah Islami Bank Limited,['আল আরাফাহ্ ইসলামী ব্যাংক লিমিটেড'],"Al Arafah Islami Bank Limited, Barguna Sadar Subdistrict, Barguna District, Barishal Division, Bangladesh","আল আরাফাহ ইসলামি ব্যাংক লিমিটেড, বরগুনা সদর উপজেলা, বরগুনা জেলা, বরিশাল বিভাগ, বাংলাদেশ",বরগুনা সদর উপজেলা,বাংলাদেশ,বরিশাল বিভাগ,local_admin,boundaries,['bank'],[],Bangladesh,Barisal,Barguna,BargunaSadar,Paurashava,8955a1255859d5f783ab4ef6545219ed
6119416708.0,893cd4a7067ffff,22.1024452,89.9497569,Sdf,['logic_undp'],"Sdf, Pathorghata Subdistrict, Barguna District, Barishal Division, Bangladesh","এসডিএফ, পাথরঘাটা উপজেলা, বরগুনা জেলা, বরিশাল বিভাগ, বাংলাদেশ",পাথরঘাটা উপজেলা,বাংলাদেশ,বরিশাল বিভাগ,local_admin,boundaries,['administrative'],[],Bangladesh,Barisal,Barguna,Patharghata,Kanthaltali,dbbddaadac58eb68c85f352d564a55fa
5170709114.0,893cd5d30abffff,22.1602177,90.1156572,Barguna Timber (kath) Market,,"Barguna Timber kath Market, Barguna Sadar Subdistrict, Barguna District, Barishal Division, Bangladesh","বারগুনা কাঠের কাঠ বাজার, বরগুনা সদর উপজেলা, বরগুনা জেলা, বরিশাল বিভাগ, বাংলাদেশ",বরগুনা সদর উপজেলা,বাংলাদেশ,বরিশাল বিভাগ,local_admin,boundaries,['sawmill'],[],Bangladesh,Barisal,Barguna,BargunaSadar,Paurashava,8955a1255859d5f783ab4ef6545219ed
6119416736.0,893cd4a731bffff,22.0911201,89.9570538,Sdf,['logic_undp'],"Sdf, Pathorghata Subdistrict, Barguna District, Barishal Division, Bangladesh","এসডিএফ, পাথরঘাটা উপজেলা, বরগুনা জেলা, বরিশাল বিভাগ, বাংলাদেশ",পাথরঘাটা উপজেলা,বাংলাদেশ,বরিশাল বিভাগ,local_admin,boundaries,['administrative'],[],Bangladesh,Barisal,Barguna,Patharghata,Kanthaltali,dbbddaadac58eb68c85f352d564a55fa
5170715264.0,893cd5d3013ffff,22.1582668,90.1064594,M/S Ashraful Enterprise,,"M/S Ashraful Enterprise, Barguna Sadar Subdistrict, Barguna District, Barishal Division, Bangladesh","মেসার্স অ্যাশরাফুল এন্টারপ্রাইজ, বরগুনা সদর উপজেলা, বরগুনা জেলা, বরিশাল বিভাগ, বাংলাদেশ",বরগুনা সদর উপজেলা,বাংলাদেশ,বরিশাল বিভাগ,local_admin,boundaries,['trade'],[],Bangladesh,Barisal,Barguna,BargunaSadar,Paurashava,8955a1255859d5f783ab4ef6545219ed
5174082111.0,893cd5d31c3ffff,22.1623166,90.12468,All in one,,"All in one, Barguna Sadar Subdistrict, Barguna District, Barishal Division, Bangladesh","সব এক, বরগুনা সদর উপজেলা, বরগুনা জেলা, বরিশাল বিভাগ, বাংলাদেশ",বরগুনা সদর উপজেলা,বাংলাদেশ,বরিশাল বিভাগ,local_admin,boundaries,['gift'],[],Bangladesh,Barisal,Barguna,BargunaSadar,Paurashava,8955a1255859d5f783ab4ef6545219ed
6119560188.0,893cd4a7403ffff,22.1256044,89.9231467,Temple Of Naraon Babu,"['logic_undp', 'Sidr']","Temple Of Naraon Babu, Pathorghata Subdistrict, Barguna District, Barishal Division, Bangladesh","নারাওন বাবু মন্দির, পাথরঘাটা উপজেলা, বরগুনা জেলা, বরিশাল বিভাগ, বাংলাদেশ",পাথরঘাটা উপজেলা,বাংলাদেশ,বরিশাল বিভাগ,local_admin,boundaries,['place_of_worship'],[],Bangladesh,Barisal,Barguna,Patharghata,CharDuanti,5f6c39241c64fd48c97f97b1c5409a8b
5174088836.0,893cd5d31cbffff,22.1612171,90.1240295,Kutumbari Restora,,"Kutumbari Restora, Barguna Sadar Subdistrict, Barguna District, Barishal Division, Bangladesh","কুতুম্বারি রেস্টোরা, বরগুনা সদর উপজেলা, বরগুনা জেলা, বরিশাল বিভাগ, বাংলাদেশ",বরগুনা সদর উপজেলা,বাংলাদেশ,বরিশাল বিভাগ,local_admin,boundaries,['restaurant'],[],Bangladesh,Barisal,Barguna,BargunaSadar,Paurashava,8955a1255859d5f783ab4ef6545219ed
5174089852.0,893cd5d31dbffff,22.1610651,90.1231859,হোটেল তাজবিন,,"Hotel Tajin, Barguna Sadar Subdistrict, Barguna District, Barishal Division, Bangladesh","হোটেল তাজবিন, বরগুনা সদর উপজেলা, বরগুনা জেলা, বরিশাল বিভাগ, বাংলাদেশ",বরগুনা সদর উপজেলা,বাংলাদেশ,বরিশাল বিভাগ,local_admin,boundaries,['hotel'],[],Bangladesh,Barisal,Barguna,BargunaSadar,Paurashava,8955a1255859d5f783ab4ef6545219ed
5174143319.0,893cd5d3033ffff,22.1591456,90.1185871,THE COMPUTER PLANET,,"THE COMPUTER PLANET, Barguna Sadar Subdistrict, Barguna District, Barishal Division, Bangladesh","কম্পিউটার গ্রহ, বরগুনা সদর উপজেলা, বরগুনা জেলা, বরিশাল বিভাগ, বাংলাদেশ",বরগুনা সদর উপজেলা,বাংলাদেশ,বরিশাল বিভাগ,local_admin,boundaries,['computer'],[],Bangladesh,Barisal,Barguna,BargunaSadar,Paurashava,8955a1255859d5f783ab4ef6545219ed
5174143378.0,893cd5d3033ffff,22.1595811,90.1179669,এম আলী হোটেল,['M Ali Restaurant'],"M Ali Hotel, Barguna Sadar Subdistrict, Barguna District, Barishal Division, Bangladesh","এম আলী হোটেল, বরগুনা সদর উপজেলা, বরগুনা জেলা, বরিশাল বিভাগ, বাংলাদেশ",বরগুনা সদর উপজেলা,বাংলাদেশ,বরিশাল বিভাগ,local_admin,boundaries,['restaurant'],[],Bangladesh,Barisal,Barguna,BargunaSadar,Paurashava,8955a1255859d5f783ab4ef6545219ed
5174144703.0,893cd5d3033ffff,22.1581008,90.1196653,মহসিন মার্কেট বরগুনা,,"Mohsin Market Barguna, Barguna Sadar Subdistrict, Barguna District, Barishal Division, Bangladesh","মহসিন মার্কেট বরগুনা, বরগুনা সদর উপজেলা, বরগুনা জেলা, বরিশাল বিভাগ, বাংলাদেশ",বরগুনা সদর উপজেলা,বাংলাদেশ,বরিশাল বিভাগ,local_admin,boundaries,['clothes'],[],Bangladesh,Barisal,Barguna,BargunaSadar,Paurashava,8955a1255859d5f783ab4ef6545219ed
6119560193.0,893cd4a75dbffff,22.1290307,89.9345943,Professor Bari Jame Mosque,['logic_undp'],"Professor Bari Jame Mosque, Pathorghata Subdistrict, Barguna District, Barishal Division, Bangladesh","অধ্যাপক বারী জামে মসজিদ, পাথরঘাটা উপজেলা, বরগুনা জেলা, বরিশাল বিভাগ, বাংলাদেশ",পাথরঘাটা উপজেলা,বাংলাদেশ,বরিশাল বিভাগ,local_admin,boundaries,['place_of_worship_muslim'],[],Bangladesh,Barisal,Barguna,Patharghata,Kanthaltali,dbbddaadac58eb68c85f352d564a55fa
5174146582.0,893cd5d30afffff,22.1599391,90.1172551,Symphony Mobile Company Showroom,,"Symphony Mobile Company Showroom, Barguna Sadar Subdistrict, Barguna District, Barishal Division, Bangladesh","সিম্ফনি মোবাইল কোম্পানির শোরুম, বরগুনা সদর উপজেলা, বরগুনা জেলা, বরিশাল বিভাগ, বাংলাদেশ",বরগুনা সদর উপজেলা,বাংলাদেশ,বরিশাল বিভাগ,local_admin,boundaries,['mobile_phone'],[],Bangladesh,Barisal,Barguna,BargunaSadar,Paurashava,8955a1255859d5f783ab4ef6545219ed
6119560194.0,893cd4a758bffff,22.1355304,89.9413884,,['logic_undp'],"Pathorghata Subdistrict, Barguna District, Barishal Division, Bangladesh","পাথরঘাটা উপজেলা, বরগুনা জেলা, বরিশাল বিভাগ, বাংলাদেশ",পাথরঘাটা উপজেলা,বাংলাদেশ,বরিশাল বিভাগ,local_admin,boundaries,['place_of_worship_muslim'],[],Bangladesh,Barisal,Barguna,Patharghata,Kanthaltali,dbbddaadac58eb68c85f352d564a55fa
5174152147.0,893cd5d3033ffff,22.1598703,90.1172613,Samsung Smartphone Cafe Barguna,,"Samsung Smartphone Cafe Barguna, Barguna Sadar Subdistrict, Barguna District, Barishal Division, Bangladesh","স্যামসাং স্মার্টফোন ক্যাফে বারগুনা, বরগুনা সদর উপজেলা, বরগুনা জেলা, বরিশাল বিভাগ, বাংলাদেশ",বরগুনা সদর উপজেলা,বাংলাদেশ,বরিশাল বিভাগ,local_admin,boundaries,['mobile_phone'],[],Bangladesh,Barisal,Barguna,BargunaSadar,Paurashava,8955a1255859d5f783ab4ef6545219ed
6119560195.0,893cd4a750bffff,22.1291724,89.9480818,,"['logic_undp', 'Sidor']","Pathorghata Subdistrict, Barguna District, Barishal Division, Bangladesh","পাথরঘাটা উপজেলা, বরগুনা জেলা, বরিশাল বিভাগ, বাংলাদেশ",পাথরঘাটা উপজেলা,বাংলাদেশ,বরিশাল বিভাগ,local_admin,boundaries,['place_of_worship_muslim'],[],Bangladesh,Barisal,Barguna,Patharghata,Kanthaltali,dbbddaadac58eb68c85f352d564a55fa
5174152796.0,893cd5d30abffff,22.1596029,90.115322,LG Butterfly Showroom,,"LG Butterfly Showroom, Barguna Sadar Subdistrict, Barguna District, Barishal Division, Bangladesh","এলজি প্রজাপতি শোরুম, বরগুনা সদর উপজেলা, বরগুনা জেলা, বরিশাল বিভাগ, বাংলাদেশ",বরগুনা সদর উপজেলা,বাংলাদেশ,বরিশাল বিভাগ,local_admin,boundaries,['electronics'],[],Bangladesh,Barisal,Barguna,BargunaSadar,Paurashava,8955a1255859d5f783ab4ef6545219ed
6119560196.0,893cd4a7097ffff,22.1198534,89.9369225,Kheya Ghat Bazar Sarbojonin Durga Mondir,"['logic_undp', 'Sidr']","Kheya Ghat Bazar Sarbojonin Durga Mondir, Pathorghata Subdistrict, Barguna District, Barishal Division, Bangladesh","খীয়া ঘাট বাজার সার্বোজোনিন দুর্গা মন্ডির, পাথরঘাটা উপজেলা, বরগুনা জেলা, বরিশাল বিভাগ, বাংলাদেশ",পাথরঘাটা উপজেলা,বাংলাদেশ,বরিশাল বিভাগ,local_admin,boundaries,['place_of_worship'],[],Bangladesh,Barisal,Barguna,Patharghata,CharDuanti,5f6c39241c64fd48c97f97b1c5409a8b
5174155134.0,893cd5d30abffff,22.1595102,90.114783,মালঞ্চ ফার্নিচার,,"Malanch Furniture, Barguna Sadar Subdistrict, Barguna District, Barishal Division, Bangladesh","মালঞ্চ ফার্নিচার, বরগুনা সদর উপজেলা, বরগুনা জেলা, বরিশাল বিভাগ, বাংলাদেশ",বরগুনা সদর উপজেলা,বাংলাদেশ,বরিশাল বিভাগ,local_admin,boundaries,['furniture'],[],Bangladesh,Barisal,Barguna,BargunaSadar,Paurashava,8955a1255859d5f783ab4ef6545219ed
6119560197.0,893cd4a7097ffff,22.1202597,89.937015,Taluker Cahr Duyani Jame Mosque,['logic_undp'],"Taluker Cahr Duyani Jame Mosque, Pathorghata Subdistrict, Barguna District, Barishal Division, Bangladesh","তালুকার কাহর ডুয়ানি জামে মসজিদ, পাথরঘাটা উপজেলা, বরগুনা জেলা, বরিশাল বিভাগ, বাংলাদেশ",পাথরঘাটা উপজেলা,বাংলাদেশ,বরিশাল বিভাগ,local_admin,boundaries,['place_of_worship_muslim'],[],Bangladesh,Barisal,Barguna,Patharghata,CharDuanti,5f6c39241c64fd48c97f97b1c5409a8b
5174213763.0,893cd5d3017ffff,22.159209,90.1135753,Walton Plaza,,"Walton Plaza, Barguna Sadar Subdistrict, Barguna District, Barishal Division, Bangladesh","ওয়ালটন প্লাজা, বরগুনা সদর উপজেলা, বরগুনা জেলা, বরিশাল বিভাগ, বাংলাদেশ",বরগুনা সদর উপজেলা,বাংলাদেশ,বরিশাল বিভাগ,local_admin,boundaries,['electronics'],[],Bangladesh,Barisal,Barguna,BargunaSadar,Paurashava,8955a1255859d5f783ab4ef6545219ed
6119560198.0,893cd4a7553ffff,22.1271834,89.9401586,Bojlu Munsi Bari Jmae Mosque,"['logic_undp', 'Sidr , Aila']","Bojlu Munsi Bari Jmae Mosque, Pathorghata Subdistrict, Barguna District, Barishal Division, Bangladesh","বোজলু মুন্সী বারী জামে মসজিদ, পাথরঘাটা উপজেলা, বরগুনা জেলা, বরিশাল বিভাগ, বাংলাদেশ",পাথরঘাটা উপজেলা,বাংলাদেশ,বরিশাল বিভাগ,local_admin,boundaries,['place_of_worship_muslim'],[],Bangladesh,Barisal,Barguna,Patharghata,Kanthaltali,dbbddaadac58eb68c85f352d564a55fa
5174216558.0,893cd5d3017ffff,22.1587647,90.1123782,Loko Betar Barguna (Community Radio),,"Loko Betar Barguna Community Radio, Barguna Sadar Subdistrict, Barguna District, Barishal Division, Bangladesh","লোকো বিটার বারগুনা কমিউনিটি রেডিও, বরগুনা সদর উপজেলা, বরগুনা জেলা, বরিশাল বিভাগ, বাংলাদেশ",বরগুনা সদর উপজেলা,বাংলাদেশ,বরিশাল বিভাগ,local_admin,boundaries,['studio'],[],Bangladesh,Barisal,Barguna,BargunaSadar,Paurashava,8955a1255859d5f783ab4ef6545219ed
5174218653.0,893cd5d3007ffff,22.1578476,90.1157224,এবং অতঃপর (Abong Otopor),,"Abong Otopor, Barguna Sadar Subdistrict, Barguna District, Barishal Division, Bangladesh","এবং অতঃপর, বরগুনা সদর উপজেলা, বরগুনা জেলা, বরিশাল বিভাগ, বাংলাদেশ",বরগুনা সদর উপজেলা,বাংলাদেশ,বরিশাল বিভাগ,local_admin,boundaries,['gift'],[],Bangladesh,Barisal,Barguna,BargunaSadar,Paurashava,8955a1255859d5f783ab4ef6545219ed
6119560199.0,893cd4a7087ffff,22.1162393,89.940978,Boiragi Bari Sarbojonin Radha Gobindo Mondir,"['logic_undp', 'Sidr']","Boiragi Bari Sarbojonin Radha Gobindo Mondir, Pathorghata Subdistrict, Barguna District, Barishal Division, Bangladesh","বোয়েরাগি বারী সরবোজোনিন রাধা গোবিন্দো মন্ডির, পাথরঘাটা উপজেলা, বরগুনা জেলা, বরিশাল বিভাগ, বাংলাদেশ",পাথরঘাটা উপজেলা,বাংলাদেশ,বরিশাল বিভাগ,local_admin,boundaries,['place_of_worship'],[],Bangladesh,Barisal,Barguna,Patharghata,CharDuanti,5f6c39241c64fd48c97f97b1c5409a8b
5174220249.0,893cd5d3007ffff,22.1578746,90.1146902,শ্যামলী সিনেমা হল,,"Shyamoli Cinema Hall, Barguna Sadar Subdistrict, Barguna District, Barishal Division, Bangladesh","শ্যামলী সিনেমা হল, বরগুনা সদর উপজেলা, বরগুনা জেলা, বরিশাল বিভাগ, বাংলাদেশ",বরগুনা সদর উপজেলা,বাংলাদেশ,বরিশাল বিভাগ,local_admin,boundaries,['cinema'],[],Bangladesh,Barisal,Barguna,BargunaSadar,Paurashava,8955a1255859d5f783ab4ef6545219ed
6119560200.0,893cd4a71d3ffff,22.1192161,89.954955,Ibrahim Haji Bari Jame Mosque,"['logic_undp', 'Sidr']","Ibrahim Haji Bari Jame Mosque, Pathorghata Subdistrict, Barguna District, Barishal Division, Bangladesh","ইব্রাহিম হাজী বারী জামে মসজিদ, পাথরঘাটা উপজেলা, বরগুনা জেলা, বরিশাল বিভাগ, বাংলাদেশ",পাথরঘাটা উপজেলা,বাংলাদেশ,বরিশাল বিভাগ,local_admin,boundaries,['place_of_worship_muslim'],[],Bangladesh,Barisal,Barguna,Patharghata,Kanthaltali,dbbddaadac58eb68c85f352d564a55fa
5174221848.0,893cd5d3007ffff,22.1578291,90.1141678,প্রিয়জন (prioJon),,"prioJon, Barguna Sadar Subdistrict, Barguna District, Barishal Division, Bangladesh","প্রিয়জন, বরগুনা সদর উপজেলা, বরগুনা জেলা, বরিশাল বিভাগ, বাংলাদেশ",বরগুনা সদর উপজেলা,বাংলাদেশ,বরিশাল বিভাগ,local_admin,boundaries,['clothes'],[],Bangladesh,Barisal,Barguna,BargunaSadar,Paurashava,8955a1255859d5f783ab4ef6545219ed
6119560201.0,893cd4a71d7ffff,22.1193689,89.9554941,Akhon Bari Jame Mosque,"['logic_undp', 'Sidr']","Akhon Bari Jame Mosque, Pathorghata Subdistrict, Barguna District, Barishal Division, Bangladesh","আখন বারী জামে মসজিদ, পাথরঘাটা উপজেলা, বরগুনা জেলা, বরিশাল বিভাগ, বাংলাদেশ",পাথরঘাটা উপজেলা,বাংলাদেশ,বরিশাল বিভাগ,local_admin,boundaries,['place_of_worship_muslim'],[],Bangladesh,Barisal,Barguna,Patharghata,Kanthaltali,dbbddaadac58eb68c85f352d564a55fa
5175946912.0,893cd5d31cfffff,22.1598612,90.1292398,Barguna BRTC Bus Stop,,"Barguna BRTC Bus Stop, Barguna Sadar Subdistrict, Barguna District, Barishal Division, Bangladesh","বারগুনা বিআরটিসি বাস স্টপ, বরগুনা সদর উপজেলা, বরগুনা জেলা, বরিশাল বিভাগ, বাংলাদেশ",বরগুনা সদর উপজেলা,বাংলাদেশ,বরিশাল বিভাগ,local_admin,boundaries,['bus_station'],[],Bangladesh,Barisal,Barguna,BargunaSadar,Paurashava,8955a1255859d5f783ab4ef6545219ed
5179297885.0,893cd5d314fffff,22.1526927,90.1319403,Barguna Police Line,,"Barguna Police Line, Barguna Sadar Subdistrict, Barguna District, Barishal Division, Bangladesh","বারগুনা পুলিশ লাইন, বরগুনা সদর উপজেলা, বরগুনা জেলা, বরিশাল বিভাগ, বাংলাদেশ",বরগুনা সদর উপজেলা,বাংলাদেশ,বরিশাল বিভাগ,local_admin,boundaries,['police'],[],Bangladesh,Barisal,Barguna,BargunaSadar,Paurashava,8955a1255859d5f783ab4ef6545219ed
6119560202.0,893cd4a71cfffff,22.1145446,89.9574468,Malek Talukder Bari Jame Mosque,"['logic_undp', 'Aila']","Malek Talukder Bari Jame Mosque, Pathorghata Subdistrict, Barguna District, Barishal Division, Bangladesh","মালেক তালুকদার বারী জামে মসজিদ, পাথরঘাটা উপজেলা, বরগুনা জেলা, বরিশাল বিভাগ, বাংলাদেশ",পাথরঘাটা উপজেলা,বাংলাদেশ,বরিশাল বিভাগ,local_admin,boundaries,['place_of_worship_muslim'],[],Bangladesh,Barisal,Barguna,Patharghata,Kanthaltali,dbbddaadac58eb68c85f352d564a55fa
5179299945.0,893cd5d310bffff,22.1596265,90.1334136,Stadium Bus Stop,,"Stadium Bus Stop, Barguna Sadar Subdistrict, Barguna District, Barishal Division, Bangladesh","স্টেডিয়াম বাস স্টপ, বরগুনা সদর উপজেলা, বরগুনা জেলা, বরিশাল বিভাগ, বাংলাদেশ",বরগুনা সদর উপজেলা,বাংলাদেশ,বরিশাল বিভাগ,local_admin,boundaries,['bus_station'],[],Bangladesh,Barisal,Barguna,BargunaSadar,Paurashava,8955a1255859d5f783ab4ef6545219ed
6119560203.0,893cd4a7037ffff,22.1120348,89.95190529999999,Hosen Kha Bari Jame Mosque,['logic_undp'],"Hosen Kha Bari Jame Mosque, Pathorghata Subdistrict, Barguna District, Barishal Division, Bangladesh","হোসেন খা বারী জামে মসজিদ, পাথরঘাটা উপজেলা, বরগুনা জেলা, বরিশাল বিভাগ, বাংলাদেশ",পাথরঘাটা উপজেলা,বাংলাদেশ,বরিশাল বিভাগ,local_admin,boundaries,['place_of_worship_muslim'],[],Bangladesh,Barisal,Barguna,Patharghata,Kanthaltali,dbbddaadac58eb68c85f352d564a55fa
6119560204.0,893cd4a7037ffff,22.1102395,89.9513005,Ansar Kha Bari Jame Mosjid,"['logic_undp', 'Sidr']","Ansar Kha Bari Jame Mosjid, Pathorghata Subdistrict, Barguna District, Barishal Division, Bangladesh","আনসার খা বারী জামে মোসজিড, পাথরঘাটা উপজেলা, বরগুনা জেলা, বরিশাল বিভাগ, বাংলাদেশ",পাথরঘাটা উপজেলা,বাংলাদেশ,বরিশাল বিভাগ,local_admin,boundaries,['place_of_worship_muslim'],[],Bangladesh,Barisal,Barguna,Patharghata,Kanthaltali,dbbddaadac58eb68c85f352d564a55fa
5179377123.0,893cd5d0157ffff,22.1564503,90.1975112,নোমরহাট বাজার,,"Nomarhat Bazar, Barguna Sadar Subdistrict, Barguna District, Barishal Division, Bangladesh","নোমরহাট বাজার, বরগুনা সদর উপজেলা, বরগুনা জেলা, বরিশাল বিভাগ, বাংলাদেশ",বরগুনা সদর উপজেলা,বাংলাদেশ,বরিশাল বিভাগ,local_admin,boundaries,['supermarket'],[],Bangladesh,Barisal,Barguna,BargunaSadar,BurirChar,175dd8ac796c045cf32d514436b6add2
6119560205.0,893cd4a7027ffff,22.1078949,89.9548933,Talukder Bari Jame Mosque,"['logic_undp', 'Sidr, Aila']","Talukder Bari Jame Mosque, Pathorghata Subdistrict, Barguna District, Barishal Division, Bangladesh","তালুকদার বারী জামে মসজিদ, পাথরঘাটা উপজেলা, বরগুনা জেলা, বরিশাল বিভাগ, বাংলাদেশ",পাথরঘাটা উপজেলা,বাংলাদেশ,বরিশাল বিভাগ,local_admin,boundaries,['place_of_worship_muslim'],[],Bangladesh,Barisal,Barguna,Patharghata,Kanthaltali,dbbddaadac58eb68c85f352d564a55fa
5179378290.0,893cd5d0553ffff,22.1705226,90.1753815,Itbaria Bazar,,"Itbaria Bazar, Barguna Sadar Subdistrict, Barguna District, Barishal Division, Bangladesh","ইটবারিয়া বাজার, বরগুনা সদর উপজেলা, বরগুনা জেলা, বরিশাল বিভাগ, বাংলাদেশ",বরগুনা সদর উপজেলা,বাংলাদেশ,বরিশাল বিভাগ,local_admin,boundaries,['supermarket'],[],Bangladesh,Barisal,Barguna,BargunaSadar,BurirChar,175dd8ac796c045cf32d514436b6add2
6119560206.0,893cd4a7393ffff,22.1039586,89.9529192,Khalek Haji Bari Jame Mosque,['logic_undp'],"Khalek Haji Bari Jame Mosque, Pathorghata Subdistrict, Barguna District, Barishal Division, Bangladesh","খালেক হাজী বারী জামে মসজিদ, পাথরঘাটা উপজেলা, বরগুনা জেলা, বরিশাল বিভাগ, বাংলাদেশ",পাথরঘাটা উপজেলা,বাংলাদেশ,বরিশাল বিভাগ,local_admin,boundaries,['place_of_worship_muslim'],[],Bangladesh,Barisal,Barguna,Patharghata,Kanthaltali,dbbddaadac58eb68c85f352d564a55fa
5179380862.0,893cd5d04c3ffff,22.1690087,90.1493827,কেওড়াবুনিয়া বাজার,,"Kewarabunia Bazar, Barguna Sadar Subdistrict, Barguna District, Barishal Division, Bangladesh","কেওড়াবুনিয়া বাজার, বরগুনা সদর উপজেলা, বরগুনা জেলা, বরিশাল বিভাগ, বাংলাদেশ",বরগুনা সদর উপজেলা,বাংলাদেশ,বরিশাল বিভাগ,local_admin,boundaries,['supermarket'],[],Bangladesh,Barisal,Barguna,BargunaSadar,Gaurichanna,faa1d2a8b1c10d483030acf0d7f3bd57
5179380863.0,893cd5d312fffff,22.1603071,90.1472697,সোনাখালী বাজার,,"Sonakhali Bazar, Barguna Sadar Subdistrict, Barguna District, Barishal Division, Bangladesh","সোনাখালী বাজার, বরগুনা সদর উপজেলা, বরগুনা জেলা, বরিশাল বিভাগ, বাংলাদেশ",বরগুনা সদর উপজেলা,বাংলাদেশ,বরিশাল বিভাগ,local_admin,boundaries,['supermarket'],[],Bangladesh,Barisal,Barguna,BargunaSadar,Paurashava,8955a1255859d5f783ab4ef6545219ed
5181151755.0,893cd5d31c3ffff,22.1630135,90.125385,মুসলিম পাড়া জামে মসজিদ,,"Muslim Para Jame Mosque, Barguna Sadar Subdistrict, Barguna District, Barishal Division, Bangladesh","মুসলিম পাড়া জামে মসজিদ, বরগুনা সদর উপজেলা, বরগুনা জেলা, বরিশাল বিভাগ, বাংলাদেশ",বরগুনা সদর উপজেলা,বাংলাদেশ,বরিশাল বিভাগ,local_admin,boundaries,['place_of_worship_muslim'],[],Bangladesh,Barisal,Barguna,BargunaSadar,Paurashava,8955a1255859d5f783ab4ef6545219ed
5181171589.0,893cd5d31c3ffff,22.164884,90.1251166,মন্দির,,"The temple, Barguna Sadar Subdistrict, Barguna District, Barishal Division, Bangladesh","মন্দির, বরগুনা সদর উপজেলা, বরগুনা জেলা, বরিশাল বিভাগ, বাংলাদেশ",বরগুনা সদর উপজেলা,বাংলাদেশ,বরিশাল বিভাগ,local_admin,boundaries,['place_of_worship'],[],Bangladesh,Barisal,Barguna,BargunaSadar,Paurashava,8955a1255859d5f783ab4ef6545219ed
5181174690.0,893cd5d3557ffff,22.1733986,90.1131896,খেজুরতলা বাস স্টপ,,"Khajuratala bus stop, Barguna Sadar Subdistrict, Barguna District, Barishal Division, Bangladesh","খেজুরতলা বাস স্টপ, বরগুনা সদর উপজেলা, বরগুনা জেলা, বরিশাল বিভাগ, বাংলাদেশ",বরগুনা সদর উপজেলা,বাংলাদেশ,বরিশাল বিভাগ,local_admin,boundaries,['bus_station'],[],Bangladesh,Barisal,Barguna,BargunaSadar,Gaurichanna,faa1d2a8b1c10d483030acf0d7f3bd57
5181182069.0,893cd5d30afffff,22.1622669,90.1194355,"Rabeyea,Buisiness Center",,"Rabeyea Buisiness Center, Barguna Sadar Subdistrict, Barguna District, Barishal Division, Bangladesh","রাবিয়া বিজনেস সেন্টার, বরগুনা সদর উপজেলা, বরগুনা জেলা, বরিশাল বিভাগ, বাংলাদেশ",বরগুনা সদর উপজেলা,বাংলাদেশ,বরিশাল বিভাগ,local_admin,boundaries,['trade'],[],Bangladesh,Barisal,Barguna,BargunaSadar,Paurashava,8955a1255859d5f783ab4ef6545219ed
6119560207.0,893cd4a7067ffff,22.1027235,89.9499956,Goni Howladar Bari Jame Mosque,"['logic_undp', 'Sidr, Aila']","Goni Howladar Bari Jame Mosque, Pathorghata Subdistrict, Barguna District, Barishal Division, Bangladesh","গনি হাওলাদার বারী জামে মসজিদ, পাথরঘাটা উপজেলা, বরগুনা জেলা, বরিশাল বিভাগ, বাংলাদেশ",পাথরঘাটা উপজেলা,বাংলাদেশ,বরিশাল বিভাগ,local_admin,boundaries,['place_of_worship_muslim'],[],Bangladesh,Barisal,Barguna,Patharghata,Kanthaltali,dbbddaadac58eb68c85f352d564a55fa
6119560208.0,893cd4a7067ffff,22.1011989,89.9481381,Radha Gobindo Mondir,"['logic_undp', 'Sidr']","Radha Gobindo Mondir, Pathorghata Subdistrict, Barguna District, Barishal Division, Bangladesh","রাধা গোবিন্দো মন্ডির, পাথরঘাটা উপজেলা, বরগুনা জেলা, বরিশাল বিভাগ, বাংলাদেশ",পাথরঘাটা উপজেলা,বাংলাদেশ,বরিশাল বিভাগ,local_admin,boundaries,['place_of_worship'],[],Bangladesh,Barisal,Barguna,Patharghata,Kanthaltali,dbbddaadac58eb68c85f352d564a55fa
6119560209.0,893cd4a706bffff,22.0993487,89.94616,Hori Das Bojru Basi Sarbojonin Radha Gobindo Mondir,"['logic_undp', 'Sidr']","Hori Das Bojru Basi Sarbojonin Radha Gobindo Mondir, Pathorghata Subdistrict, Barguna District, Barishal Division, Bangladesh","হরি দাস বোজরু বাসি সরবোজোনিন রাধা গোবিন্দো মন্ডির, পাথরঘাটা উপজেলা, বরগুনা জেলা, বরিশাল বিভাগ, বাংলাদেশ",পাথরঘাটা উপজেলা,বাংলাদেশ,বরিশাল বিভাগ,local_admin,boundaries,['place_of_worship'],[],Bangladesh,Barisal,Barguna,Patharghata,CharDuanti,5f6c39241c64fd48c97f97b1c5409a8b
6119560210.0,893cd4a706fffff,22.098541,89.9471632,Kali Bari Sarbojonin Radha Gobindo Tample,"['logic_undp', 'Sidr']","Kali Bari Sarbojonin Radha Gobindo Tample, Pathorghata Subdistrict, Barguna District, Barishal Division, Bangladesh","কালী বারী সরবোজোনিন রাধা গোবিন্দো টাম্পল, পাথরঘাটা উপজেলা, বরগুনা জেলা, বরিশাল বিভাগ, বাংলাদেশ",পাথরঘাটা উপজেলা,বাংলাদেশ,বরিশাল বিভাগ,local_admin,boundaries,['place_of_worship'],[],Bangladesh,Barisal,Barguna,Patharghata,CharDuanti,5f6c39241c64fd48c97f97b1c5409a8b
6119560211.0,893cd4a73c3ffff,22.0928399,89.9490809,Biswas Bari Jame Mosque,"['logic_undp', 'Sidr, Aila']","Biswas Bari Jame Mosque, Pathorghata Subdistrict, Barguna District, Barishal Division, Bangladesh","বিশ্বাস বারী জামে মসজিদ, পাথরঘাটা উপজেলা, বরগুনা জেলা, বরিশাল বিভাগ, বাংলাদেশ",পাথরঘাটা উপজেলা,বাংলাদেশ,বরিশাল বিভাগ,local_admin,boundaries,['place_of_worship_muslim'],[],Bangladesh,Barisal,Barguna,Patharghata,CharDuanti,5f6c39241c64fd48c97f97b1c5409a8b
6119560213.0,893cd4a731bffff,22.0911947,89.9572214,Ghorami Bari Jame Mosque,"['logic_undp', 'Sidr, Aila']","Ghorami Bari Jame Mosque, Pathorghata Subdistrict, Barguna District, Barishal Division, Bangladesh","ঘোরামি বারী জামে মসজিদ, পাথরঘাটা উপজেলা, বরগুনা জেলা, বরিশাল বিভাগ, বাংলাদেশ",পাথরঘাটা উপজেলা,বাংলাদেশ,বরিশাল বিভাগ,local_admin,boundaries,['place_of_worship_muslim'],[],Bangladesh,Barisal,Barguna,Patharghata,Kanthaltali,dbbddaadac58eb68c85f352d564a55fa
6119560215.0,893cd4a625bffff,22.1297861,89.9640235,,"['logic_undp', 'Sidor']","Pathorghata Subdistrict, Barguna District, Barishal Division, Bangladesh","পাথরঘাটা উপজেলা, বরগুনা জেলা, বরিশাল বিভাগ, বাংলাদেশ",পাথরঘাটা উপজেলা,বাংলাদেশ,বরিশাল বিভাগ,local_admin,boundaries,['place_of_worship_muslim'],[],Bangladesh,Barisal,Barguna,Patharghata,Kanthaltali,dbbddaadac58eb68c85f352d564a55fa
5185130925.0,893cd5d2653ffff,22.1947411,90.1154117,জোমাদ্দার বাড়ি বাস স্ট্যান্ড,,"Jomaddar's home bus stand, Barguna Sadar Subdistrict, Barguna District, Barishal Division, Bangladesh","জোমাদ্দার বাড়ি বাস স্ট্যান্ড, বরগুনা সদর উপজেলা, বরগুনা জেলা, বরিশাল বিভাগ, বাংলাদেশ",বরগুনা সদর উপজেলা,বাংলাদেশ,বরিশাল বিভাগ,local_admin,boundaries,['bus_station'],[],Bangladesh,Barisal,Barguna,BargunaSadar,Gaurichanna,faa1d2a8b1c10d483030acf0d7f3bd57
6119560216.0,893cd4a7187ffff,22.123798,89.9649838,,"['logic_undp', 'Sidor']","Pathorghata Subdistrict, Barguna District, Barishal Division, Bangladesh","পাথরঘাটা উপজেলা, বরগুনা জেলা, বরিশাল বিভাগ, বাংলাদেশ",পাথরঘাটা উপজেলা,বাংলাদেশ,বরিশাল বিভাগ,local_admin,boundaries,['place_of_worship_muslim'],[],Bangladesh,Barisal,Barguna,Patharghata,Kanthaltali,dbbddaadac58eb68c85f352d564a55fa
5185156620.0,893cf36992bffff,22.2138693,90.1137978,গৌরিচন্না বাস স্ট্যান্ড,,"Gaurichanna bus stand, Barguna Sadar Subdistrict, Barguna District, Barishal Division, Bangladesh","গৌরিচন্না বাস স্ট্যান্ড, বরগুনা সদর উপজেলা, বরগুনা জেলা, বরিশাল বিভাগ, বাংলাদেশ",বরগুনা সদর উপজেলা,বাংলাদেশ,বরিশাল বিভাগ,local_admin,boundaries,['bus_station'],[],Bangladesh,Barisal,Barguna,BargunaSadar,Gaurichanna,faa1d2a8b1c10d483030acf0d7f3bd57
5185156891.0,893cf36992bffff,22.2138222,90.1129912,গৌরিচন্না বাজার,,"Gaurichana Bazar, Barguna Sadar Subdistrict, Barguna District, Barishal Division, Bangladesh","গৌরিচন্না বাজার, বরগুনা সদর উপজেলা, বরগুনা জেলা, বরিশাল বিভাগ, বাংলাদেশ",বরগুনা সদর উপজেলা,বাংলাদেশ,বরিশাল বিভাগ,local_admin,boundaries,['supermarket'],[],Bangladesh,Barisal,Barguna,BargunaSadar,Gaurichanna,faa1d2a8b1c10d483030acf0d7f3bd57
6119560217.0,893cd4a718bffff,22.1193267,89.9599479,,['logic_undp'],"Pathorghata Subdistrict, Barguna District, Barishal Division, Bangladesh","পাথরঘাটা উপজেলা, বরগুনা জেলা, বরিশাল বিভাগ, বাংলাদেশ",পাথরঘাটা উপজেলা,বাংলাদেশ,বরিশাল বিভাগ,local_admin,boundaries,['place_of_worship_muslim'],[],Bangladesh,Barisal,Barguna,Patharghata,Kanthaltali,dbbddaadac58eb68c85f352d564a55fa
6119560218.0,893cd4a7113ffff,22.118339,89.9625684,North Kali Bari Jame Mosque,"['logic_undp', 'Sidr, Aila']","North Kali Bari Jame Mosque, Pathorghata Subdistrict, Barguna District, Barishal Division, Bangladesh","উত্তর কালী বারী জামে মসজিদ, পাথরঘাটা উপজেলা, বরগুনা জেলা, বরিশাল বিভাগ, বাংলাদেশ",পাথরঘাটা উপজেলা,বাংলাদেশ,বরিশাল বিভাগ,local_admin,boundaries,['place_of_worship_muslim'],[],Bangladesh,Barisal,Barguna,Patharghata,Kanthaltali,dbbddaadac58eb68c85f352d564a55fa
6119560219.0,893cd4a7117ffff,22.1190012,89.9649261,Nehlia Jame Mosque,"['logic_undp', 'Sidr']","Nehlia Jame Mosque, Pathorghata Subdistrict, Barguna District, Barishal Division, Bangladesh","নেহেলিয়া জামে মসজিদ, পাথরঘাটা উপজেলা, বরগুনা জেলা, বরিশাল বিভাগ, বাংলাদেশ",পাথরঘাটা উপজেলা,বাংলাদেশ,বরিশাল বিভাগ,local_admin,boundaries,['place_of_worship_muslim'],[],Bangladesh,Barisal,Barguna,Patharghata,Kanthaltali,dbbddaadac58eb68c85f352d564a55fa
5185195371.0,893cd5d24abffff,22.2280972,90.1329151,আফসার উদ্দীন খান পাঞ্জেগনা মসজিদ,,"Afsar Uddin Khan Panjagana Mosque, Barguna Sadar Subdistrict, Barguna District, Barishal Division, Bangladesh","আফসার উদ্দীন খান পাঞ্জেগনা মসজিদ, বরগুনা সদর উপজেলা, বরগুনা জেলা, বরিশাল বিভাগ, বাংলাদেশ",বরগুনা সদর উপজেলা,বাংলাদেশ,বরিশাল বিভাগ,local_admin,boundaries,['place_of_worship_muslim'],[],Bangladesh,Barisal,Barguna,BargunaSadar,Phuljhury,e018d69b88ef801eadd94188bbeea4d6
6119560220.0,893cd4a7147ffff,22.1083894,89.9645197,,"['logic_undp', 'Sidr']","Pathorghata Subdistrict, Barguna District, Barishal Division, Bangladesh","পাথরঘাটা উপজেলা, বরগুনা জেলা, বরিশাল বিভাগ, বাংলাদেশ",পাথরঘাটা উপজেলা,বাংলাদেশ,বরিশাল বিভাগ,local_admin,boundaries,['place_of_worship_muslim'],[],Bangladesh,Barisal,Barguna,Patharghata,Kanthaltali,dbbddaadac58eb68c85f352d564a55fa
5185200957.0,893cd5d24abffff,22.2283461,90.1326215,Aual Pharmacy and Animal Health Care,,"Aual Pharmacy and Animal Health Care, Barguna Sadar Subdistrict, Barguna District, Barishal Division, Bangladesh","এুয়াল ফার্মাসি এবং প্রাণী স্বাস্থ্যসেবা, বরগুনা সদর উপজেলা, বরগুনা জেলা, বরিশাল বিভাগ, বাংলাদেশ",বরগুনা সদর উপজেলা,বাংলাদেশ,বরিশাল বিভাগ,local_admin,boundaries,['pharmacy'],[],Bangladesh,Barisal,Barguna,BargunaSadar,Phuljhury,e018d69b88ef801eadd94188bbeea4d6
6119560221.0,893cd4a7173ffff,22.1117565,89.9666226,,"['logic_undp', 'Sidr']","Pathorghata Subdistrict, Barguna District, Barishal Division, Bangladesh","পাথরঘাটা উপজেলা, বরগুনা জেলা, বরিশাল বিভাগ, বাংলাদেশ",পাথরঘাটা উপজেলা,বাংলাদেশ,বরিশাল বিভাগ,local_admin,boundaries,['place_of_worship_muslim'],[],Bangladesh,Barisal,Barguna,Patharghata,Kanthaltali,dbbddaadac58eb68c85f352d564a55fa
5185204202.0,893cd5d24afffff,22.228074,90.1387542,বারঘর জামে মাসজিদ,,"Barghar Jame Masjid, Barguna Sadar Subdistrict, Barguna District, Barishal Division, Bangladesh","বারঘর জামে মাসজিদ, বরগুনা সদর উপজেলা, বরগুনা জেলা, বরিশাল বিভাগ, বাংলাদেশ",বরগুনা সদর উপজেলা,বাংলাদেশ,বরিশাল বিভাগ,local_admin,boundaries,['place_of_worship_muslim'],[],Bangladesh,Barisal,Barguna,BargunaSadar,Phuljhury,e018d69b88ef801eadd94188bbeea4d6
6119560222.0,893cd4a73b7ffff,22.1048482,89.9659359,Howladar Bari Jame Mosque,"['logic_undp', 'Sidr, Aila']","Howladar Bari Jame Mosque, Pathorghata Subdistrict, Barguna District, Barishal Division, Bangladesh","হাওলাদার বারী জামে মসজিদ, পাথরঘাটা উপজেলা, বরগুনা জেলা, বরিশাল বিভাগ, বাংলাদেশ",পাথরঘাটা উপজেলা,বাংলাদেশ,বরিশাল বিভাগ,local_admin,boundaries,['place_of_worship_muslim'],[],Bangladesh,Barisal,Barguna,Patharghata,Kanthaltali,dbbddaadac58eb68c85f352d564a55fa
6119560223.0,893cd4a73a3ffff,22.1003477,89.9650642,Mridha Bhari Jame Mosque,"['logic_undp', 'Sidr, Aila']","Mridha Bhari Jame Mosque, Pathorghata Subdistrict, Barguna District, Barishal Division, Bangladesh","মরিদা বারী জামে মসজিদ, পাথরঘাটা উপজেলা, বরগুনা জেলা, বরিশাল বিভাগ, বাংলাদেশ",পাথরঘাটা উপজেলা,বাংলাদেশ,বরিশাল বিভাগ,local_admin,boundaries,['place_of_worship_muslim'],[],Bangladesh,Barisal,Barguna,Patharghata,Kanthaltali,dbbddaadac58eb68c85f352d564a55fa
6119560224.0,893cd4a716fffff,22.1060783,89.973709,,"['logic_undp', 'Sidor']","Pathorghata Subdistrict, Barguna District, Barishal Division, Bangladesh","পাথরঘাটা উপজেলা, বরগুনা জেলা, বরিশাল বিভাগ, বাংলাদেশ",পাথরঘাটা উপজেলা,বাংলাদেশ,বরিশাল বিভাগ,local_admin,boundaries,['place_of_worship_muslim'],[],Bangladesh,Barisal,Barguna,Patharghata,Kanthaltali,dbbddaadac58eb68c85f352d564a55fa
6119560225.0,893cd4a7133ffff,22.1192981,89.9719682,,['logic_undp'],"Pathorghata Subdistrict, Barguna District, Barishal Division, Bangladesh","পাথরঘাটা উপজেলা, বরগুনা জেলা, বরিশাল বিভাগ, বাংলাদেশ",পাথরঘাটা উপজেলা,বাংলাদেশ,বরিশাল বিভাগ,local_admin,boundaries,['place_of_worship_muslim'],[],Bangladesh,Barisal,Barguna,Patharghata,Kanthaltali,dbbddaadac58eb68c85f352d564a55fa
6119560226.0,893cd4a44cbffff,22.118821,89.9798191,,"['logic_undp', 'Sidor.Aila.Mahsen']","Pathorghata Subdistrict, Barguna District, Barishal Division, Bangladesh","পাথরঘাটা উপজেলা, বরগুনা জেলা, বরিশাল বিভাগ, বাংলাদেশ",পাথরঘাটা উপজেলা,বাংলাদেশ,বরিশাল বিভাগ,local_admin,boundaries,['place_of_worship_muslim'],[],Bangladesh,Barisal,Barguna,Patharghata,Kanthaltali,dbbddaadac58eb68c85f352d564a55fa
6119560227.0,893cd4a7127ffff,22.1164058,89.9793416,,"['logic_undp', 'Sidor']","Pathorghata Subdistrict, Barguna District, Barishal Division, Bangladesh","পাথরঘাটা উপজেলা, বরগুনা জেলা, বরিশাল বিভাগ, বাংলাদেশ",পাথরঘাটা উপজেলা,বাংলাদেশ,বরিশাল বিভাগ,local_admin,boundaries,['place_of_worship_muslim'],[],Bangladesh,Barisal,Barguna,Patharghata,Kanthaltali,dbbddaadac58eb68c85f352d564a55fa
6119560228.0,893cd4a4443ffff,22.1135705,89.984175,,"['logic_undp', 'Sidor.Aila.Mahsen']","Pathorghata Subdistrict, Barguna District, Barishal Division, Bangladesh","পাথরঘাটা উপজেলা, বরগুনা জেলা, বরিশাল বিভাগ, বাংলাদেশ",পাথরঘাটা উপজেলা,বাংলাদেশ,বরিশাল বিভাগ,local_admin,boundaries,['place_of_worship_muslim'],[],Bangladesh,Barisal,Barguna,Patharghata,Kalmegha,9b9adc16fd5d9daa5ab8bb28ee251718
6119560229.0,893cd4a4413ffff,22.1242453,89.9859023,,['logic_undp'],"Pathorghata Subdistrict, Barguna District, Barishal Division, Bangladesh","পাথরঘাটা উপজেলা, বরগুনা জেলা, বরিশাল বিভাগ, বাংলাদেশ",পাথরঘাটা উপজেলা,বাংলাদেশ,বরিশাল বিভাগ,local_admin,boundaries,['place_of_worship_muslim'],[],Bangladesh,Barisal,Barguna,Patharghata,Kalmegha,9b9adc16fd5d9daa5ab8bb28ee251718
6119560230.0,893cd4a442bffff,22.1179066,89.999662,Mandir,"['logic_undp', 'Sidr']","Mandir, Pathorghata Subdistrict, Barguna District, Barishal Division, Bangladesh","মন্দির, পাথরঘাটা উপজেলা, বরগুনা জেলা, বরিশাল বিভাগ, বাংলাদেশ",পাথরঘাটা উপজেলা,বাংলাদেশ,বরিশাল বিভাগ,local_admin,boundaries,['place_of_worship'],[],Bangladesh,Barisal,Barguna,Patharghata,Kalmegha,9b9adc16fd5d9daa5ab8bb28ee251718
6119560231.0,893cd4a7487ffff,22.1325937,89.9215803,Temple,['logic_undp'],"Temple, Pathorghata Subdistrict, Barguna District, Barishal Division, Bangladesh","মন্দির, পাথরঘাটা উপজেলা, বরগুনা জেলা, বরিশাল বিভাগ, বাংলাদেশ",পাথরঘাটা উপজেলা,বাংলাদেশ,বরিশাল বিভাগ,local_admin,boundaries,['place_of_worship'],[],Bangladesh,Barisal,Barguna,Patharghata,Kanthaltali,dbbddaadac58eb68c85f352d564a55fa
6119560232.0,893cd4a74afffff,22.1301637,89.9295196,New Mosque,['logic_undp'],"New Mosque, Pathorghata Subdistrict, Barguna District, Barishal Division, Bangladesh","নতুন মসজিদ, পাথরঘাটা উপজেলা, বরগুনা জেলা, বরিশাল বিভাগ, বাংলাদেশ",পাথরঘাটা উপজেলা,বাংলাদেশ,বরিশাল বিভাগ,local_admin,boundaries,['place_of_worship_muslim'],[],Bangladesh,Barisal,Barguna,Patharghata,Kanthaltali,dbbddaadac58eb68c85f352d564a55fa
6119560233.0,893cd4a74a7ffff,22.1343217,89.932061,Dofadar Bari Jame Mosque,"['logic_undp', 'Sidr']","Dofadar Bari Jame Mosque, Pathorghata Subdistrict, Barguna District, Barishal Division, Bangladesh","দোফদার বারী জামে মসজিদ, পাথরঘাটা উপজেলা, বরগুনা জেলা, বরিশাল বিভাগ, বাংলাদেশ",পাথরঘাটা উপজেলা,বাংলাদেশ,বরিশাল বিভাগ,local_admin,boundaries,['place_of_worship_muslim'],[],Bangladesh,Barisal,Barguna,Patharghata,Kanthaltali,dbbddaadac58eb68c85f352d564a55fa
6119560234.0,893cd4b5b47ffff,22.1407788,89.9292997,,['logic_undp'],"Pathorghata Subdistrict, Barguna District, Barishal Division, Bangladesh","পাথরঘাটা উপজেলা, বরগুনা জেলা, বরিশাল বিভাগ, বাংলাদেশ",পাথরঘাটা উপজেলা,বাংলাদেশ,বরিশাল বিভাগ,local_admin,boundaries,['place_of_worship_muslim'],[],Bangladesh,Barisal,Barguna,Patharghata,Kanthaltali,dbbddaadac58eb68c85f352d564a55fa
6119560235.0,893cd4b5a3bffff,22.1383863,89.9131729,,"['logic_undp', 'Sidr']","Pathorghata Subdistrict, Barguna District, Barishal Division, Bangladesh","পাথরঘাটা উপজেলা, বরগুনা জেলা, বরিশাল বিভাগ, বাংলাদেশ",পাথরঘাটা উপজেলা,বাংলাদেশ,বরিশাল বিভাগ,local_admin,boundaries,['place_of_worship_muslim'],[],Bangladesh,Barisal,Barguna,Patharghata,Kanthaltali,dbbddaadac58eb68c85f352d564a55fa
6119560236.0,893cd4b5b63ffff,22.1400372,89.933728,West Taluker Char Duyani Radha Gobindo Mondir,"['logic_undp', 'Sidr']","West Taluker Char Duyani Radha Gobindo Mondir, Pathorghata Subdistrict, Barguna District, Barishal Division, Bangladesh","পশ্চিম তালুক চর দুয়ানি রাধা গোবিন্দ মন্ডির, পাথরঘাটা উপজেলা, বরগুনা জেলা, বরিশাল বিভাগ, বাংলাদেশ",পাথরঘাটা উপজেলা,বাংলাদেশ,বরিশাল বিভাগ,local_admin,boundaries,['place_of_worship'],[],Bangladesh,Barisal,Barguna,Patharghata,Kanthaltali,dbbddaadac58eb68c85f352d564a55fa
6119560237.0,893cd4a7597ffff,22.1430446,89.9439338,Astain Bari Jame Mosque,"['logic_undp', 'Sidr, Aila']","Astain Bari Jame Mosque, Pathorghata Subdistrict, Barguna District, Barishal Division, Bangladesh","অ্যাস্টেন বারী জামে মসজিদ, পাথরঘাটা উপজেলা, বরগুনা জেলা, বরিশাল বিভাগ, বাংলাদেশ",পাথরঘাটা উপজেলা,বাংলাদেশ,বরিশাল বিভাগ,local_admin,boundaries,['place_of_worship_muslim'],[],Bangladesh,Barisal,Barguna,Patharghata,Kanthaltali,dbbddaadac58eb68c85f352d564a55fa
6119560238.0,893cd4a66dbffff,22.1535892,89.9423701,,"['logic_undp', 'Sidor']","Pathorghata Subdistrict, Barguna District, Barishal Division, Bangladesh","পাথরঘাটা উপজেলা, বরগুনা জেলা, বরিশাল বিভাগ, বাংলাদেশ",পাথরঘাটা উপজেলা,বাংলাদেশ,বরিশাল বিভাগ,local_admin,boundaries,['place_of_worship_muslim'],[],Bangladesh,Barisal,Barguna,Patharghata,Kanthaltali,dbbddaadac58eb68c85f352d564a55fa
6119560239.0,893cd4b5b3bffff,22.1456991,89.9348974,Mosque And Madrasa,"['logic_undp', 'Sidr']","Mosque And Madrasa, Pathorghata Subdistrict, Barguna District, Barishal Division, Bangladesh","মসজিদ এবং মাদ্রাসা, পাথরঘাটা উপজেলা, বরগুনা জেলা, বরিশাল বিভাগ, বাংলাদেশ",পাথরঘাটা উপজেলা,বাংলাদেশ,বরিশাল বিভাগ,local_admin,boundaries,['place_of_worship_muslim'],[],Bangladesh,Barisal,Barguna,Patharghata,Kanthaltali,dbbddaadac58eb68c85f352d564a55fa
6119560240.0,893cd4b5b03ffff,22.1455277,89.9298643,Masque,"['logic_undp', 'Sidor']","Masque, Pathorghata Subdistrict, Barguna District, Barishal Division, Bangladesh","মাস্ক, পাথরঘাটা উপজেলা, বরগুনা জেলা, বরিশাল বিভাগ, বাংলাদেশ",পাথরঘাটা উপজেলা,বাংলাদেশ,বরিশাল বিভাগ,local_admin,boundaries,['place_of_worship_muslim'],[],Bangladesh,Barisal,Barguna,Patharghata,Kanthaltali,dbbddaadac58eb68c85f352d564a55fa
6119560241.0,893cd4b5b03ffff,22.1477301,89.9281543,,['logic_undp'],"Pathorghata Subdistrict, Barguna District, Barishal Division, Bangladesh","পাথরঘাটা উপজেলা, বরগুনা জেলা, বরিশাল বিভাগ, বাংলাদেশ",পাথরঘাটা উপজেলা,বাংলাদেশ,বরিশাল বিভাগ,local_admin,boundaries,['place_of_worship_muslim'],[],Bangladesh,Barisal,Barguna,Patharghata,Kanthaltali,dbbddaadac58eb68c85f352d564a55fa
6119560242.0,893cd4b5b13ffff,22.149089,89.9263801,Madrasa And Mosque,"['logic_undp', 'Aila']","Madrasa And Mosque, Pathorghata Subdistrict, Barguna District, Barishal Division, Bangladesh","মাদ্রাসা এবং মসজিদ, পাথরঘাটা উপজেলা, বরগুনা জেলা, বরিশাল বিভাগ, বাংলাদেশ",পাথরঘাটা উপজেলা,বাংলাদেশ,বরিশাল বিভাগ,local_admin,boundaries,['place_of_worship_muslim'],[],Bangladesh,Barisal,Barguna,Patharghata,Kanthaltali,dbbddaadac58eb68c85f352d564a55fa
6119560243.0,893cd4b587bffff,22.1534066,89.91359,Temple,['logic_undp'],"Temple, Pathorghata Subdistrict, Barguna District, Barishal Division, Bangladesh","মন্দির, পাথরঘাটা উপজেলা, বরগুনা জেলা, বরিশাল বিভাগ, বাংলাদেশ",পাথরঘাটা উপজেলা,বাংলাদেশ,বরিশাল বিভাগ,local_admin,boundaries,['place_of_worship'],[],Bangladesh,Barisal,Barguna,Patharghata,Kanthaltali,dbbddaadac58eb68c85f352d564a55fa
6119560244.0,893cd4b5867ffff,22.1553753,89.9182087,Temple,"['logic_undp', 'Sidr']","Temple, Pathorghata Subdistrict, Barguna District, Barishal Division, Bangladesh","মন্দির, পাথরঘাটা উপজেলা, বরগুনা জেলা, বরিশাল বিভাগ, বাংলাদেশ",পাথরঘাটা উপজেলা,বাংলাদেশ,বরিশাল বিভাগ,local_admin,boundaries,['place_of_worship'],[],Bangladesh,Barisal,Barguna,Patharghata,Kanthaltali,dbbddaadac58eb68c85f352d564a55fa
6119560245.0,893cd4b5b93ffff,22.156215,89.9235141,Temple,"['logic_undp', 'Sidr']","Temple, Pathorghata Subdistrict, Barguna District, Barishal Division, Bangladesh","মন্দির, পাথরঘাটা উপজেলা, বরগুনা জেলা, বরিশাল বিভাগ, বাংলাদেশ",পাথরঘাটা উপজেলা,বাংলাদেশ,বরিশাল বিভাগ,local_admin,boundaries,['place_of_worship'],[],Bangladesh,Barisal,Barguna,Patharghata,Kanthaltali,dbbddaadac58eb68c85f352d564a55fa
6119560246.0,893cd4b594bffff,22.1573651,89.929297,,"['logic_undp', 'Sidor']","Pathorghata Subdistrict, Barguna District, Barishal Division, Bangladesh","পাথরঘাটা উপজেলা, বরগুনা জেলা, বরিশাল বিভাগ, বাংলাদেশ",পাথরঘাটা উপজেলা,বাংলাদেশ,বরিশাল বিভাগ,local_admin,boundaries,['place_of_worship_muslim'],[],Bangladesh,Barisal,Barguna,Patharghata,Kanthaltali,dbbddaadac58eb68c85f352d564a55fa
6119560247.0,893cd4b594bffff,22.1579538,89.930394,Temple,['logic_undp'],"Temple, Pathorghata Subdistrict, Barguna District, Barishal Division, Bangladesh","মন্দির, পাথরঘাটা উপজেলা, বরগুনা জেলা, বরিশাল বিভাগ, বাংলাদেশ",পাথরঘাটা উপজেলা,বাংলাদেশ,বরিশাল বিভাগ,local_admin,boundaries,['place_of_worship'],[],Bangladesh,Barisal,Barguna,Patharghata,Kanthaltali,dbbddaadac58eb68c85f352d564a55fa
6119560248.0,893cd4b594bffff,22.15895,89.9312442,Temple,['logic_undp'],"Temple, Pathorghata Subdistrict, Barguna District, Barishal Division, Bangladesh","মন্দির, পাথরঘাটা উপজেলা, বরগুনা জেলা, বরিশাল বিভাগ, বাংলাদেশ",পাথরঘাটা উপজেলা,বাংলাদেশ,বরিশাল বিভাগ,local_admin,boundaries,['place_of_worship'],[],Bangladesh,Barisal,Barguna,Patharghata,Kanthaltali,dbbddaadac58eb68c85f352d564a55fa
6119560249.0,893cd4b5973ffff,22.1635977,89.9372202,,"['logic_undp', 'Sidr']","Pathorghata Subdistrict, Barguna District, Barishal Division, Bangladesh","পাথরঘাটা উপজেলা, বরগুনা জেলা, বরিশাল বিভাগ, বাংলাদেশ",পাথরঘাটা উপজেলা,বাংলাদেশ,বরিশাল বিভাগ,local_admin,boundaries,['place_of_worship_muslim'],[],Bangladesh,Barisal,Barguna,Patharghata,NachnaPara,fc339ea90960720e38ed187e310c8eb2
6119560250.0,893cd4a668bffff,22.1586121,89.9471444,Temple,['logic_undp'],"Temple, Pathorghata Subdistrict, Barguna District, Barishal Division, Bangladesh","মন্দির, পাথরঘাটা উপজেলা, বরগুনা জেলা, বরিশাল বিভাগ, বাংলাদেশ",পাথরঘাটা উপজেলা,বাংলাদেশ,বরিশাল বিভাগ,local_admin,boundaries,['place_of_worship'],[],Bangladesh,Barisal,Barguna,Patharghata,NachnaPara,fc339ea90960720e38ed187e310c8eb2
6119560251.0,893cd4a6683ffff,22.161285,89.9480027,,"['logic_undp', 'Sidor']","Pathorghata Subdistrict, Barguna District, Barishal Division, Bangladesh","পাথরঘাটা উপজেলা, বরগুনা জেলা, বরিশাল বিভাগ, বাংলাদেশ",পাথরঘাটা উপজেলা,বাংলাদেশ,বরিশাল বিভাগ,local_admin,boundaries,['place_of_worship_muslim'],[],Bangladesh,Barisal,Barguna,Patharghata,Kanthaltali,dbbddaadac58eb68c85f352d564a55fa
6119560251.0,893cd4a6683ffff,22.161285,89.9480027,,"['logic_undp', 'Sidor']","Pathorghata Subdistrict, Barguna District, Barishal Division, Bangladesh","পাথরঘাটা উপজেলা, বরগুনা জেলা, বরিশাল বিভাগ, বাংলাদেশ",পাথরঘাটা উপজেলা,বাংলাদেশ,বরিশাল বিভাগ,local_admin,boundaries,['place_of_worship_muslim'],[],Bangladesh,Barisal,Barguna,Patharghata,NachnaPara,fc339ea90960720e38ed187e310c8eb2
6119560252.0,893cd4a66a7ffff,22.1631754,89.9631223,,['logic_undp'],"Pathorghata Subdistrict, Barguna District, Barishal Division, Bangladesh","পাথরঘাটা উপজেলা, বরগুনা জেলা, বরিশাল বিভাগ, বাংলাদেশ",পাথরঘাটা উপজেলা,বাংলাদেশ,বরিশাল বিভাগ,local_admin,boundaries,['place_of_worship_muslim'],[],Bangladesh,Barisal,Barguna,Patharghata,NachnaPara,fc339ea90960720e38ed187e310c8eb2
6123392250.0,893cd4a755bffff,22.1224935,89.9374697,Taluker Char Duyani Gps Cum Cyclone Center,"['logic_undp', 'Sidr']","Taluker Char Duyani Gps Cum Cyclone Center, Pathorghata Subdistrict, Barguna District, Barishal Division, Bangladesh","তালুকার চর ডুয়ানি জিপিএস কাম ঘূর্ণিঝড় কেন্দ্র, পাথরঘাটা উপজেলা, বরগুনা জেলা, বরিশাল বিভাগ, বাংলাদেশ",পাথরঘাটা উপজেলা,বাংলাদেশ,বরিশাল বিভাগ,local_admin,boundaries,['social_facility'],[],Bangladesh,Barisal,Barguna,Patharghata,Kanthaltali,dbbddaadac58eb68c85f352d564a55fa
6123392256.0,893cd4a702fffff,22.1067605,89.9542898,Imamgonj Post Office,['logic_undp'],"Imamgonj Post Office, Pathorghata Subdistrict, Barguna District, Barishal Division, Bangladesh","ইমামগনজ পোস্ট অফিস, পাথরঘাটা উপজেলা, বরগুনা জেলা, বরিশাল বিভাগ, বাংলাদেশ",পাথরঘাটা উপজেলা,বাংলাদেশ,বরিশাল বিভাগ,local_admin,boundaries,['post_office'],[],Bangladesh,Barisal,Barguna,Patharghata,Kanthaltali,dbbddaadac58eb68c85f352d564a55fa
6123392258.0,893cd4a7577ffff,22.1272045,89.9538325,Bujrugpur Post Office,"['logic_undp', 'Sidr']","Bujrugpur Post Office, Pathorghata Subdistrict, Barguna District, Barishal Division, Bangladesh","বুজরুগপুর ডাকঘর, পাথরঘাটা উপজেলা, বরগুনা জেলা, বরিশাল বিভাগ, বাংলাদেশ",পাথরঘাটা উপজেলা,বাংলাদেশ,বরিশাল বিভাগ,local_admin,boundaries,['post_office'],[],Bangladesh,Barisal,Barguna,Patharghata,Kanthaltali,dbbddaadac58eb68c85f352d564a55fa
6123392260.0,893cd4a718bffff,22.1209853,89.9593082,Kathal Toli Union Parisad,['logic_undp'],"Kathal Toli Union Parisad, Pathorghata Subdistrict, Barguna District, Barishal Division, Bangladesh","কাঠাল টলি ইউনিয়ন প্যারিসাদ, পাথরঘাটা উপজেলা, বরগুনা জেলা, বরিশাল বিভাগ, বাংলাদেশ",পাথরঘাটা উপজেলা,বাংলাদেশ,বরিশাল বিভাগ,local_admin,boundaries,['government'],[],Bangladesh,Barisal,Barguna,Patharghata,Kanthaltali,dbbddaadac58eb68c85f352d564a55fa
6123392267.0,893cd4a7393ffff,22.1036355,89.9540792,Songram Ngo,['logic_undp'],"Songram Ngo, Pathorghata Subdistrict, Barguna District, Barishal Division, Bangladesh","সানেরাম এনজিও, পাথরঘাটা উপজেলা, বরগুনা জেলা, বরিশাল বিভাগ, বাংলাদেশ",পাথরঘাটা উপজেলা,বাংলাদেশ,বরিশাল বিভাগ,local_admin,boundaries,['ngo'],[],Bangladesh,Barisal,Barguna,Patharghata,Kanthaltali,dbbddaadac58eb68c85f352d564a55fa
6123392272.0,893cd4a7393ffff,22.1016102,89.9530479,Maloti Shundori Gps Cum Cyclone Center,['logic_undp'],"Maloti Shundori Gps Cum Cyclone Center, Pathorghata Subdistrict, Barguna District, Barishal Division, Bangladesh","মালোটি শুন্ডোরি জিপিএস কাম ঘূর্ণিঝড় কেন্দ্র, পাথরঘাটা উপজেলা, বরগুনা জেলা, বরিশাল বিভাগ, বাংলাদেশ",পাথরঘাটা উপজেলা,বাংলাদেশ,বরিশাল বিভাগ,local_admin,boundaries,['social_facility'],[],Bangladesh,Barisal,Barguna,Patharghata,Kanthaltali,dbbddaadac58eb68c85f352d564a55fa
6123392275.0,893cd4a731bffff,22.0913264,89.9568258,Hashem Choukidar Bari Psf,['logic_undp'],"Hashem Choukidar Bari Psf, Pathorghata Subdistrict, Barguna District, Barishal Division, Bangladesh","হাশেম চৌকিদার বারী পিএসএফ, পাথরঘাটা উপজেলা, বরগুনা জেলা, বরিশাল বিভাগ, বাংলাদেশ",পাথরঘাটা উপজেলা,বাংলাদেশ,বরিশাল বিভাগ,local_admin,boundaries,['administrative'],[],Bangladesh,Barisal,Barguna,Patharghata,Kanthaltali,dbbddaadac58eb68c85f352d564a55fa
6123392276.0,893cd4a74a3ffff,22.1330123,89.9283676,S.D.F Office,['logic_undp'],"S.D.F Office, Pathorghata Subdistrict, Barguna District, Barishal Division, Bangladesh","এসডি.এফ অফিস, পাথরঘাটা উপজেলা, বরগুনা জেলা, বরিশাল বিভাগ, বাংলাদেশ",পাথরঘাটা উপজেলা,বাংলাদেশ,বরিশাল বিভাগ,local_admin,boundaries,['government'],[],Bangladesh,Barisal,Barguna,Patharghata,Kanthaltali,dbbddaadac58eb68c85f352d564a55fa
6123392277.0,893cd4b5b6bffff,22.1363751,89.9311477,West Taluker Char Duyani Post Office,['logic_undp'],"West Taluker Char Duyani Post Office, Pathorghata Subdistrict, Barguna District, Barishal Division, Bangladesh","পশ্চিম তালুকার চর দুয়ানি ডাকঘর, পাথরঘাটা উপজেলা, বরগুনা জেলা, বরিশাল বিভাগ, বাংলাদেশ",পাথরঘাটা উপজেলা,বাংলাদেশ,বরিশাল বিভাগ,local_admin,boundaries,['post_office'],[],Bangladesh,Barisal,Barguna,Patharghata,Kanthaltali,dbbddaadac58eb68c85f352d564a55fa
6123392280.0,893cd4b5b1bffff,22.145247,89.9271539,S.D.F Office,['logic_undp'],"S.D.F Office, Pathorghata Subdistrict, Barguna District, Barishal Division, Bangladesh","এসডি.এফ অফিস, পাথরঘাটা উপজেলা, বরগুনা জেলা, বরিশাল বিভাগ, বাংলাদেশ",পাথরঘাটা উপজেলা,বাংলাদেশ,বরিশাল বিভাগ,local_admin,boundaries,['government'],[],Bangladesh,Barisal,Barguna,Patharghata,Kanthaltali,dbbddaadac58eb68c85f352d564a55fa
6123392282.0,893cd4b5b03ffff,22.1462854,89.9282254,Clinic,['logic_undp'],"Clinic, Pathorghata Subdistrict, Barguna District, Barishal Division, Bangladesh","ক্লিনিক, পাথরঘাটা উপজেলা, বরগুনা জেলা, বরিশাল বিভাগ, বাংলাদেশ",পাথরঘাটা উপজেলা,বাংলাদেশ,বরিশাল বিভাগ,local_admin,boundaries,['clinic'],[],Bangladesh,Barisal,Barguna,Patharghata,Kanthaltali,dbbddaadac58eb68c85f352d564a55fa
6123392283.0,893cd4b5b03ffff,22.1464966,89.9286546,Cyclone Shelter,['logic_undp'],"Cyclone Shelter, Pathorghata Subdistrict, Barguna District, Barishal Division, Bangladesh","ঘূর্ণিঝড় আশ্রয় কেন্দ্র, পাথরঘাটা উপজেলা, বরগুনা জেলা, বরিশাল বিভাগ, বাংলাদেশ",পাথরঘাটা উপজেলা,বাংলাদেশ,বরিশাল বিভাগ,local_admin,boundaries,['social_facility'],[],Bangladesh,Barisal,Barguna,Patharghata,Kanthaltali,dbbddaadac58eb68c85f352d564a55fa
6123392486.0,893cd4b594bffff,22.1575042,89.9301901,Public Health Centre,"['logic_undp', 'Sidr']","Public Health Centre, Pathorghata Subdistrict, Barguna District, Barishal Division, Bangladesh","জনস্বাস্থ্য কেন্দ্র, পাথরঘাটা উপজেলা, বরগুনা জেলা, বরিশাল বিভাগ, বাংলাদেশ",পাথরঘাটা উপজেলা,বাংলাদেশ,বরিশাল বিভাগ,local_admin,boundaries,['clinic'],[],Bangladesh,Barisal,Barguna,Patharghata,Kanthaltali,dbbddaadac58eb68c85f352d564a55fa
6123392487.0,893cd4b594fffff,22.1580954,89.9330172,S.D.F Office,['logic_undp'],"S.D.F Office, Pathorghata Subdistrict, Barguna District, Barishal Division, Bangladesh","এসডি.এফ অফিস, পাথরঘাটা উপজেলা, বরগুনা জেলা, বরিশাল বিভাগ, বাংলাদেশ",পাথরঘাটা উপজেলা,বাংলাদেশ,বরিশাল বিভাগ,local_admin,boundaries,['administrative'],[],Bangladesh,Barisal,Barguna,Patharghata,NachnaPara,fc339ea90960720e38ed187e310c8eb2
6124027413.0,893cd4a742bffff,22.121686,89.9305415,Bus Stand,['logic_undp'],"Bus Stand, Pathorghata Subdistrict, Barguna District, Barishal Division, Bangladesh","বাস স্ট্যান্ড, পাথরঘাটা উপজেলা, বরগুনা জেলা, বরিশাল বিভাগ, বাংলাদেশ",পাথরঘাটা উপজেলা,বাংলাদেশ,বরিশাল বিভাগ,street,boundaries,['bus_stop'],[],Bangladesh,Barisal,Barguna,Patharghata,CharDuanti,5f6c39241c64fd48c97f97b1c5409a8b
