osm_id,h3level9,lat,lon,name,alt_names,name_en,name_bn,local_admin_name,admin0_name,admin2_name,addr_level,poi_addr_match,poi_class,poi_keywords,country,division,district,thana,union,region_hash
2343344187.0,893cd5863bbffff,22.496529,90.7192273,Burhanuddin Upazila Health Complex,,"Burhanuddin Upazila Health Complex, Borhanuddin Subdistrict, Bhola District, Barishal Division, Bangladesh","বুরহানউদ্দিন উপজিলা স্বাস্থ্য কমপ্লেক্স, বোরহানউদ্দিন উপজেলা, ভোলা জেলা, বরিশাল বিভাগ, বাংলাদেশ",বোরহানউদ্দিন উপজেলা,বাংলাদেশ,বরিশাল বিভাগ,local_admin,boundaries,['hospital'],[],Bangladesh,Barisal,Bhola,Burhanuddin,Paurashava,c856dd80fb21c36b57b60a00e59751ca
2343344188.0,893cd51714bffff,22.1841926,90.7635274,Charfasson Upazila Health Complex,,"Charfasson Upazila Health Complex, Charfasson Subdistrict, Bhola District, Barishal Division, Bangladesh","চারফাসন উপজিলা স্বাস্থ্য কমপ্লেক্স, চরফ্যাশন উপজেলা, ভোলা জেলা, বরিশাল বিভাগ, বাংলাদেশ",চরফ্যাশন উপজেলা,বাংলাদেশ,বরিশাল বিভাগ,local_admin,boundaries,['hospital'],[],Bangladesh,Barisal,Bhola,CharFasson,Jinnaghar,c328eaf6390daf41172208a6d1fa63d6
2343344194.0,893cd58e823ffff,22.3463171,90.734469,Lalmohan Upazila Health Complex,,"Lalmohan Upazila Health Complex, Laimohan Subdistrict, Bhola District, Barishal Division, Bangladesh","লালমোহান উপজিলা স্বাস্থ্য কমপ্লেক্স, লালমোহন উপজেলা, ভোলা জেলা, বরিশাল বিভাগ, বাংলাদেশ",লালমোহন উপজেলা,বাংলাদেশ,বরিশাল বিভাগ,local_admin,boundaries,['hospital'],[],Bangladesh,Barisal,Bhola,Lalmohan,Paurashava,d5a0c7fc5c7cb367fdf961665d266adc
2682106390.0,893cc64868fffff,22.6057511,90.7469055,Daulatkhan Police Station,,"Daulatkhan Police Station, Doulatkhan Subdistrict, Bhola District, Barishal Division, Bangladesh","দৌলাতখান থানা, দৌলতখান উপজেলা, ভোলা জেলা, বরিশাল বিভাগ, বাংলাদেশ",দৌলতখান উপজেলা,বাংলাদেশ,বরিশাল বিভাগ,local_admin,boundaries,['police'],[],Bangladesh,Barisal,Bhola,Daulatkhan,Paurashava,9a47094f62e89d06a529226462ae23d1
2682106391.0,893cc64868fffff,22.6046687,90.7463456,Daulatkhan Health Complex,,"Daulatkhan Health Complex, Doulatkhan Subdistrict, Bhola District, Barishal Division, Bangladesh","দৌলাতখান স্বাস্থ্য কমপ্লেক্স, দৌলতখান উপজেলা, ভোলা জেলা, বরিশাল বিভাগ, বাংলাদেশ",দৌলতখান উপজেলা,বাংলাদেশ,বরিশাল বিভাগ,local_admin,boundaries,['hospital'],[],Bangladesh,Barisal,Bhola,Daulatkhan,Paurashava,9a47094f62e89d06a529226462ae23d1
2682141471.0,893cc648613ffff,22.6025358,90.7476323,Beauty Cinema Hall,['Beauty Cinema Hall'],"Beauty Cinema Hall, Doulatkhan Subdistrict, Bhola District, Barishal Division, Bangladesh","বিউটি সিনেমা হল, দৌলতখান উপজেলা, ভোলা জেলা, বরিশাল বিভাগ, বাংলাদেশ",দৌলতখান উপজেলা,বাংলাদেশ,বরিশাল বিভাগ,local_admin,boundaries,['cinema'],[],Bangladesh,Barisal,Bhola,Daulatkhan,Paurashava,9a47094f62e89d06a529226462ae23d1
2682156030.0,893cc648617ffff,22.6031867,90.7516121,,,"Doulatkhan Subdistrict, Bhola District, Barishal Division, Bangladesh","দৌলতখান উপজেলা, ভোলা জেলা, বরিশাল বিভাগ, বাংলাদেশ",দৌলতখান উপজেলা,বাংলাদেশ,বরিশাল বিভাগ,local_admin,boundaries,['ferry_terminal'],[],Bangladesh,Barisal,Bhola,Daulatkhan,Bhabanipur,adff140551f93df6a490ee6dbec413e6
2682171723.0,893cc64860bffff,22.5983153,90.7496093,Upozila Complex,['Upozila Complex'],"Upozila Complex, Doulatkhan Subdistrict, Bhola District, Barishal Division, Bangladesh","উপজিলা কমপ্লেক্স, দৌলতখান উপজেলা, ভোলা জেলা, বরিশাল বিভাগ, বাংলাদেশ",দৌলতখান উপজেলা,বাংলাদেশ,বরিশাল বিভাগ,local_admin,boundaries,['government'],[],Bangladesh,Barisal,Bhola,Daulatkhan,Paurashava,9a47094f62e89d06a529226462ae23d1
2682172834.0,893cc64860bffff,22.5984275,90.7486255,Upozila Jame Mosjid,['Upozila Jame Mosjid'],"Upozila Jame Mosjid, Doulatkhan Subdistrict, Bhola District, Barishal Division, Bangladesh","উপজিলা জামে মোসজিড, দৌলতখান উপজেলা, ভোলা জেলা, বরিশাল বিভাগ, বাংলাদেশ",দৌলতখান উপজেলা,বাংলাদেশ,বরিশাল বিভাগ,local_admin,boundaries,['place_of_worship_muslim'],[],Bangladesh,Barisal,Bhola,Daulatkhan,Paurashava,9a47094f62e89d06a529226462ae23d1
2682297907.0,893cc64868bffff,22.604271,90.7460115,Bus Stand,,"Bus Stand, Doulatkhan Subdistrict, Bhola District, Barishal Division, Bangladesh","বাস স্ট্যান্ড, দৌলতখান উপজেলা, ভোলা জেলা, বরিশাল বিভাগ, বাংলাদেশ",দৌলতখান উপজেলা,বাংলাদেশ,বরিশাল বিভাগ,street,boundaries,['bus_stop'],[],Bangladesh,Barisal,Bhola,Daulatkhan,Paurashava,9a47094f62e89d06a529226462ae23d1
2682304363.0,893cc64868bffff,22.6050526,90.745773,Hospital Jame Mosjid,,"Hospital Jame Mosjid, Doulatkhan Subdistrict, Bhola District, Barishal Division, Bangladesh","হাসপাতালের জামে মোসজিড, দৌলতখান উপজেলা, ভোলা জেলা, বরিশাল বিভাগ, বাংলাদেশ",দৌলতখান উপজেলা,বাংলাদেশ,বরিশাল বিভাগ,local_admin,boundaries,['place_of_worship_muslim'],[],Bangladesh,Barisal,Bhola,Daulatkhan,Paurashava,9a47094f62e89d06a529226462ae23d1
2684704665.0,893cc648657ffff,22.5960884,90.7470588,Daulatkhan Powrosova,['Daulatkhan Powrosova'],"Daulatkhan Powrosova, Doulatkhan Subdistrict, Bhola District, Barishal Division, Bangladesh","দৌলতখান পৌরাশব, দৌলতখান উপজেলা, ভোলা জেলা, বরিশাল বিভাগ, বাংলাদেশ",দৌলতখান উপজেলা,বাংলাদেশ,বরিশাল বিভাগ,local_admin,boundaries,['government'],[],Bangladesh,Barisal,Bhola,Daulatkhan,Paurashava,9a47094f62e89d06a529226462ae23d1
2684707520.0,893cc64860bffff,22.5978845,90.7472723,Daulatkhan Town Hall,['Daulatkhan Town Hall'],"Daulatkhan Town Hall, Doulatkhan Subdistrict, Bhola District, Barishal Division, Bangladesh","দৌলাতখান টাউন হল, দৌলতখান উপজেলা, ভোলা জেলা, বরিশাল বিভাগ, বাংলাদেশ",দৌলতখান উপজেলা,বাংলাদেশ,বরিশাল বিভাগ,local_admin,boundaries,['town_hall'],[],Bangladesh,Barisal,Bhola,Daulatkhan,Paurashava,9a47094f62e89d06a529226462ae23d1
2684717545.0,893cc648647ffff,22.5959391,90.7472836,Daulatkhan Dak Banglo,['Daulatkhan Dak Banglo'],"Daulatkhan Dak Banglo, Doulatkhan Subdistrict, Bhola District, Barishal Division, Bangladesh","দৌলাতখান ডাক বাংলো, দৌলতখান উপজেলা, ভোলা জেলা, বরিশাল বিভাগ, বাংলাদেশ",দৌলতখান উপজেলা,বাংলাদেশ,বরিশাল বিভাগ,local_admin,boundaries,['guest_house'],[],Bangladesh,Barisal,Bhola,Daulatkhan,Paurashava,9a47094f62e89d06a529226462ae23d1
2684722790.0,893cc64860bffff,22.5966572,90.7476377,Shahid Abdul Hamid Kinder Garten,['Shahid Abdul Hamid Kinder Garten'],"Shahid Abdul Hamid Kinder Garten, Doulatkhan Subdistrict, Bhola District, Barishal Division, Bangladesh","শহীদ আবদুল হামিদ কিন্ডার গার্টেন, দৌলতখান উপজেলা, ভোলা জেলা, বরিশাল বিভাগ, বাংলাদেশ",দৌলতখান উপজেলা,বাংলাদেশ,বরিশাল বিভাগ,local_admin,boundaries,['school'],[],Bangladesh,Barisal,Bhola,Daulatkhan,Paurashava,9a47094f62e89d06a529226462ae23d1
2792080223.0,893cc64861bffff,22.6010166,90.7470458,Kholipa porti mosjid,,"Kholipa porti mosjid, Doulatkhan Subdistrict, Bhola District, Barishal Division, Bangladesh","খোলপা পোর্টি মোসজিড, দৌলতখান উপজেলা, ভোলা জেলা, বরিশাল বিভাগ, বাংলাদেশ",দৌলতখান উপজেলা,বাংলাদেশ,বরিশাল বিভাগ,local_admin,boundaries,['place_of_worship_muslim'],[],Bangladesh,Barisal,Bhola,Daulatkhan,Paurashava,9a47094f62e89d06a529226462ae23d1
2792081020.0,893cc648613ffff,22.6038851,90.7457894,Markaj Mosjid,,"Markaj Mosjid, Doulatkhan Subdistrict, Bhola District, Barishal Division, Bangladesh","মার্কাজ মোসজিড, দৌলতখান উপজেলা, ভোলা জেলা, বরিশাল বিভাগ, বাংলাদেশ",দৌলতখান উপজেলা,বাংলাদেশ,বরিশাল বিভাগ,local_admin,boundaries,['place_of_worship_muslim'],[],Bangladesh,Barisal,Bhola,Daulatkhan,Paurashava,9a47094f62e89d06a529226462ae23d1
5718235519.0,893cd586ecbffff,22.4933786,90.7319266,Bhola Polytechnic Institute,,"Bhola Polytechnic Institute, Borhanuddin Subdistrict, Bhola District, Barishal Division, Bangladesh","ভোলা পলিটেকনিক ইনস্টিটিউট, বোরহানউদ্দিন উপজেলা, ভোলা জেলা, বরিশাল বিভাগ, বাংলাদেশ",বোরহানউদ্দিন উপজেলা,বাংলাদেশ,বরিশাল বিভাগ,local_admin,boundaries,['college'],[],Bangladesh,Barisal,Bhola,Burhanuddin,Pakshia,4949717d86a368ab542cab89e390d581
5718269926.0,893cd5844b7ffff,22.476269,90.7171597,Sir Radha Govinda Mondir,,"Sir Radha Govinda Mondir, Borhanuddin Subdistrict, Bhola District, Barishal Division, Bangladesh","শ্রী রাধা গোবিন্দ মন্দির, বোরহানউদ্দিন উপজেলা, ভোলা জেলা, বরিশাল বিভাগ, বাংলাদেশ",বোরহানউদ্দিন উপজেলা,বাংলাদেশ,বরিশাল বিভাগ,local_admin,boundaries,['place_of_worship'],[],Bangladesh,Barisal,Bhola,Burhanuddin,Paurashava,c856dd80fb21c36b57b60a00e59751ca
5729781469.0,893cd58634bffff,22.4790851,90.7103414,,,"Borhanuddin Subdistrict, Bhola District, Barishal Division, Bangladesh","বোরহানউদ্দিন উপজেলা, ভোলা জেলা, বরিশাল বিভাগ, বাংলাদেশ",বোরহানউদ্দিন উপজেলা,বাংলাদেশ,বরিশাল বিভাগ,local_admin,boundaries,['transformer'],[],Bangladesh,Barisal,Bhola,Burhanuddin,Paurashava,c856dd80fb21c36b57b60a00e59751ca
5862512285.0,893cd510977ffff,22.1395984,90.7400183,,['My village home'],"Charfasson Subdistrict, Bhola District, Barishal Division, Bangladesh","চরফ্যাশন উপজেলা, ভোলা জেলা, বরিশাল বিভাগ, বাংলাদেশ",চরফ্যাশন উপজেলা,বাংলাদেশ,বরিশাল বিভাগ,local_admin,boundaries,['guest_house'],[],Bangladesh,Barisal,Bhola,CharFasson,Ewajpur,dfd7341836afc7183f81754ed722a64f
6018837956.0,893cd594933ffff,22.5665082,90.7009417,26 no. Dakkhin Joynagar Govt Primary School,['logic_undp'],"26 no. Dakkhin Joynagar Govt Primary School, Doulatkhan Subdistrict, Bhola District, Barishal Division, Bangladesh","26 না।ডাকখিন জয়নগর সরকারী প্রাথমিক বিদ্যালয়, দৌলতখান উপজেলা, ভোলা জেলা, বরিশাল বিভাগ, বাংলাদেশ",দৌলতখান উপজেলা,বাংলাদেশ,বরিশাল বিভাগ,local_admin,boundaries,['school'],[],Bangladesh,Barisal,Bhola,Daulatkhan,DakshinJoynagar,c79ccaea62f4c1da7018ec3eb288b439
6018837957.0,893cc6494dbffff,22.5694556,90.7067996,Mosjid & moktab at Altaf Hossen Pondit house,['logic_undp'],"Mosjid & moktab at Altaf Hossen Pondit house, Doulatkhan Subdistrict, Bhola District, Barishal Division, Bangladesh","আলতাফ হোসেন পন্ডিত হাউসে মোসজিদ এবং মকতাব, দৌলতখান উপজেলা, ভোলা জেলা, বরিশাল বিভাগ, বাংলাদেশ",দৌলতখান উপজেলা,বাংলাদেশ,বরিশাল বিভাগ,local_admin,boundaries,['educational_institution'],[],Bangladesh,Barisal,Bhola,Daulatkhan,DakshinJoynagar,c79ccaea62f4c1da7018ec3eb288b439
6018837958.0,893cd5949a7ffff,22.5725417,90.7050186,Dakkhin Joynagar Rohima Begum Islamia Dakhil Madrsha,"['logic_undp', 'Cyclone']","Dakkhin Joynagar Rohima Begum Islamia Dakhil Madrsha, Doulatkhan Subdistrict, Bhola District, Barishal Division, Bangladesh","ডাকখিন জয়নগর রহিমা বেগম ইসলামিয়া দাখিল মাদ্রাশা, দৌলতখান উপজেলা, ভোলা জেলা, বরিশাল বিভাগ, বাংলাদেশ",দৌলতখান উপজেলা,বাংলাদেশ,বরিশাল বিভাগ,local_admin,boundaries,['educational_institution'],[],Bangladesh,Barisal,Bhola,Daulatkhan,UttarJoynagar,d0618b045ea59193771007adce6f4070
6018837959.0,893cc6494dbffff,22.5722346,90.7049811,Uttor purbo Dakkhin Joynagar Govt. Primary School,['logic_undp'],"Uttor purbo Dakkhin Joynagar Govt. Primary School, Doulatkhan Subdistrict, Bhola District, Barishal Division, Bangladesh","ইউটার পার্বো ডাকখিন জয়নগর সরকার।প্রাথমিক বিদ্যালয়, দৌলতখান উপজেলা, ভোলা জেলা, বরিশাল বিভাগ, বাংলাদেশ",দৌলতখান উপজেলা,বাংলাদেশ,বরিশাল বিভাগ,local_admin,boundaries,['school'],[],Bangladesh,Barisal,Bhola,Daulatkhan,DakshinJoynagar,c79ccaea62f4c1da7018ec3eb288b439
6018837960.0,893cc64b22bffff,22.5836965,90.7104796,Daroga para govt primary school,['logic_undp'],"Daroga para govt primary school, Doulatkhan Subdistrict, Bhola District, Barishal Division, Bangladesh","দারোগা প্যারা সরকার প্রাথমিক বিদ্যালয়, দৌলতখান উপজেলা, ভোলা জেলা, বরিশাল বিভাগ, বাংলাদেশ",দৌলতখান উপজেলা,বাংলাদেশ,বরিশাল বিভাগ,local_admin,boundaries,['school'],[],Bangladesh,Barisal,Bhola,Daulatkhan,DakshinJoynagar,c79ccaea62f4c1da7018ec3eb288b439
6018837961.0,893cc6494bbffff,22.5775991,90.7190734,Howladar hat Forkania Madrassa,['logic_undp'],"Howladar hat Forkania Madrassa, Doulatkhan Subdistrict, Bhola District, Barishal Division, Bangladesh","হাওলাদার টুপি ফোরকানিয়া মাদ্রাসা, দৌলতখান উপজেলা, ভোলা জেলা, বরিশাল বিভাগ, বাংলাদেশ",দৌলতখান উপজেলা,বাংলাদেশ,বরিশাল বিভাগ,local_admin,boundaries,['educational_institution'],[],Bangladesh,Barisal,Bhola,Daulatkhan,CharKhalifa,671566de413f655a7136598c98845b4d
6018837962.0,893cc649413ffff,22.5745429,90.7173783,Forkania Madrassa at Goni Howladar house,['logic_undp'],"Forkania Madrassa at Goni Howladar house, Doulatkhan Subdistrict, Bhola District, Barishal Division, Bangladesh","গনি হাওলাডার হাউসে ফোরকানিয়া মাদ্রাসা, দৌলতখান উপজেলা, ভোলা জেলা, বরিশাল বিভাগ, বাংলাদেশ",দৌলতখান উপজেলা,বাংলাদেশ,বরিশাল বিভাগ,local_admin,boundaries,['educational_institution'],[],Bangladesh,Barisal,Bhola,Daulatkhan,DakshinJoynagar,c79ccaea62f4c1da7018ec3eb288b439
6018837963.0,893cc64941bffff,22.5700699,90.7172871,Jolilia dakhil madrasha,['logic_undp'],"Jolilia dakhil madrasha, Doulatkhan Subdistrict, Bhola District, Barishal Division, Bangladesh","জোলিলিয়া দাখিল মাদ্রাশা, দৌলতখান উপজেলা, ভোলা জেলা, বরিশাল বিভাগ, বাংলাদেশ",দৌলতখান উপজেলা,বাংলাদেশ,বরিশাল বিভাগ,local_admin,boundaries,['educational_institution'],[],Bangladesh,Barisal,Bhola,Daulatkhan,DakshinJoynagar,c79ccaea62f4c1da7018ec3eb288b439
6018837965.0,893cc649453ffff,22.5653392,90.7102114,Tazal member house Forkania Madrassa,['logic_undp'],"Tazal member house Forkania Madrassa, Doulatkhan Subdistrict, Bhola District, Barishal Division, Bangladesh","তাজল সদস্য হাউস ফোরকানিয়া মাদ্রাসা, দৌলতখান উপজেলা, ভোলা জেলা, বরিশাল বিভাগ, বাংলাদেশ",দৌলতখান উপজেলা,বাংলাদেশ,বরিশাল বিভাগ,local_admin,boundaries,['educational_institution'],[],Bangladesh,Barisal,Bhola,Daulatkhan,DakshinJoynagar,c79ccaea62f4c1da7018ec3eb288b439
6018837966.0,893cc649443ffff,22.5638481,90.7129097,Azhar Ali High School,['logic_undp'],"Azhar Ali High School, Doulatkhan Subdistrict, Bhola District, Barishal Division, Bangladesh","আজহার আলী উচ্চ বিদ্যালয়, দৌলতখান উপজেলা, ভোলা জেলা, বরিশাল বিভাগ, বাংলাদেশ",দৌলতখান উপজেলা,বাংলাদেশ,বরিশাল বিভাগ,local_admin,boundaries,['school'],[],Bangladesh,Barisal,Bhola,Daulatkhan,DakshinJoynagar,c79ccaea62f4c1da7018ec3eb288b439
6018837967.0,893cc649443ffff,22.5636499,90.7129151,Nur Miar Hat Govt. Primary School,['logic_undp'],"Nur Miar Hat Govt. Primary School, Doulatkhan Subdistrict, Bhola District, Barishal Division, Bangladesh","নার্স মিয়ার হাট সরকারপ্রাথমিক বিদ্যালয়, দৌলতখান উপজেলা, ভোলা জেলা, বরিশাল বিভাগ, বাংলাদেশ",দৌলতখান উপজেলা,বাংলাদেশ,বরিশাল বিভাগ,local_admin,boundaries,['school'],[],Bangladesh,Barisal,Bhola,Daulatkhan,DakshinJoynagar,c79ccaea62f4c1da7018ec3eb288b439
6018837968.0,893cc649693ffff,22.5591122,90.7060111,Tube well of Dakkhin Joynagar howladar para non govt primary school,['logic_undp'],"Tube well of Dakkhin Joynagar howladar para non govt primary school, Doulatkhan Subdistrict, Bhola District, Barishal Division, Bangladesh","ডকখিন জয়নগর হাওলাদার প্যারা নন সরকারী প্রাথমিক বিদ্যালয়ের টিউব ওয়েল, দৌলতখান উপজেলা, ভোলা জেলা, বরিশাল বিভাগ, বাংলাদেশ",দৌলতখান উপজেলা,বাংলাদেশ,বরিশাল বিভাগ,local_admin,boundaries,['school'],[],Bangladesh,Barisal,Bhola,Daulatkhan,DakshinJoynagar,c79ccaea62f4c1da7018ec3eb288b439
6018837969.0,893cc649693ffff,22.5585326,90.706526,Dakin joynagar howladar para non govt primary school,['logic_undp'],"Dakin joynagar howladar para non govt primary school, Doulatkhan Subdistrict, Bhola District, Barishal Division, Bangladesh","ডাকিন জয়নগর হাওলাদার প্যারা নন সরকারী প্রাথমিক বিদ্যালয়, দৌলতখান উপজেলা, ভোলা জেলা, বরিশাল বিভাগ, বাংলাদেশ",দৌলতখান উপজেলা,বাংলাদেশ,বরিশাল বিভাগ,local_admin,boundaries,['school'],[],Bangladesh,Barisal,Bhola,Daulatkhan,DakshinJoynagar,c79ccaea62f4c1da7018ec3eb288b439
6018837970.0,893cc649683ffff,22.5560556,90.7085806,Mohammodia Hafizia Madrassa,['logic_undp'],"Mohammodia Hafizia Madrassa, Doulatkhan Subdistrict, Bhola District, Barishal Division, Bangladesh","মোহাম্মোডিয়া হাফিজিয়া মাদ্রাসা, দৌলতখান উপজেলা, ভোলা জেলা, বরিশাল বিভাগ, বাংলাদেশ",দৌলতখান উপজেলা,বাংলাদেশ,বরিশাল বিভাগ,local_admin,boundaries,['educational_institution'],[],Bangladesh,Barisal,Bhola,Daulatkhan,DakshinJoynagar,c79ccaea62f4c1da7018ec3eb288b439
6018837971.0,893cc6496c7ffff,22.5517653,90.7056141,Senior Alim Madrsha at Ahmader hat,"['logic_undp', 'Cyclone']","Senior Alim Madrsha at Ahmader hat, Borhanuddin Subdistrict, Bhola District, Barishal Division, Bangladesh","আহমদার হাটে সিনিয়র আলিম মাদ্রাসাহ, বোরহানউদ্দিন উপজেলা, ভোলা জেলা, বরিশাল বিভাগ, বাংলাদেশ",বোরহানউদ্দিন উপজেলা,বাংলাদেশ,বরিশাল বিভাগ,local_admin,boundaries,['marketplace'],[],Bangladesh,Barisal,Bhola,Burhanuddin,BaraManika,023414d8ba246a574c8731f20caa94a5
6019713528.0,893cc649443ffff,22.564824,90.7118422,Nursury of Bashir Kholifa,['logic_undp'],"Nursury of Bashir Kholifa, Doulatkhan Subdistrict, Bhola District, Barishal Division, Bangladesh","বশির খলিফার নার্সারি, দৌলতখান উপজেলা, ভোলা জেলা, বরিশাল বিভাগ, বাংলাদেশ",দৌলতখান উপজেলা,বাংলাদেশ,বরিশাল বিভাগ,local_admin,boundaries,['social_facility'],[],Bangladesh,Barisal,Bhola,Daulatkhan,DakshinJoynagar,c79ccaea62f4c1da7018ec3eb288b439
6019713535.0,893cc6494bbffff,22.5777526,90.7192504,Howladar hat,"['logic_undp', 'Cyclone']","Howladar hat, Doulatkhan Subdistrict, Bhola District, Barishal Division, Bangladesh","হাওলাদার টুপি, দৌলতখান উপজেলা, ভোলা জেলা, বরিশাল বিভাগ, বাংলাদেশ",দৌলতখান উপজেলা,বাংলাদেশ,বরিশাল বিভাগ,local_admin,boundaries,['marketplace'],[],Bangladesh,Barisal,Bhola,Daulatkhan,CharKhalifa,671566de413f655a7136598c98845b4d
6019713536.0,893cc649413ffff,22.5727795,90.7172924,Market of Samsu Mia,['logic_undp'],"Market of Samsu Mia, Doulatkhan Subdistrict, Bhola District, Barishal Division, Bangladesh","স্যামসু মিয়া বাজার, দৌলতখান উপজেলা, ভোলা জেলা, বরিশাল বিভাগ, বাংলাদেশ",দৌলতখান উপজেলা,বাংলাদেশ,বরিশাল বিভাগ,local_admin,boundaries,['marketplace'],[],Bangladesh,Barisal,Bhola,Daulatkhan,DakshinJoynagar,c79ccaea62f4c1da7018ec3eb288b439
6019713550.0,893cc649443ffff,22.5644673,90.714857,Nur Miar hat bazar,['logic_undp'],"Nur Miar hat bazar, Doulatkhan Subdistrict, Bhola District, Barishal Division, Bangladesh","নুর মিয়ার টুপি বাজার, দৌলতখান উপজেলা, ভোলা জেলা, বরিশাল বিভাগ, বাংলাদেশ",দৌলতখান উপজেলা,বাংলাদেশ,বরিশাল বিভাগ,local_admin,boundaries,['marketplace'],[],Bangladesh,Barisal,Bhola,Daulatkhan,DakshinJoynagar,c79ccaea62f4c1da7018ec3eb288b439
6021533910.0,893cc64b23bffff,22.5871636,90.7060701,Jame Mosque of Gohar Ali Forazi house,['logic_undp'],"Jame Mosque of Gohar Ali Forazi house, Doulatkhan Subdistrict, Bhola District, Barishal Division, Bangladesh","গোহর আলী ফোরাজি হাউসের জামে মসজিদ, দৌলতখান উপজেলা, ভোলা জেলা, বরিশাল বিভাগ, বাংলাদেশ",দৌলতখান উপজেলা,বাংলাদেশ,বরিশাল বিভাগ,local_admin,boundaries,['place_of_worship_muslim'],[],Bangladesh,Barisal,Bhola,Daulatkhan,DakshinJoynagar,c79ccaea62f4c1da7018ec3eb288b439
6021533911.0,893cc64b207ffff,22.5866336,90.7048362,Jame Mosque of Rohimuddin howlader house,['logic_undp'],"Jame Mosque of Rohimuddin howlader house, Doulatkhan Subdistrict, Bhola District, Barishal Division, Bangladesh","রোহিমউদ্দিন হাওলেডার হাউসের জামে মসজিদ, দৌলতখান উপজেলা, ভোলা জেলা, বরিশাল বিভাগ, বাংলাদেশ",দৌলতখান উপজেলা,বাংলাদেশ,বরিশাল বিভাগ,local_admin,boundaries,['place_of_worship_muslim'],[],Bangladesh,Barisal,Bhola,Daulatkhan,DakshinJoynagar,c79ccaea62f4c1da7018ec3eb288b439
6021533912.0,893cc64b273ffff,22.5819777,90.703302,Mosque at Nobu Ullah Howlader house,['logic_undp'],"Mosque at Nobu Ullah Howlader house, Doulatkhan Subdistrict, Bhola District, Barishal Division, Bangladesh","নোবু ওল্লাহ হাওলাদার বাড়িতে মসজিদ, দৌলতখান উপজেলা, ভোলা জেলা, বরিশাল বিভাগ, বাংলাদেশ",দৌলতখান উপজেলা,বাংলাদেশ,বরিশাল বিভাগ,local_admin,boundaries,['place_of_worship_muslim'],[],Bangladesh,Barisal,Bhola,Daulatkhan,UttarJoynagar,d0618b045ea59193771007adce6f4070
6021533913.0,893cc64b263ffff,22.579516,90.7068211,Jame Mosque of Obaidul Munshi house,['logic_undp'],"Jame Mosque of Obaidul Munshi house, Doulatkhan Subdistrict, Bhola District, Barishal Division, Bangladesh","ওবায়দুল মুন্সি হাউসের জামে মসজিদ, দৌলতখান উপজেলা, ভোলা জেলা, বরিশাল বিভাগ, বাংলাদেশ",দৌলতখান উপজেলা,বাংলাদেশ,বরিশাল বিভাগ,local_admin,boundaries,['place_of_worship_muslim'],[],Bangladesh,Barisal,Bhola,Daulatkhan,DakshinJoynagar,c79ccaea62f4c1da7018ec3eb288b439
6021533914.0,893cc649487ffff,22.5803927,90.7168525,Jame Mosque of Ummad Ali Mal house,['logic_undp'],"Jame Mosque of Ummad Ali Mal house, Doulatkhan Subdistrict, Bhola District, Barishal Division, Bangladesh","উম্মাদ আলী মাল হাউসের জামে মসজিদ, দৌলতখান উপজেলা, ভোলা জেলা, বরিশাল বিভাগ, বাংলাদেশ",দৌলতখান উপজেলা,বাংলাদেশ,বরিশাল বিভাগ,local_admin,boundaries,['place_of_worship_muslim'],[],Bangladesh,Barisal,Bhola,Daulatkhan,CharKhalifa,671566de413f655a7136598c98845b4d
6021533916.0,893cc6494bbffff,22.5776486,90.7190734,Howladar hat Jame Mosque,['logic_undp'],"Howladar hat Jame Mosque, Doulatkhan Subdistrict, Bhola District, Barishal Division, Bangladesh","হাওলাদার টুপি জামে মসজিদ, দৌলতখান উপজেলা, ভোলা জেলা, বরিশাল বিভাগ, বাংলাদেশ",দৌলতখান উপজেলা,বাংলাদেশ,বরিশাল বিভাগ,local_admin,boundaries,['place_of_worship_muslim'],[],Bangladesh,Barisal,Bhola,Daulatkhan,CharKhalifa,671566de413f655a7136598c98845b4d
6021533921.0,893cc649417ffff,22.5748351,90.7181507,Jame Mosque of Goni Howladar house,['logic_undp'],"Jame Mosque of Goni Howladar house, Doulatkhan Subdistrict, Bhola District, Barishal Division, Bangladesh","গনি হাওলাদার বাড়ির জামে মসজিদ, দৌলতখান উপজেলা, ভোলা জেলা, বরিশাল বিভাগ, বাংলাদেশ",দৌলতখান উপজেলা,বাংলাদেশ,বরিশাল বিভাগ,local_admin,boundaries,['place_of_worship_muslim'],[],Bangladesh,Barisal,Bhola,Daulatkhan,CharKhalifa,671566de413f655a7136598c98845b4d
6021533921.0,893cc649417ffff,22.5748351,90.7181507,Jame Mosque of Goni Howladar house,['logic_undp'],"Jame Mosque of Goni Howladar house, Doulatkhan Subdistrict, Bhola District, Barishal Division, Bangladesh","গনি হাওলাদার বাড়ির জামে মসজিদ, দৌলতখান উপজেলা, ভোলা জেলা, বরিশাল বিভাগ, বাংলাদেশ",দৌলতখান উপজেলা,বাংলাদেশ,বরিশাল বিভাগ,local_admin,boundaries,['place_of_worship_muslim'],[],Bangladesh,Barisal,Bhola,Daulatkhan,DakshinJoynagar,c79ccaea62f4c1da7018ec3eb288b439
6021533923.0,893cd594927ffff,22.567281,90.7073951,Mongal house Mosque,['logic_undp'],"Mongal house Mosque, Doulatkhan Subdistrict, Bhola District, Barishal Division, Bangladesh","মঙ্গাল হাউস মসজিদ, দৌলতখান উপজেলা, ভোলা জেলা, বরিশাল বিভাগ, বাংলাদেশ",দৌলতখান উপজেলা,বাংলাদেশ,বরিশাল বিভাগ,local_admin,boundaries,['place_of_worship_muslim'],[],Bangladesh,Barisal,Bhola,Daulatkhan,DakshinJoynagar,c79ccaea62f4c1da7018ec3eb288b439
6021533924.0,893cc649453ffff,22.5656017,90.7101309,Tazal mamber house Jame Mosque,['logic_undp'],"Tazal mamber house Jame Mosque, Doulatkhan Subdistrict, Bhola District, Barishal Division, Bangladesh","তাজল ম্যাম্বার হাউস জামে মসজিদ, দৌলতখান উপজেলা, ভোলা জেলা, বরিশাল বিভাগ, বাংলাদেশ",দৌলতখান উপজেলা,বাংলাদেশ,বরিশাল বিভাগ,local_admin,boundaries,['place_of_worship_muslim'],[],Bangladesh,Barisal,Bhola,Daulatkhan,DakshinJoynagar,c79ccaea62f4c1da7018ec3eb288b439
6021533925.0,893cc64945bffff,22.5645267,90.7102328,Zonu Talukdar bari Jame Mosque,['logic_undp'],"Zonu Talukdar bari Jame Mosque, Doulatkhan Subdistrict, Bhola District, Barishal Division, Bangladesh","জোনু তালুকদার বারী জামে মসজিদ, দৌলতখান উপজেলা, ভোলা জেলা, বরিশাল বিভাগ, বাংলাদেশ",দৌলতখান উপজেলা,বাংলাদেশ,বরিশাল বিভাগ,local_admin,boundaries,['place_of_worship_muslim'],[],Bangladesh,Barisal,Bhola,Daulatkhan,DakshinJoynagar,c79ccaea62f4c1da7018ec3eb288b439
6021533926.0,893cc649443ffff,22.5642741,90.7148033,Nur Miar hat Mosque & Madrassa,['logic_undp'],"Nur Miar hat Mosque & Madrassa, Doulatkhan Subdistrict, Bhola District, Barishal Division, Bangladesh","নুর মিয়ার টুপি মসজিদ ও মাদ্রাসা, দৌলতখান উপজেলা, ভোলা জেলা, বরিশাল বিভাগ, বাংলাদেশ",দৌলতখান উপজেলা,বাংলাদেশ,বরিশাল বিভাগ,local_admin,boundaries,['place_of_worship_muslim'],[],Bangladesh,Barisal,Bhola,Daulatkhan,DakshinJoynagar,c79ccaea62f4c1da7018ec3eb288b439
6021533927.0,893cd594927ffff,22.564497,90.7088166,Zonu Talukdar bari Jame Mosque,['logic_undp'],"Zonu Talukdar bari Jame Mosque, Doulatkhan Subdistrict, Bhola District, Barishal Division, Bangladesh","জোনু তালুকদার বারী জামে মসজিদ, দৌলতখান উপজেলা, ভোলা জেলা, বরিশাল বিভাগ, বাংলাদেশ",দৌলতখান উপজেলা,বাংলাদেশ,বরিশাল বিভাগ,local_admin,boundaries,['place_of_worship_muslim'],[],Bangladesh,Barisal,Bhola,Daulatkhan,DakshinJoynagar,c79ccaea62f4c1da7018ec3eb288b439
6021533928.0,893cc64944bffff,22.5618864,90.7113326,Mosque of Emam Uddin Hazi bari,['logic_undp'],"Mosque of Emam Uddin Hazi bari, Doulatkhan Subdistrict, Bhola District, Barishal Division, Bangladesh","ইমাম উদ্দিন হাজী বারির মসজিদ, দৌলতখান উপজেলা, ভোলা জেলা, বরিশাল বিভাগ, বাংলাদেশ",দৌলতখান উপজেলা,বাংলাদেশ,বরিশাল বিভাগ,local_admin,boundaries,['place_of_worship_muslim'],[],Bangladesh,Barisal,Bhola,Daulatkhan,DakshinJoynagar,c79ccaea62f4c1da7018ec3eb288b439
6021533929.0,893cd59492fffff,22.5631793,90.7057428,Baitul Falah Jame Mosque,['logic_undp'],"Baitul Falah Jame Mosque, Doulatkhan Subdistrict, Bhola District, Barishal Division, Bangladesh","বেতুল ফালাহ জামে মসজিদ, দৌলতখান উপজেলা, ভোলা জেলা, বরিশাল বিভাগ, বাংলাদেশ",দৌলতখান উপজেলা,বাংলাদেশ,বরিশাল বিভাগ,local_admin,boundaries,['place_of_worship_muslim'],[],Bangladesh,Barisal,Bhola,Daulatkhan,DakshinJoynagar,c79ccaea62f4c1da7018ec3eb288b439
6021533931.0,893cd594967ffff,22.5590131,90.703876,Sultan Mia house Jame Mosque,['logic_undp'],"Sultan Mia house Jame Mosque, Doulatkhan Subdistrict, Bhola District, Barishal Division, Bangladesh","সুলতান মিয়া হাউস জামে মসজিদ, দৌলতখান উপজেলা, ভোলা জেলা, বরিশাল বিভাগ, বাংলাদেশ",দৌলতখান উপজেলা,বাংলাদেশ,বরিশাল বিভাগ,local_admin,boundaries,['place_of_worship_muslim'],[],Bangladesh,Barisal,Bhola,Daulatkhan,DakshinJoynagar,c79ccaea62f4c1da7018ec3eb288b439
6021533932.0,893cc649683ffff,22.5570612,90.7074219,Mosque of Chan Hazi Howlader house,['logic_undp'],"Mosque of Chan Hazi Howlader house, Doulatkhan Subdistrict, Bhola District, Barishal Division, Bangladesh","চ্যান হাজী হাওলাদার হাউসের মসজিদ, দৌলতখান উপজেলা, ভোলা জেলা, বরিশাল বিভাগ, বাংলাদেশ",দৌলতখান উপজেলা,বাংলাদেশ,বরিশাল বিভাগ,local_admin,boundaries,['place_of_worship_muslim'],[],Bangladesh,Barisal,Bhola,Daulatkhan,DakshinJoynagar,c79ccaea62f4c1da7018ec3eb288b439
6021533933.0,893cc64968bffff,22.5541581,90.7070678,Mosque of Shamim Howladar house,['logic_undp'],"Mosque of Shamim Howladar house, Borhanuddin Subdistrict, Bhola District, Barishal Division, Bangladesh","শামিম হাওলাদার বাড়ির মসজিদ, বোরহানউদ্দিন উপজেলা, ভোলা জেলা, বরিশাল বিভাগ, বাংলাদেশ",বোরহানউদ্দিন উপজেলা,বাংলাদেশ,বরিশাল বিভাগ,local_admin,boundaries,['place_of_worship_muslim'],[],Bangladesh,Barisal,Bhola,Burhanuddin,BaraManika,023414d8ba246a574c8731f20caa94a5
6021533934.0,893cc6496d7ffff,22.5520873,90.704686,Ahmader hat Mosque,['logic_undp'],"Ahmader hat Mosque, Borhanuddin Subdistrict, Bhola District, Barishal Division, Bangladesh","আহমদার টুপি মসজিদ, বোরহানউদ্দিন উপজেলা, ভোলা জেলা, বরিশাল বিভাগ, বাংলাদেশ",বোরহানউদ্দিন উপজেলা,বাংলাদেশ,বরিশাল বিভাগ,local_admin,boundaries,['place_of_worship_muslim'],[],Bangladesh,Barisal,Bhola,Daulatkhan,DakshinJoynagar,c79ccaea62f4c1da7018ec3eb288b439
6021533935.0,893cc6496c3ffff,22.5507794,90.7029855,Ummal Quran Jame Mosque,['logic_undp'],"Ummal Quran Jame Mosque, Borhanuddin Subdistrict, Bhola District, Barishal Division, Bangladesh","উম্মল কোরআন জামে মসজিদ, বোরহানউদ্দিন উপজেলা, ভোলা জেলা, বরিশাল বিভাগ, বাংলাদেশ",বোরহানউদ্দিন উপজেলা,বাংলাদেশ,বরিশাল বিভাগ,local_admin,boundaries,['place_of_worship_muslim'],[],Bangladesh,Barisal,Bhola,Burhanuddin,BaraManika,023414d8ba246a574c8731f20caa94a5
6021533936.0,893cd59496fffff,22.5537123,90.7005447,Mosque & Madrassa at Dofadar house,['logic_undp'],"Mosque & Madrassa at Dofadar house, Doulatkhan Subdistrict, Bhola District, Barishal Division, Bangladesh","দফদার হাউসে মসজিদ ও মাদ্রাসা, দৌলতখান উপজেলা, ভোলা জেলা, বরিশাল বিভাগ, বাংলাদেশ",দৌলতখান উপজেলা,বাংলাদেশ,বরিশাল বিভাগ,local_admin,boundaries,['place_of_worship_muslim'],[],Bangladesh,Barisal,Bhola,Daulatkhan,DakshinJoynagar,c79ccaea62f4c1da7018ec3eb288b439
6095943482.0,893cc64864bffff,22.5891571,90.7443559,Eatimkhana Mosque,['logic_undp'],"Eatimkhana Mosque, Doulatkhan Subdistrict, Bhola District, Barishal Division, Bangladesh","ইটমখানা মসজিদ, দৌলতখান উপজেলা, ভোলা জেলা, বরিশাল বিভাগ, বাংলাদেশ",দৌলতখান উপজেলা,বাংলাদেশ,বরিশাল বিভাগ,local_admin,boundaries,['place_of_worship_muslim'],[],Bangladesh,Barisal,Bhola,Daulatkhan,CharKhalifa,671566de413f655a7136598c98845b4d
6095943483.0,893cc649597ffff,22.5881653,90.7413505,Eatimkhana Mosque,['logic_undp'],"Eatimkhana Mosque, Doulatkhan Subdistrict, Bhola District, Barishal Division, Bangladesh","ইটমখানা মসজিদ, দৌলতখান উপজেলা, ভোলা জেলা, বরিশাল বিভাগ, বাংলাদেশ",দৌলতখান উপজেলা,বাংলাদেশ,বরিশাল বিভাগ,local_admin,boundaries,['place_of_worship_muslim'],[],Bangladesh,Barisal,Bhola,Daulatkhan,CharKhalifa,671566de413f655a7136598c98845b4d
6095943484.0,893cc6495a7ffff,22.5858139,90.7521236,Gupto Ganje bazaar mosque,"['logic_undp', 'Cyclone']","Gupto Ganje bazaar mosque, Doulatkhan Subdistrict, Bhola District, Barishal Division, Bangladesh","গুপ্টো গঞ্জে বাজার মসজিদ, দৌলতখান উপজেলা, ভোলা জেলা, বরিশাল বিভাগ, বাংলাদেশ",দৌলতখান উপজেলা,বাংলাদেশ,বরিশাল বিভাগ,local_admin,boundaries,['place_of_worship_muslim'],[],Bangladesh,Barisal,Bhola,Daulatkhan,Saidpur,5fa690b3dbb0e697f575fa03122ab377
6095950685.0,893cc6495a3ffff,22.5864627,90.7486528,Lahari Janggal jame mosque,['logic_undp'],"Lahari Janggal jame mosque, Doulatkhan Subdistrict, Bhola District, Barishal Division, Bangladesh","লাহারি জঙ্গাল জামে মসজিদ, দৌলতখান উপজেলা, ভোলা জেলা, বরিশাল বিভাগ, বাংলাদেশ",দৌলতখান উপজেলা,বাংলাদেশ,বরিশাল বিভাগ,local_admin,boundaries,['place_of_worship_muslim'],[],Bangladesh,Barisal,Bhola,Daulatkhan,Saidpur,5fa690b3dbb0e697f575fa03122ab377
6095950687.0,893cc649573ffff,22.5743125,90.7453068,"Kali Mandir , Ponchonondho Talukder house.",['logic_undp'],"Kali Mandir Ponchonondho Talukder house., Doulatkhan Subdistrict, Bhola District, Barishal Division, Bangladesh","কালী মন্দির পোনচোনন্ডহো তালুকদার হাউস।, দৌলতখান উপজেলা, ভোলা জেলা, বরিশাল বিভাগ, বাংলাদেশ",দৌলতখান উপজেলা,বাংলাদেশ,বরিশাল বিভাগ,local_admin,boundaries,['place_of_worship'],[],Bangladesh,Barisal,Bhola,Daulatkhan,Saidpur,5fa690b3dbb0e697f575fa03122ab377
6095950688.0,893cc64950bffff,22.5745986,90.7439844,Talpata jame mosque.,['logic_undp'],"Talpata jame mosque., Doulatkhan Subdistrict, Bhola District, Barishal Division, Bangladesh","তালপাটা জামে মসজিদ।, দৌলতখান উপজেলা, ভোলা জেলা, বরিশাল বিভাগ, বাংলাদেশ",দৌলতখান উপজেলা,বাংলাদেশ,বরিশাল বিভাগ,local_admin,boundaries,['place_of_worship_muslim'],[],Bangladesh,Barisal,Bhola,Daulatkhan,Saidpur,5fa690b3dbb0e697f575fa03122ab377
6095950689.0,893cc64958fffff,22.5821164,90.7411145,Habu Midda house jame mosque,['logic_undp'],"Habu Midda house jame mosque, Doulatkhan Subdistrict, Bhola District, Barishal Division, Bangladesh","হাবু মিডা হাউস জামে মসজিদ, দৌলতখান উপজেলা, ভোলা জেলা, বরিশাল বিভাগ, বাংলাদেশ",দৌলতখান উপজেলা,বাংলাদেশ,বরিশাল বিভাগ,local_admin,boundaries,['place_of_worship_muslim'],[],Bangladesh,Barisal,Bhola,Daulatkhan,Saidpur,5fa690b3dbb0e697f575fa03122ab377
6095950690.0,893cc649587ffff,22.5868682,90.7437551,Al Aksa jame mosque,['logic_undp'],"Al Aksa jame mosque, Doulatkhan Subdistrict, Bhola District, Barishal Division, Bangladesh","আল আকসা জামে মসজিদ, দৌলতখান উপজেলা, ভোলা জেলা, বরিশাল বিভাগ, বাংলাদেশ",দৌলতখান উপজেলা,বাংলাদেশ,বরিশাল বিভাগ,local_admin,boundaries,['place_of_worship_muslim'],[],Bangladesh,Barisal,Bhola,Daulatkhan,Saidpur,5fa690b3dbb0e697f575fa03122ab377
6095950691.0,893cc6495bbffff,22.5855446,90.7456172,Charshuvi Madrasa Mosque,['logic_undp'],"Charshuvi Madrasa Mosque, Doulatkhan Subdistrict, Bhola District, Barishal Division, Bangladesh","চারশুভি মাদ্রাসা মসজিদ, দৌলতখান উপজেলা, ভোলা জেলা, বরিশাল বিভাগ, বাংলাদেশ",দৌলতখান উপজেলা,বাংলাদেশ,বরিশাল বিভাগ,local_admin,boundaries,['place_of_worship_muslim'],[],Bangladesh,Barisal,Bhola,Daulatkhan,Saidpur,5fa690b3dbb0e697f575fa03122ab377
6095950692.0,893cc649533ffff,22.581839,90.7495353,Soyal house jame mosque,['logic_undp'],"Soyal house jame mosque, Doulatkhan Subdistrict, Bhola District, Barishal Division, Bangladesh","সোয়াল হাউস জামে মসজিদ, দৌলতখান উপজেলা, ভোলা জেলা, বরিশাল বিভাগ, বাংলাদেশ",দৌলতখান উপজেলা,বাংলাদেশ,বরিশাল বিভাগ,local_admin,boundaries,['place_of_worship_muslim'],[],Bangladesh,Barisal,Bhola,Daulatkhan,Saidpur,5fa690b3dbb0e697f575fa03122ab377
6095950693.0,893cc64950fffff,22.5765094,90.7452652,Khorshed haowlader jame mosque.,['logic_undp'],"Khorshed haowlader jame mosque., Doulatkhan Subdistrict, Bhola District, Barishal Division, Bangladesh","খোরশেদ হাওলাদার জামে মসজিদ।, দৌলতখান উপজেলা, ভোলা জেলা, বরিশাল বিভাগ, বাংলাদেশ",দৌলতখান উপজেলা,বাংলাদেশ,বরিশাল বিভাগ,local_admin,boundaries,['place_of_worship_muslim'],[],Bangladesh,Barisal,Bhola,Daulatkhan,Saidpur,5fa690b3dbb0e697f575fa03122ab377
6095950694.0,893cc64950bffff,22.5761329,90.7417005,Keramotiea jame mosque.,['logic_undp'],"Keramotiea jame mosque., Doulatkhan Subdistrict, Bhola District, Barishal Division, Bangladesh","কেরামোটিয়া জামে মসজিদ।, দৌলতখান উপজেলা, ভোলা জেলা, বরিশাল বিভাগ, বাংলাদেশ",দৌলতখান উপজেলা,বাংলাদেশ,বরিশাল বিভাগ,local_admin,boundaries,['place_of_worship_muslim'],[],Bangladesh,Barisal,Bhola,Daulatkhan,Saidpur,5fa690b3dbb0e697f575fa03122ab377
6095950695.0,893cc64950bffff,22.5761701,90.7415986,Keramotiea jame mosque market,['logic_undp'],"Keramotiea jame mosque market, Doulatkhan Subdistrict, Bhola District, Barishal Division, Bangladesh","কেরামোটিয়া জামে মসজিদ বাজার, দৌলতখান উপজেলা, ভোলা জেলা, বরিশাল বিভাগ, বাংলাদেশ",দৌলতখান উপজেলা,বাংলাদেশ,বরিশাল বিভাগ,local_admin,boundaries,['place_of_worship_muslim'],[],Bangladesh,Barisal,Bhola,Daulatkhan,Saidpur,5fa690b3dbb0e697f575fa03122ab377
6095950696.0,893cc64951bffff,22.5759298,90.7402709,Mosjidul Emam Jame mosque.,['logic_undp'],"Mosjidul Emam Jame mosque., Doulatkhan Subdistrict, Bhola District, Barishal Division, Bangladesh","মোসজিদ ইমাম জামে মসজিদ।, দৌলতখান উপজেলা, ভোলা জেলা, বরিশাল বিভাগ, বাংলাদেশ",দৌলতখান উপজেলা,বাংলাদেশ,বরিশাল বিভাগ,local_admin,boundaries,['place_of_worship_muslim'],[],Bangladesh,Barisal,Bhola,Daulatkhan,Saidpur,5fa690b3dbb0e697f575fa03122ab377
6095950697.0,893cc6495cfffff,22.5772449,90.7351023,Rashid Foundation Jame mosque,['logic_undp'],"Rashid Foundation Jame mosque, Doulatkhan Subdistrict, Bhola District, Barishal Division, Bangladesh","রশিদ ফাউন্ডেশন জামে মসজিদ, দৌলতখান উপজেলা, ভোলা জেলা, বরিশাল বিভাগ, বাংলাদেশ",দৌলতখান উপজেলা,বাংলাদেশ,বরিশাল বিভাগ,local_admin,boundaries,['place_of_worship_muslim'],[],Bangladesh,Barisal,Bhola,Daulatkhan,Saidpur,5fa690b3dbb0e697f575fa03122ab377
6095950698.0,893cc64b36fffff,22.5837633,90.7311058,Foyzul Ulum Jame Mosque,['logic_undp'],"Foyzul Ulum Jame Mosque, Doulatkhan Subdistrict, Bhola District, Barishal Division, Bangladesh","ফয়জুল উলুম জামে মসজিদ, দৌলতখান উপজেলা, ভোলা জেলা, বরিশাল বিভাগ, বাংলাদেশ",দৌলতখান উপজেলা,বাংলাদেশ,বরিশাল বিভাগ,local_admin,boundaries,['place_of_worship_muslim'],[],Bangladesh,Barisal,Bhola,Daulatkhan,Saidpur,5fa690b3dbb0e697f575fa03122ab377
6095950699.0,893cc6495c3ffff,22.5791284,90.7318568,Monu Matbor House jame mosque,['logic_undp'],"Monu Matbor House jame mosque, Doulatkhan Subdistrict, Bhola District, Barishal Division, Bangladesh","মনু মাতবার হাউস জামে মসজিদ, দৌলতখান উপজেলা, ভোলা জেলা, বরিশাল বিভাগ, বাংলাদেশ",দৌলতখান উপজেলা,বাংলাদেশ,বরিশাল বিভাগ,local_admin,boundaries,['place_of_worship_muslim'],[],Bangladesh,Barisal,Bhola,Daulatkhan,Saidpur,5fa690b3dbb0e697f575fa03122ab377
6095950700.0,893cc6495d3ffff,22.579277,90.731138,Askor Patwary house Jame Mosque,['logic_undp'],"Askor Patwary house Jame Mosque, Doulatkhan Subdistrict, Bhola District, Barishal Division, Bangladesh","আসোর পাটওয়ারি হাউস জামে মসজিদ, দৌলতখান উপজেলা, ভোলা জেলা, বরিশাল বিভাগ, বাংলাদেশ",দৌলতখান উপজেলা,বাংলাদেশ,বরিশাল বিভাগ,local_admin,boundaries,['place_of_worship_muslim'],[],Bangladesh,Barisal,Bhola,Daulatkhan,Saidpur,5fa690b3dbb0e697f575fa03122ab377
6095950701.0,893cc6495dbffff,22.578191,90.7295059,Bokter Howladar house Jame Mosque,['logic_undp'],"Bokter Howladar house Jame Mosque, Doulatkhan Subdistrict, Bhola District, Barishal Division, Bangladesh","বোকার হাওলাদার হাউস জামে মসজিদ, দৌলতখান উপজেলা, ভোলা জেলা, বরিশাল বিভাগ, বাংলাদেশ",দৌলতখান উপজেলা,বাংলাদেশ,বরিশাল বিভাগ,local_admin,boundaries,['place_of_worship_muslim'],[],Bangladesh,Barisal,Bhola,Daulatkhan,Saidpur,5fa690b3dbb0e697f575fa03122ab377
6095950702.0,893cc6495cbffff,22.5746717,90.7338001,Baitul Nur jame mosque,['logic_undp'],"Baitul Nur jame mosque, Doulatkhan Subdistrict, Bhola District, Barishal Division, Bangladesh","বেতুল নূর জামে মসজিদ, দৌলতখান উপজেলা, ভোলা জেলা, বরিশাল বিভাগ, বাংলাদেশ",দৌলতখান উপজেলা,বাংলাদেশ,বরিশাল বিভাগ,local_admin,boundaries,['place_of_worship_muslim'],[],Bangladesh,Barisal,Bhola,Daulatkhan,Saidpur,5fa690b3dbb0e697f575fa03122ab377
6095950703.0,893cc649433ffff,22.5735181,90.7263301,Hakim Patwary house Jame Mosque,['logic_undp'],"Hakim Patwary house Jame Mosque, Doulatkhan Subdistrict, Bhola District, Barishal Division, Bangladesh","হাকিম পাটওয়ারি হাউস জামে মসজিদ, দৌলতখান উপজেলা, ভোলা জেলা, বরিশাল বিভাগ, বাংলাদেশ",দৌলতখান উপজেলা,বাংলাদেশ,বরিশাল বিভাগ,local_admin,boundaries,['place_of_worship_muslim'],[],Bangladesh,Barisal,Bhola,Daulatkhan,Saidpur,5fa690b3dbb0e697f575fa03122ab377
6095950704.0,893cc649427ffff,22.5705169,90.7320955,Munshi House jame mosque,['logic_undp'],"Munshi House jame mosque, Doulatkhan Subdistrict, Bhola District, Barishal Division, Bangladesh","মুন্সি হাউস জামে মসজিদ, দৌলতখান উপজেলা, ভোলা জেলা, বরিশাল বিভাগ, বাংলাদেশ",দৌলতখান উপজেলা,বাংলাদেশ,বরিশাল বিভাগ,local_admin,boundaries,['place_of_worship_muslim'],[],Bangladesh,Barisal,Bhola,Daulatkhan,Saidpur,5fa690b3dbb0e697f575fa03122ab377
6095950705.0,893cc649093ffff,22.5671262,90.7307524,Mahajon bari Jame Mosque,['logic_undp'],"Mahajon bari Jame Mosque, Borhanuddin Subdistrict, Bhola District, Barishal Division, Bangladesh","মহাজন বারী জামে মসজিদ, বোরহানউদ্দিন উপজেলা, ভোলা জেলা, বরিশাল বিভাগ, বাংলাদেশ",বোরহানউদ্দিন উপজেলা,বাংলাদেশ,বরিশাল বিভাগ,local_admin,boundaries,['place_of_worship_muslim'],[],Bangladesh,Barisal,Bhola,Daulatkhan,Saidpur,5fa690b3dbb0e697f575fa03122ab377
6095950706.0,893cc6495abffff,22.5825028,90.7485053,Talpata jame mosque.,['logic_undp'],"Talpata jame mosque., Doulatkhan Subdistrict, Bhola District, Barishal Division, Bangladesh","তালপাটা জামে মসজিদ।, দৌলতখান উপজেলা, ভোলা জেলা, বরিশাল বিভাগ, বাংলাদেশ",দৌলতখান উপজেলা,বাংলাদেশ,বরিশাল বিভাগ,local_admin,boundaries,['place_of_worship_muslim'],[],Bangladesh,Barisal,Bhola,Daulatkhan,Saidpur,5fa690b3dbb0e697f575fa03122ab377
6095950707.0,893cc6495abffff,22.5821684,90.746617,Charshuvi Baitul Aman jame mosque,['logic_undp'],"Charshuvi Baitul Aman jame mosque, Doulatkhan Subdistrict, Bhola District, Barishal Division, Bangladesh","চারশুভি বেতুল আমান জামে মসজিদ, দৌলতখান উপজেলা, ভোলা জেলা, বরিশাল বিভাগ, বাংলাদেশ",দৌলতখান উপজেলা,বাংলাদেশ,বরিশাল বিভাগ,local_admin,boundaries,['place_of_worship_muslim'],[],Bangladesh,Barisal,Bhola,Daulatkhan,Saidpur,5fa690b3dbb0e697f575fa03122ab377
6095950708.0,893cc6495abffff,22.5809722,90.7472581,Rashid Mia house jame mosque,['logic_undp'],"Rashid Mia house jame mosque, Doulatkhan Subdistrict, Bhola District, Barishal Division, Bangladesh","রশিদ মিয়া হাউস জামে মসজিদ, দৌলতখান উপজেলা, ভোলা জেলা, বরিশাল বিভাগ, বাংলাদেশ",দৌলতখান উপজেলা,বাংলাদেশ,বরিশাল বিভাগ,local_admin,boundaries,['place_of_worship_muslim'],[],Bangladesh,Barisal,Bhola,Daulatkhan,Saidpur,5fa690b3dbb0e697f575fa03122ab377
6095950709.0,893cc649577ffff,22.5750481,90.7498839,Liakot Mia house jame mosque,"['logic_undp', 'High tide']","Liakot Mia house jame mosque, Doulatkhan Subdistrict, Bhola District, Barishal Division, Bangladesh","লিয়াকোট মিয়া হাউস জামে মসজিদ, দৌলতখান উপজেলা, ভোলা জেলা, বরিশাল বিভাগ, বাংলাদেশ",দৌলতখান উপজেলা,বাংলাদেশ,বরিশাল বিভাগ,local_admin,boundaries,['place_of_worship_muslim'],[],Bangladesh,Barisal,Bhola,Daulatkhan,Saidpur,5fa690b3dbb0e697f575fa03122ab377
6095950710.0,893cc649577ffff,22.5747187,90.7495138,Bosu patowary jame mosque.,['logic_undp'],"Bosu patowary jame mosque., Doulatkhan Subdistrict, Bhola District, Barishal Division, Bangladesh","বোসু প্যাটোয়ারি জামে মসজিদ।, দৌলতখান উপজেলা, ভোলা জেলা, বরিশাল বিভাগ, বাংলাদেশ",দৌলতখান উপজেলা,বাংলাদেশ,বরিশাল বিভাগ,local_admin,boundaries,['place_of_worship_muslim'],[],Bangladesh,Barisal,Bhola,Daulatkhan,Saidpur,5fa690b3dbb0e697f575fa03122ab377
6095950711.0,893cc649567ffff,22.5713429,90.7499725,Baitul jannat jame mosque.,['logic_undp'],"Baitul jannat jame mosque., Doulatkhan Subdistrict, Bhola District, Barishal Division, Bangladesh","বেতুল জান্নাত জামে মসজিদ।, দৌলতখান উপজেলা, ভোলা জেলা, বরিশাল বিভাগ, বাংলাদেশ",দৌলতখান উপজেলা,বাংলাদেশ,বরিশাল বিভাগ,local_admin,boundaries,['place_of_worship_muslim'],[],Bangladesh,Barisal,Bhola,Daulatkhan,Saidpur,5fa690b3dbb0e697f575fa03122ab377
6095950712.0,893cc64956fffff,22.5700625,90.7496881,Majirhat bazaar jame mosque.,['logic_undp'],"Majirhat bazaar jame mosque., Doulatkhan Subdistrict, Bhola District, Barishal Division, Bangladesh","সাজিরহাত বাজার জামে মসজিদ।, দৌলতখান উপজেলা, ভোলা জেলা, বরিশাল বিভাগ, বাংলাদেশ",দৌলতখান উপজেলা,বাংলাদেশ,বরিশাল বিভাগ,local_admin,boundaries,['place_of_worship_muslim'],[],Bangladesh,Barisal,Bhola,Daulatkhan,Saidpur,5fa690b3dbb0e697f575fa03122ab377
6095950716.0,893cc64954bffff,22.56685,90.7382244,Sahjahan Kerani house jame mosque,['logic_undp'],"Sahjahan Kerani house jame mosque, Borhanuddin Subdistrict, Bhola District, Barishal Division, Bangladesh","সহজাহান কেরানী হাউস জামে মসজিদ, বোরহানউদ্দিন উপজেলা, ভোলা জেলা, বরিশাল বিভাগ, বাংলাদেশ",বোরহানউদ্দিন উপজেলা,বাংলাদেশ,বরিশাল বিভাগ,local_admin,boundaries,['place_of_worship_muslim'],[],Bangladesh,Barisal,Bhola,Daulatkhan,Saidpur,5fa690b3dbb0e697f575fa03122ab377
6095950717.0,893cc64954bffff,22.566746,90.7363254,Foyjul Haji House jame mosque,['logic_undp'],"Foyjul Haji House jame mosque, Borhanuddin Subdistrict, Bhola District, Barishal Division, Bangladesh","ফয়জুল হাজী হাউস জামে মসজিদ, বোরহানউদ্দিন উপজেলা, ভোলা জেলা, বরিশাল বিভাগ, বাংলাদেশ",বোরহানউদ্দিন উপজেলা,বাংলাদেশ,বরিশাল বিভাগ,local_admin,boundaries,['place_of_worship_muslim'],[],Bangladesh,Barisal,Bhola,Daulatkhan,Saidpur,5fa690b3dbb0e697f575fa03122ab377
6095950718.0,893cc649087ffff,22.5650485,90.7355724,Mijirhat jame mosque.,['logic_undp'],"Mijirhat jame mosque., Borhanuddin Subdistrict, Bhola District, Barishal Division, Bangladesh","মিজিরহাত জামে মসজিদ।, বোরহানউদ্দিন উপজেলা, ভোলা জেলা, বরিশাল বিভাগ, বাংলাদেশ",বোরহানউদ্দিন উপজেলা,বাংলাদেশ,বরিশাল বিভাগ,local_admin,boundaries,['place_of_worship_muslim'],[],Bangladesh,Barisal,Bhola,Daulatkhan,Saidpur,5fa690b3dbb0e697f575fa03122ab377
6095950719.0,893cc64908fffff,22.5615545,90.734936,Borodholi fazil madrasa.,['logic_undp'],"Borodholi fazil madrasa., Borhanuddin Subdistrict, Bhola District, Barishal Division, Bangladesh","বোরোধলি ফাজিল মাদ্রাস।, বোরহানউদ্দিন উপজেলা, ভোলা জেলা, বরিশাল বিভাগ, বাংলাদেশ",বোরহানউদ্দিন উপজেলা,বাংলাদেশ,বরিশাল বিভাগ,local_admin,boundaries,['place_of_worship_muslim'],[],Bangladesh,Barisal,Bhola,Daulatkhan,Saidpur,5fa690b3dbb0e697f575fa03122ab377
6095950720.0,893cc649587ffff,22.5868515,90.7434601,Talpata jame mosque.,['logic_undp'],"Talpata jame mosque., Doulatkhan Subdistrict, Bhola District, Barishal Division, Bangladesh","তালপাটা জামে মসজিদ।, দৌলতখান উপজেলা, ভোলা জেলা, বরিশাল বিভাগ, বাংলাদেশ",দৌলতখান উপজেলা,বাংলাদেশ,বরিশাল বিভাগ,local_admin,boundaries,['place_of_worship_muslim'],[],Bangladesh,Barisal,Bhola,Daulatkhan,Saidpur,5fa690b3dbb0e697f575fa03122ab377
6095950721.0,893cc649583ffff,22.5871339,90.7395869,Baitl Mamur jame mosque,['logic_undp'],"Baitl Mamur jame mosque, Doulatkhan Subdistrict, Bhola District, Barishal Division, Bangladesh","বেতুল মামুর জামে মসজিদ, দৌলতখান উপজেলা, ভোলা জেলা, বরিশাল বিভাগ, বাংলাদেশ",দৌলতখান উপজেলা,বাংলাদেশ,বরিশাল বিভাগ,local_admin,boundaries,['place_of_worship_muslim'],[],Bangladesh,Barisal,Bhola,Daulatkhan,Saidpur,5fa690b3dbb0e697f575fa03122ab377
6095950722.0,893cc64b367ffff,22.5871041,90.7328922,Munaf Bapari Jame Mosque,['logic_undp'],"Munaf Bapari Jame Mosque, Doulatkhan Subdistrict, Bhola District, Barishal Division, Bangladesh","মুনফ বাপারি জামে মসজিদ, দৌলতখান উপজেলা, ভোলা জেলা, বরিশাল বিভাগ, বাংলাদেশ",দৌলতখান উপজেলা,বাংলাদেশ,বরিশাল বিভাগ,local_admin,boundaries,['place_of_worship_muslim'],[],Bangladesh,Barisal,Bhola,Daulatkhan,Saidpur,5fa690b3dbb0e697f575fa03122ab377
6095950723.0,893cc6491c3ffff,22.5625155,90.7504378,Aslam Frije Jame Mosque,['logic_undp'],"Aslam Frije Jame Mosque, Borhanuddin Subdistrict, Bhola District, Barishal Division, Bangladesh","আসলাম ফ্রিজে জামে মসজিদ, বোরহানউদ্দিন উপজেলা, ভোলা জেলা, বরিশাল বিভাগ, বাংলাদেশ",বোরহানউদ্দিন উপজেলা,বাংলাদেশ,বরিশাল বিভাগ,local_admin,boundaries,['place_of_worship_muslim'],[],Bangladesh,Barisal,Bhola,Daulatkhan,Saidpur,5fa690b3dbb0e697f575fa03122ab377
6095950724.0,893cc6490a3ffff,22.5618269,90.7419875,Talukder para jame mosque,['logic_undp'],"Talukder para jame mosque, Borhanuddin Subdistrict, Bhola District, Barishal Division, Bangladesh","তালুকদার প্যারা জামে মসজিদ, বোরহানউদ্দিন উপজেলা, ভোলা জেলা, বরিশাল বিভাগ, বাংলাদেশ",বোরহানউদ্দিন উপজেলা,বাংলাদেশ,বরিশাল বিভাগ,local_admin,boundaries,['place_of_worship_muslim'],[],Bangladesh,Barisal,Bhola,Daulatkhan,Saidpur,5fa690b3dbb0e697f575fa03122ab377
6095950725.0,893cc6490a7ffff,22.5638084,90.7458553,Sorkari digir per jame mosque,['logic_undp'],"Sorkari digir per jame mosque, Borhanuddin Subdistrict, Bhola District, Barishal Division, Bangladesh","সরকারি দিঘির পার জামে মসজিদ, বোরহানউদ্দিন উপজেলা, ভোলা জেলা, বরিশাল বিভাগ, বাংলাদেশ",বোরহানউদ্দিন উপজেলা,বাংলাদেশ,বরিশাল বিভাগ,local_admin,boundaries,['place_of_worship_muslim'],[],Bangladesh,Barisal,Bhola,Daulatkhan,Saidpur,5fa690b3dbb0e697f575fa03122ab377
6095950726.0,893cc6490a3ffff,22.563375,90.7429558,Hossen patowary house Jame mosque.,['logic_undp'],"Hossen patowary house Jame mosque., Borhanuddin Subdistrict, Bhola District, Barishal Division, Bangladesh","হোসেন প্যাটোয়ারি হাউস জামে মসজিদ।, বোরহানউদ্দিন উপজেলা, ভোলা জেলা, বরিশাল বিভাগ, বাংলাদেশ",বোরহানউদ্দিন উপজেলা,বাংলাদেশ,বরিশাল বিভাগ,local_admin,boundaries,['place_of_worship_muslim'],[],Bangladesh,Barisal,Bhola,Daulatkhan,Saidpur,5fa690b3dbb0e697f575fa03122ab377
6095950727.0,893cc649087ffff,22.5639868,90.7372856,Mieanuddin miea jame mosque.,['logic_undp'],"Mieanuddin miea jame mosque., Borhanuddin Subdistrict, Bhola District, Barishal Division, Bangladesh","মিয়ানউদ্দিন মিয়া জামে মসজিদ।, বোরহানউদ্দিন উপজেলা, ভোলা জেলা, বরিশাল বিভাগ, বাংলাদেশ",বোরহানউদ্দিন উপজেলা,বাংলাদেশ,বরিশাল বিভাগ,local_admin,boundaries,['place_of_worship_muslim'],[],Bangladesh,Barisal,Bhola,Daulatkhan,Saidpur,5fa690b3dbb0e697f575fa03122ab377
6095950728.0,893cc649087ffff,22.5637954,90.7351962,Keramot ali Bepari house Jame mosque.,['logic_undp'],"Keramot ali Bepari house Jame mosque., Borhanuddin Subdistrict, Bhola District, Barishal Division, Bangladesh","কেরামোট আলী বেপারি হাউস জামে মসজিদ।, বোরহানউদ্দিন উপজেলা, ভোলা জেলা, বরিশাল বিভাগ, বাংলাদেশ",বোরহানউদ্দিন উপজেলা,বাংলাদেশ,বরিশাল বিভাগ,local_admin,boundaries,['place_of_worship_muslim'],[],Bangladesh,Barisal,Bhola,Daulatkhan,Saidpur,5fa690b3dbb0e697f575fa03122ab377
6095950729.0,893cc649467ffff,22.5650506,90.7273172,Afiroddi Forize Jame Mosque,['logic_undp'],"Afiroddi Forize Jame Mosque, Borhanuddin Subdistrict, Bhola District, Barishal Division, Bangladesh","আফিরোদ্দি জামে মসজিদকে অগ্রসর করুন, বোরহানউদ্দিন উপজেলা, ভোলা জেলা, বরিশাল বিভাগ, বাংলাদেশ",বোরহানউদ্দিন উপজেলা,বাংলাদেশ,বরিশাল বিভাগ,local_admin,boundaries,['place_of_worship_muslim'],[],Bangladesh,Barisal,Bhola,Daulatkhan,Saidpur,5fa690b3dbb0e697f575fa03122ab377
6095950730.0,893cc64940fffff,22.5678569,90.7219782,Apporodi Baperi Jame Mosuqe,['logic_undp'],"Apporodi Baperi Jame Mosuqe, Borhanuddin Subdistrict, Bhola District, Barishal Division, Bangladesh","অ্যাপোরোদি বারী জামে মসজিদ, বোরহানউদ্দিন উপজেলা, ভোলা জেলা, বরিশাল বিভাগ, বাংলাদেশ",বোরহানউদ্দিন উপজেলা,বাংলাদেশ,বরিশাল বিভাগ,local_admin,boundaries,['place_of_worship_muslim'],[],Bangladesh,Barisal,Bhola,Daulatkhan,Saidpur,5fa690b3dbb0e697f575fa03122ab377
6095950731.0,893cc649463ffff,22.5642815,90.7218897,Islam Howlader house Jame Mosque,['logic_undp'],"Islam Howlader house Jame Mosque, Borhanuddin Subdistrict, Bhola District, Barishal Division, Bangladesh","ইসলাম হাওলাদার হাউস জামে মসজিদ, বোরহানউদ্দিন উপজেলা, ভোলা জেলা, বরিশাল বিভাগ, বাংলাদেশ",বোরহানউদ্দিন উপজেলা,বাংলাদেশ,বরিশাল বিভাগ,local_admin,boundaries,['place_of_worship_muslim'],[],Bangladesh,Barisal,Bhola,Daulatkhan,Saidpur,5fa690b3dbb0e697f575fa03122ab377
6095950732.0,893cc649473ffff,22.5660475,90.7209617,Nazimoddin Baperi jama mosque,['logic_undp'],"Nazimoddin Baperi jama mosque, Borhanuddin Subdistrict, Bhola District, Barishal Division, Bangladesh","নাজিমদ্দিন বোয়েরি জামা মসজিদ, বোরহানউদ্দিন উপজেলা, ভোলা জেলা, বরিশাল বিভাগ, বাংলাদেশ",বোরহানউদ্দিন উপজেলা,বাংলাদেশ,বরিশাল বিভাগ,local_admin,boundaries,['place_of_worship_muslim'],[],Bangladesh,Barisal,Bhola,Daulatkhan,Saidpur,5fa690b3dbb0e697f575fa03122ab377
6095950733.0,893cc64909bffff,22.5637979,90.7298455,Mirada house Jame,['logic_undp'],"Mirada house Jame, Borhanuddin Subdistrict, Bhola District, Barishal Division, Bangladesh","মিরদা হাউস জামে, বোরহানউদ্দিন উপজেলা, ভোলা জেলা, বরিশাল বিভাগ, বাংলাদেশ",বোরহানউদ্দিন উপজেলা,বাংলাদেশ,বরিশাল বিভাগ,local_admin,boundaries,['place_of_worship_muslim'],[],Bangladesh,Barisal,Bhola,Daulatkhan,Saidpur,5fa690b3dbb0e697f575fa03122ab377
6095950734.0,893cc64940bffff,22.5685566,90.7192692,Rofik Member Jame Mosque,['logic_undp'],"Rofik Member Jame Mosque, Borhanuddin Subdistrict, Bhola District, Barishal Division, Bangladesh","রোফিকের সদস্য জামে মসজিদ, বোরহানউদ্দিন উপজেলা, ভোলা জেলা, বরিশাল বিভাগ, বাংলাদেশ",বোরহানউদ্দিন উপজেলা,বাংলাদেশ,বরিশাল বিভাগ,local_admin,boundaries,['place_of_worship_muslim'],[],Bangladesh,Barisal,Bhola,Daulatkhan,Saidpur,5fa690b3dbb0e697f575fa03122ab377
6097830471.0,893cc649583ffff,22.5874657,90.7386535,Banana farm of Malek Mia,['logic_undp'],"Banana farm of Malek Mia, Doulatkhan Subdistrict, Bhola District, Barishal Division, Bangladesh","মালেক মিয়া কলা ফার্ম, দৌলতখান উপজেলা, ভোলা জেলা, বরিশাল বিভাগ, বাংলাদেশ",দৌলতখান উপজেলা,বাংলাদেশ,বরিশাল বিভাগ,local_admin,boundaries,['farm'],[],Bangladesh,Barisal,Bhola,Daulatkhan,Saidpur,5fa690b3dbb0e697f575fa03122ab377
6097830473.0,893cc64b367ffff,22.5873493,90.733104,Munaf Bapari bazar,['logic_undp'],"Munaf Bapari bazar, Doulatkhan Subdistrict, Bhola District, Barishal Division, Bangladesh","মুনফ বাপারি বাজার, দৌলতখান উপজেলা, ভোলা জেলা, বরিশাল বিভাগ, বাংলাদেশ",দৌলতখান উপজেলা,বাংলাদেশ,বরিশাল বিভাগ,local_admin,boundaries,['marketplace'],[],Bangladesh,Barisal,Bhola,Daulatkhan,Saidpur,5fa690b3dbb0e697f575fa03122ab377
6097830474.0,893cc64b367ffff,22.5878966,90.7345015,Public toylet of Munaf Bapari bazar,['logic_undp'],"Public toylet of Munaf Bapari bazar, Doulatkhan Subdistrict, Bhola District, Barishal Division, Bangladesh","মুনাফ বেপারি বাজারের পাবলিক টয়লেট, দৌলতখান উপজেলা, ভোলা জেলা, বরিশাল বিভাগ, বাংলাদেশ",দৌলতখান উপজেলা,বাংলাদেশ,বরিশাল বিভাগ,local_admin,boundaries,['toilets'],[],Bangladesh,Barisal,Bhola,Daulatkhan,Saidpur,5fa690b3dbb0e697f575fa03122ab377
6097830475.0,893cc649517ffff,22.5811382,90.7450399,Rice mill of Lito,['logic_undp'],"Rice mill of Lito, Doulatkhan Subdistrict, Bhola District, Barishal Division, Bangladesh","লিটোর রাইস মিল, দৌলতখান উপজেলা, ভোলা জেলা, বরিশাল বিভাগ, বাংলাদেশ",দৌলতখান উপজেলা,বাংলাদেশ,বরিশাল বিভাগ,local_admin,boundaries,['sawmill'],[],Bangladesh,Barisal,Bhola,Daulatkhan,Saidpur,5fa690b3dbb0e697f575fa03122ab377
6097834707.0,893cc64951bffff,22.5760623,90.7409146,Rice mill in front of Basa bari,['logic_undp'],"Rice mill in front of Basa bari, Doulatkhan Subdistrict, Bhola District, Barishal Division, Bangladesh","বাসা বারির সামনে ভাত মিল, দৌলতখান উপজেলা, ভোলা জেলা, বরিশাল বিভাগ, বাংলাদেশ",দৌলতখান উপজেলা,বাংলাদেশ,বরিশাল বিভাগ,local_admin,boundaries,['sawmill'],[],Bangladesh,Barisal,Bhola,Daulatkhan,Saidpur,5fa690b3dbb0e697f575fa03122ab377
6097834709.0,893cc649427ffff,22.5714024,90.7316369,Banana farm of Nasir Fokir,['logic_undp'],"Banana farm of Nasir Fokir, Doulatkhan Subdistrict, Bhola District, Barishal Division, Bangladesh","নাসির ফোকিরের কলা ফার্ম, দৌলতখান উপজেলা, ভোলা জেলা, বরিশাল বিভাগ, বাংলাদেশ",দৌলতখান উপজেলা,বাংলাদেশ,বরিশাল বিভাগ,local_admin,boundaries,['farm'],[],Bangladesh,Barisal,Bhola,Daulatkhan,Saidpur,5fa690b3dbb0e697f575fa03122ab377
6097834710.0,893cc6490bbffff,22.5617576,90.738396,Adrosho bazaar,['logic_undp'],"Adrosho bazaar, Borhanuddin Subdistrict, Bhola District, Barishal Division, Bangladesh","আদ্রোশো বাজার, বোরহানউদ্দিন উপজেলা, ভোলা জেলা, বরিশাল বিভাগ, বাংলাদেশ",বোরহানউদ্দিন উপজেলা,বাংলাদেশ,বরিশাল বিভাগ,local_admin,boundaries,['marketplace'],[],Bangladesh,Barisal,Bhola,Daulatkhan,Saidpur,5fa690b3dbb0e697f575fa03122ab377
6097834711.0,893cc649403ffff,22.5717367,90.7180703,Samsu Mia's bazar,['logic_undp'],"Samsu Mia's bazar, Doulatkhan Subdistrict, Bhola District, Barishal Division, Bangladesh","স্যামসু মিয়া বাজার, দৌলতখান উপজেলা, ভোলা জেলা, বরিশাল বিভাগ, বাংলাদেশ",দৌলতখান উপজেলা,বাংলাদেশ,বরিশাল বিভাগ,local_admin,boundaries,['marketplace'],[],Bangladesh,Barisal,Bhola,Daulatkhan,Saidpur,5fa690b3dbb0e697f575fa03122ab377
6097834712.0,893cc6495c3ffff,22.5793823,90.734944,Vegetable farm of Abdul Shukkur,['logic_undp'],"Vegetable farm of Abdul Shukkur, Doulatkhan Subdistrict, Bhola District, Barishal Division, Bangladesh","আবদুল শুকুকুরের উদ্ভিজ্জ খামার, দৌলতখান উপজেলা, ভোলা জেলা, বরিশাল বিভাগ, বাংলাদেশ",দৌলতখান উপজেলা,বাংলাদেশ,বরিশাল বিভাগ,local_admin,boundaries,['farm'],[],Bangladesh,Barisal,Bhola,Daulatkhan,Saidpur,5fa690b3dbb0e697f575fa03122ab377
6097834713.0,893cc6495c3ffff,22.5791742,90.7331711,Vegetable farm of Sofu Matbor,['logic_undp'],"Vegetable farm of Sofu Matbor, Doulatkhan Subdistrict, Bhola District, Barishal Division, Bangladesh","সোফু মাতবারের উদ্ভিজ্জ খামার, দৌলতখান উপজেলা, ভোলা জেলা, বরিশাল বিভাগ, বাংলাদেশ",দৌলতখান উপজেলা,বাংলাদেশ,বরিশাল বিভাগ,local_admin,boundaries,['farm'],[],Bangladesh,Barisal,Bhola,Daulatkhan,Saidpur,5fa690b3dbb0e697f575fa03122ab377
6097834714.0,893cc6495c3ffff,22.5793204,90.7325274,Vegetable farm of Sofijl,['logic_undp'],"Vegetable farm of Sofijl, Doulatkhan Subdistrict, Bhola District, Barishal Division, Bangladesh","সোফিজলের উদ্ভিজ্জ খামার, দৌলতখান উপজেলা, ভোলা জেলা, বরিশাল বিভাগ, বাংলাদেশ",দৌলতখান উপজেলা,বাংলাদেশ,বরিশাল বিভাগ,local_admin,boundaries,['farm'],[],Bangladesh,Barisal,Bhola,Daulatkhan,Saidpur,5fa690b3dbb0e697f575fa03122ab377
6097834715.0,893cc6495d3ffff,22.5794764,90.729998,Askor Patwary bazar,['logic_undp'],"Askor Patwary bazar, Doulatkhan Subdistrict, Bhola District, Barishal Division, Bangladesh","আসোর পাটওয়ারি বাজার, দৌলতখান উপজেলা, ভোলা জেলা, বরিশাল বিভাগ, বাংলাদেশ",দৌলতখান উপজেলা,বাংলাদেশ,বরিশাল বিভাগ,local_admin,boundaries,['marketplace'],[],Bangladesh,Barisal,Bhola,Daulatkhan,Saidpur,5fa690b3dbb0e697f575fa03122ab377
6097834716.0,893cc6495d3ffff,22.5798627,90.7307544,Betel nut garden of Abdul Malek,['logic_undp'],"Betel nut garden of Abdul Malek, Doulatkhan Subdistrict, Bhola District, Barishal Division, Bangladesh","আবদুল মালেকের সুপরিচিত বাদাম বাগান, দৌলতখান উপজেলা, ভোলা জেলা, বরিশাল বিভাগ, বাংলাদেশ",দৌলতখান উপজেলা,বাংলাদেশ,বরিশাল বিভাগ,local_admin,boundaries,['garden_centre'],[],Bangladesh,Barisal,Bhola,Daulatkhan,Saidpur,5fa690b3dbb0e697f575fa03122ab377
6097834731.0,893cc6494b7ffff,22.5829349,90.7255174,Dalal bazar,['logic_undp'],"Dalal bazar, Doulatkhan Subdistrict, Bhola District, Barishal Division, Bangladesh","দালাল বাজার, দৌলতখান উপজেলা, ভোলা জেলা, বরিশাল বিভাগ, বাংলাদেশ",দৌলতখান উপজেলা,বাংলাদেশ,বরিশাল বিভাগ,local_admin,boundaries,['marketplace'],[],Bangladesh,Barisal,Bhola,Daulatkhan,CharKhalifa,671566de413f655a7136598c98845b4d
6097834747.0,893cc6494afffff,22.5776115,90.7283458,Chicken farm of Nurul Huk,['logic_undp'],"Chicken farm of Nurul Huk, Doulatkhan Subdistrict, Bhola District, Barishal Division, Bangladesh","নুরুল হুকের চিকেন ফার্ম, দৌলতখান উপজেলা, ভোলা জেলা, বরিশাল বিভাগ, বাংলাদেশ",দৌলতখান উপজেলা,বাংলাদেশ,বরিশাল বিভাগ,local_admin,boundaries,['farm'],[],Bangladesh,Barisal,Bhola,Daulatkhan,Saidpur,5fa690b3dbb0e697f575fa03122ab377
6097834781.0,893cc649553ffff,22.5747336,90.7346517,1 n. Moor Community bazar,['logic_undp'],"1 n. Moor Community bazar, Doulatkhan Subdistrict, Bhola District, Barishal Division, Bangladesh","1 এন।মুর সম্প্রদায় বাজার, দৌলতখান উপজেলা, ভোলা জেলা, বরিশাল বিভাগ, বাংলাদেশ",দৌলতখান উপজেলা,বাংলাদেশ,বরিশাল বিভাগ,local_admin,boundaries,['marketplace'],[],Bangladesh,Barisal,Bhola,Daulatkhan,Saidpur,5fa690b3dbb0e697f575fa03122ab377
6097834782.0,893cc6495cbffff,22.5746395,90.7325596,Vegetable farm of Shiraz Majhi,['logic_undp'],"Vegetable farm of Shiraz Majhi, Doulatkhan Subdistrict, Bhola District, Barishal Division, Bangladesh","শিরাজ মাজির উদ্ভিজ্জ খামার, দৌলতখান উপজেলা, ভোলা জেলা, বরিশাল বিভাগ, বাংলাদেশ",দৌলতখান উপজেলা,বাংলাদেশ,বরিশাল বিভাগ,local_admin,boundaries,['farm'],[],Bangladesh,Barisal,Bhola,Daulatkhan,Saidpur,5fa690b3dbb0e697f575fa03122ab377
6097834783.0,893cc649437ffff,22.574455,90.7307464,Bazar beside Shirajul Haque Master bridge,['logic_undp'],"Bazar beside Shirajul Haque Master bridge, Doulatkhan Subdistrict, Bhola District, Barishal Division, Bangladesh","শিরাজুল হক মাস্টার ব্রিজের পাশে বাজার, দৌলতখান উপজেলা, ভোলা জেলা, বরিশাল বিভাগ, বাংলাদেশ",দৌলতখান উপজেলা,বাংলাদেশ,বরিশাল বিভাগ,local_admin,boundaries,['marketplace'],[],Bangladesh,Barisal,Bhola,Daulatkhan,Saidpur,5fa690b3dbb0e697f575fa03122ab377
6097834784.0,893cc649437ffff,22.5746258,90.7307518,Saru master bazar,['logic_undp'],"Saru master bazar, Doulatkhan Subdistrict, Bhola District, Barishal Division, Bangladesh","সরু মাস্টার বাজার, দৌলতখান উপজেলা, ভোলা জেলা, বরিশাল বিভাগ, বাংলাদেশ",দৌলতখান উপজেলা,বাংলাদেশ,বরিশাল বিভাগ,local_admin,boundaries,['marketplace'],[],Bangladesh,Barisal,Bhola,Daulatkhan,Saidpur,5fa690b3dbb0e697f575fa03122ab377
6097834985.0,893cc649437ffff,22.5745305,90.7305211,Saw Mill of Wabaidul Hak Mia,['logic_undp'],"Saw Mill of Wabaidul Hak Mia, Doulatkhan Subdistrict, Bhola District, Barishal Division, Bangladesh","ওয়াবায়দুল হাক মিয়া এর মিল, দৌলতখান উপজেলা, ভোলা জেলা, বরিশাল বিভাগ, বাংলাদেশ",দৌলতখান উপজেলা,বাংলাদেশ,বরিশাল বিভাগ,local_admin,boundaries,['sawmill'],[],Bangladesh,Barisal,Bhola,Daulatkhan,Saidpur,5fa690b3dbb0e697f575fa03122ab377
6097834986.0,893cc649437ffff,22.5743621,90.7294616,Poultry farm of Niaz Sharif,['logic_undp'],"Poultry farm of Niaz Sharif, Doulatkhan Subdistrict, Bhola District, Barishal Division, Bangladesh","নিয়াজ শরীফের পোল্ট্রি ফার্ম, দৌলতখান উপজেলা, ভোলা জেলা, বরিশাল বিভাগ, বাংলাদেশ",দৌলতখান উপজেলা,বাংলাদেশ,বরিশাল বিভাগ,local_admin,boundaries,['farm'],[],Bangladesh,Barisal,Bhola,Daulatkhan,Saidpur,5fa690b3dbb0e697f575fa03122ab377
6097834987.0,893cc649433ffff,22.5745726,90.7258058,Shapur bazar,['logic_undp'],"Shapur bazar, Doulatkhan Subdistrict, Bhola District, Barishal Division, Bangladesh","শাপুর বাজার, দৌলতখান উপজেলা, ভোলা জেলা, বরিশাল বিভাগ, বাংলাদেশ",দৌলতখান উপজেলা,বাংলাদেশ,বরিশাল বিভাগ,local_admin,boundaries,['marketplace'],[],Bangladesh,Barisal,Bhola,Daulatkhan,Saidpur,5fa690b3dbb0e697f575fa03122ab377
6097834988.0,893cc6490afffff,22.5622282,90.7462496,Ice mill of Sajahan Mia,['logic_undp'],"Ice mill of Sajahan Mia, Borhanuddin Subdistrict, Bhola District, Barishal Division, Bangladesh","সাজাহান মিয়া বরফ মিল, বোরহানউদ্দিন উপজেলা, ভোলা জেলা, বরিশাল বিভাগ, বাংলাদেশ",বোরহানউদ্দিন উপজেলা,বাংলাদেশ,বরিশাল বিভাগ,local_admin,boundaries,['sawmill'],[],Bangladesh,Barisal,Bhola,Daulatkhan,Saidpur,5fa690b3dbb0e697f575fa03122ab377
6097834989.0,893cc6490afffff,22.5622108,90.7460833,West head Isahaque mor market,['logic_undp'],"West head Isahaque mor market, Borhanuddin Subdistrict, Bhola District, Barishal Division, Bangladesh","ওয়েস্ট হেড ইসাহাক এমওআর বাজার, বোরহানউদ্দিন উপজেলা, ভোলা জেলা, বরিশাল বিভাগ, বাংলাদেশ",বোরহানউদ্দিন উপজেলা,বাংলাদেশ,বরিশাল বিভাগ,local_admin,boundaries,['marketplace'],[],Bangladesh,Barisal,Bhola,Daulatkhan,Saidpur,5fa690b3dbb0e697f575fa03122ab377
6097834990.0,893cc6490afffff,22.5622975,90.7460484,Fish Store isahaque mor market,['logic_undp'],"Fish Store isahaque mor market, Borhanuddin Subdistrict, Bhola District, Barishal Division, Bangladesh","ফিশ স্টোর ইসাহাক মোর মার্কেট, বোরহানউদ্দিন উপজেলা, ভোলা জেলা, বরিশাল বিভাগ, বাংলাদেশ",বোরহানউদ্দিন উপজেলা,বাংলাদেশ,বরিশাল বিভাগ,local_admin,boundaries,['seafood'],[],Bangladesh,Barisal,Bhola,Daulatkhan,Saidpur,5fa690b3dbb0e697f575fa03122ab377
6097834991.0,893cc6490a7ffff,22.5640735,90.7465178,Market sorkari digir per.,['logic_undp'],"Market sorkari digir per., Borhanuddin Subdistrict, Bhola District, Barishal Division, Bangladesh","মার্কেট সরকারি ডিজির প্রতি।, বোরহানউদ্দিন উপজেলা, ভোলা জেলা, বরিশাল বিভাগ, বাংলাদেশ",বোরহানউদ্দিন উপজেলা,বাংলাদেশ,বরিশাল বিভাগ,local_admin,boundaries,['marketplace'],[],Bangladesh,Barisal,Bhola,Daulatkhan,Saidpur,5fa690b3dbb0e697f575fa03122ab377
6097834992.0,893cc64954bffff,22.5670507,90.7378931,Rice and flour mill of Mustafiz Manager,['logic_undp'],"Rice and flour mill of Mustafiz Manager, Borhanuddin Subdistrict, Bhola District, Barishal Division, Bangladesh","মোস্তফিজ ম্যানেজারের চাল এবং ময়দা মিল, বোরহানউদ্দিন উপজেলা, ভোলা জেলা, বরিশাল বিভাগ, বাংলাদেশ",বোরহানউদ্দিন উপজেলা,বাংলাদেশ,বরিশাল বিভাগ,local_admin,boundaries,['sawmill'],[],Bangladesh,Barisal,Bhola,Daulatkhan,Saidpur,5fa690b3dbb0e697f575fa03122ab377
6097834993.0,893cc64954bffff,22.5668872,90.7378864,Akter Bazaar,['logic_undp'],"Akter Bazaar, Borhanuddin Subdistrict, Bhola District, Barishal Division, Bangladesh","আক্তার বাজার, বোরহানউদ্দিন উপজেলা, ভোলা জেলা, বরিশাল বিভাগ, বাংলাদেশ",বোরহানউদ্দিন উপজেলা,বাংলাদেশ,বরিশাল বিভাগ,local_admin,boundaries,['marketplace'],[],Bangladesh,Barisal,Bhola,Daulatkhan,Saidpur,5fa690b3dbb0e697f575fa03122ab377
6097834994.0,893cc649087ffff,22.5649691,90.735584,Mijirhat,['logic_undp'],"Mijirhat, Borhanuddin Subdistrict, Bhola District, Barishal Division, Bangladesh","মিজিরহাত, বোরহানউদ্দিন উপজেলা, ভোলা জেলা, বরিশাল বিভাগ, বাংলাদেশ",বোরহানউদ্দিন উপজেলা,বাংলাদেশ,বরিশাল বিভাগ,local_admin,boundaries,['marketplace'],[],Bangladesh,Barisal,Bhola,Daulatkhan,Saidpur,5fa690b3dbb0e697f575fa03122ab377
6097834995.0,893cc649087ffff,22.5652326,90.7351747,Mejer hat,['logic_undp'],"Mejer hat, Borhanuddin Subdistrict, Bhola District, Barishal Division, Bangladesh","মেজর টুপি, বোরহানউদ্দিন উপজেলা, ভোলা জেলা, বরিশাল বিভাগ, বাংলাদেশ",বোরহানউদ্দিন উপজেলা,বাংলাদেশ,বরিশাল বিভাগ,local_admin,boundaries,['marketplace'],[],Bangladesh,Barisal,Bhola,Daulatkhan,Saidpur,5fa690b3dbb0e697f575fa03122ab377
6097835002.0,893cc649467ffff,22.5645812,90.7282251,Khokhn bazar,['logic_undp'],"Khokhn bazar, Borhanuddin Subdistrict, Bhola District, Barishal Division, Bangladesh","খোকন বাজার, বোরহানউদ্দিন উপজেলা, ভোলা জেলা, বরিশাল বিভাগ, বাংলাদেশ",বোরহানউদ্দিন উপজেলা,বাংলাদেশ,বরিশাল বিভাগ,local_admin,boundaries,['marketplace'],[],Bangladesh,Barisal,Bhola,Daulatkhan,Saidpur,5fa690b3dbb0e697f575fa03122ab377
6097835015.0,893cc649447ffff,22.5652104,90.7162303,Saw mil of Khokan Mia,['logic_undp'],"Saw mil of Khokan Mia, Doulatkhan Subdistrict, Bhola District, Barishal Division, Bangladesh","খোকান মিয়া এর মিল, দৌলতখান উপজেলা, ভোলা জেলা, বরিশাল বিভাগ, বাংলাদেশ",দৌলতখান উপজেলা,বাংলাদেশ,বরিশাল বিভাগ,local_admin,boundaries,['sawmill'],[],Bangladesh,Barisal,Bhola,Daulatkhan,Saidpur,5fa690b3dbb0e697f575fa03122ab377
6097835016.0,893cc649447ffff,22.5647571,90.7163134,Saw mil of Nizam Member,['logic_undp'],"Saw mil of Nizam Member, Doulatkhan Subdistrict, Bhola District, Barishal Division, Bangladesh","নিজাম সদস্যের মিল মিল, দৌলতখান উপজেলা, ভোলা জেলা, বরিশাল বিভাগ, বাংলাদেশ",দৌলতখান উপজেলা,বাংলাদেশ,বরিশাল বিভাগ,local_admin,boundaries,['sawmill'],[],Bangladesh,Barisal,Bhola,Daulatkhan,Saidpur,5fa690b3dbb0e697f575fa03122ab377
6097835017.0,893cc649447ffff,22.5642419,90.7157448,Saw mil of Mostafiz master,['logic_undp'],"Saw mil of Mostafiz master, Doulatkhan Subdistrict, Bhola District, Barishal Division, Bangladesh","মোস্তফিজ মাস্টারের মিল দেখেছি, দৌলতখান উপজেলা, ভোলা জেলা, বরিশাল বিভাগ, বাংলাদেশ",দৌলতখান উপজেলা,বাংলাদেশ,বরিশাল বিভাগ,local_admin,boundaries,['sawmill'],[],Bangladesh,Barisal,Bhola,Daulatkhan,Saidpur,5fa690b3dbb0e697f575fa03122ab377
6097835018.0,893cc649443ffff,22.5637267,90.7152835,Nurmiyar hat,['logic_undp'],"Nurmiyar hat, Doulatkhan Subdistrict, Bhola District, Barishal Division, Bangladesh","নুরমিয়ার টুপি, দৌলতখান উপজেলা, ভোলা জেলা, বরিশাল বিভাগ, বাংলাদেশ",দৌলতখান উপজেলা,বাংলাদেশ,বরিশাল বিভাগ,local_admin,boundaries,['marketplace'],[],Bangladesh,Barisal,Bhola,Daulatkhan,DakshinJoynagar,c79ccaea62f4c1da7018ec3eb288b439
6097835026.0,893cc649447ffff,22.5666568,90.7177752,Fish farm of Saha Alom,['logic_undp'],"Fish farm of Saha Alom, Borhanuddin Subdistrict, Bhola District, Barishal Division, Bangladesh","সাহা অ্যালোমের ফিশ ফার্ম, বোরহানউদ্দিন উপজেলা, ভোলা জেলা, বরিশাল বিভাগ, বাংলাদেশ",বোরহানউদ্দিন উপজেলা,বাংলাদেশ,বরিশাল বিভাগ,local_admin,boundaries,['farm'],[],Bangladesh,Barisal,Bhola,Daulatkhan,Saidpur,5fa690b3dbb0e697f575fa03122ab377
6097835027.0,893cc6490a7ffff,22.5631508,90.7469818,Teember mill of Rafiq Mia,['logic_undp'],"Teember mill of Rafiq Mia, Borhanuddin Subdistrict, Bhola District, Barishal Division, Bangladesh","রাফিক মিয়া এর টেমবার মিল, বোরহানউদ্দিন উপজেলা, ভোলা জেলা, বরিশাল বিভাগ, বাংলাদেশ",বোরহানউদ্দিন উপজেলা,বাংলাদেশ,বরিশাল বিভাগ,local_admin,boundaries,['sawmill'],[],Bangladesh,Barisal,Bhola,Daulatkhan,Saidpur,5fa690b3dbb0e697f575fa03122ab377
6097835028.0,893cc6490a7ffff,22.563557,90.7472728,Ice mill of Sahin Mia,['logic_undp'],"Ice mill of Sahin Mia, Borhanuddin Subdistrict, Bhola District, Barishal Division, Bangladesh","সহিন মিয়া আইস মিল, বোরহানউদ্দিন উপজেলা, ভোলা জেলা, বরিশাল বিভাগ, বাংলাদেশ",বোরহানউদ্দিন উপজেলা,বাংলাদেশ,বরিশাল বিভাগ,local_admin,boundaries,['sawmill'],[],Bangladesh,Barisal,Bhola,Daulatkhan,Saidpur,5fa690b3dbb0e697f575fa03122ab377
6097835029.0,893cc64956bffff,22.5684426,90.7469147,Poultry farm of Nirob,['logic_undp'],"Poultry farm of Nirob, Doulatkhan Subdistrict, Bhola District, Barishal Division, Bangladesh","নিরবের পোল্ট্রি ফার্ম, দৌলতখান উপজেলা, ভোলা জেলা, বরিশাল বিভাগ, বাংলাদেশ",দৌলতখান উপজেলা,বাংলাদেশ,বরিশাল বিভাগ,local_admin,boundaries,['farm'],[],Bangladesh,Barisal,Bhola,Daulatkhan,Saidpur,5fa690b3dbb0e697f575fa03122ab377
6097835031.0,893cc649567ffff,22.5704662,90.7498451,Fish Store old majirhat.,['logic_undp'],"Fish Store old majirhat., Doulatkhan Subdistrict, Bhola District, Barishal Division, Bangladesh","ফিশ স্টোর ওল্ড মাজিরহাত।, দৌলতখান উপজেলা, ভোলা জেলা, বরিশাল বিভাগ, বাংলাদেশ",দৌলতখান উপজেলা,বাংলাদেশ,বরিশাল বিভাগ,local_admin,boundaries,['seafood'],[],Bangladesh,Barisal,Bhola,Daulatkhan,Saidpur,5fa690b3dbb0e697f575fa03122ab377
6097835032.0,893cc649567ffff,22.5704501,90.7499792,Old majirhat Saw mill,['logic_undp'],"Old majirhat Saw mill, Doulatkhan Subdistrict, Bhola District, Barishal Division, Bangladesh","পুরাতন মাজিরহাত মিল দেখেছিল, দৌলতখান উপজেলা, ভোলা জেলা, বরিশাল বিভাগ, বাংলাদেশ",দৌলতখান উপজেলা,বাংলাদেশ,বরিশাল বিভাগ,local_admin,boundaries,['sawmill'],[],Bangladesh,Barisal,Bhola,Daulatkhan,Saidpur,5fa690b3dbb0e697f575fa03122ab377
6097835033.0,893cc649567ffff,22.5705244,90.749829,Old majirhat bazaar.,['logic_undp'],"Old majirhat bazaar., Doulatkhan Subdistrict, Bhola District, Barishal Division, Bangladesh","পুরাতন মজিরহাত বাজার।, দৌলতখান উপজেলা, ভোলা জেলা, বরিশাল বিভাগ, বাংলাদেশ",দৌলতখান উপজেলা,বাংলাদেশ,বরিশাল বিভাগ,local_admin,boundaries,['marketplace'],[],Bangladesh,Barisal,Bhola,Daulatkhan,Saidpur,5fa690b3dbb0e697f575fa03122ab377
6097835034.0,893cc649567ffff,22.5716113,90.7500851,Majirhat Salauddin shop,['logic_undp'],"Majirhat Salauddin shop, Doulatkhan Subdistrict, Bhola District, Barishal Division, Bangladesh","মজিরহাত সালৌদ্দিন শপ, দৌলতখান উপজেলা, ভোলা জেলা, বরিশাল বিভাগ, বাংলাদেশ",দৌলতখান উপজেলা,বাংলাদেশ,বরিশাল বিভাগ,local_admin,boundaries,['marketplace'],[],Bangladesh,Barisal,Bhola,Daulatkhan,Saidpur,5fa690b3dbb0e697f575fa03122ab377
6097835036.0,893cc64953bffff,22.5766679,90.7494628,Saydpur BNP Bazaar,['logic_undp'],"Saydpur BNP Bazaar, Doulatkhan Subdistrict, Bhola District, Barishal Division, Bangladesh","সাইদপুর বিএনপি বাজার, দৌলতখান উপজেলা, ভোলা জেলা, বরিশাল বিভাগ, বাংলাদেশ",দৌলতখান উপজেলা,বাংলাদেশ,বরিশাল বিভাগ,local_admin,boundaries,['marketplace'],[],Bangladesh,Barisal,Bhola,Daulatkhan,Saidpur,5fa690b3dbb0e697f575fa03122ab377
6097835037.0,893cc64953bffff,22.5768313,90.7494119,BNP bazaar . 5 n.ward,"['logic_undp', 'Cyclone']","BNP bazaar . 5 n.ward, Doulatkhan Subdistrict, Bhola District, Barishal Division, Bangladesh","বিএনপি বাজার।5 এন.ওয়ার্ড, দৌলতখান উপজেলা, ভোলা জেলা, বরিশাল বিভাগ, বাংলাদেশ",দৌলতখান উপজেলা,বাংলাদেশ,বরিশাল বিভাগ,local_admin,boundaries,['marketplace'],[],Bangladesh,Barisal,Bhola,Daulatkhan,Saidpur,5fa690b3dbb0e697f575fa03122ab377
6097835038.0,893cc64953bffff,22.5770344,90.7493381,BNP bazaar . 6 n.ward,"['logic_undp', 'Cyclone']","BNP bazaar . 6 n.ward, Doulatkhan Subdistrict, Bhola District, Barishal Division, Bangladesh","বিএনপি বাজার।6 এন.ওয়ার্ড, দৌলতখান উপজেলা, ভোলা জেলা, বরিশাল বিভাগ, বাংলাদেশ",দৌলতখান উপজেলা,বাংলাদেশ,বরিশাল বিভাগ,local_admin,boundaries,['marketplace'],[],Bangladesh,Barisal,Bhola,Daulatkhan,Saidpur,5fa690b3dbb0e697f575fa03122ab377
6097835039.0,893cc64953bffff,22.5775471,90.7495996,Saw mill of Mosarref Hossen,"['logic_undp', 'Cyclone']","Saw mill of Mosarref Hossen, Doulatkhan Subdistrict, Bhola District, Barishal Division, Bangladesh","মোসারেফ হোসেন এর মিল দেখেছেন, দৌলতখান উপজেলা, ভোলা জেলা, বরিশাল বিভাগ, বাংলাদেশ",দৌলতখান উপজেলা,বাংলাদেশ,বরিশাল বিভাগ,local_admin,boundaries,['sawmill'],[],Bangladesh,Barisal,Bhola,Daulatkhan,Saidpur,5fa690b3dbb0e697f575fa03122ab377
6097835040.0,893cc64953bffff,22.5775917,90.7496023,Ice mill of Mosarref Hossen,"['logic_undp', 'Cyclone']","Ice mill of Mosarref Hossen, Doulatkhan Subdistrict, Bhola District, Barishal Division, Bangladesh","মোসারেফ হোসেনের আইস মিল, দৌলতখান উপজেলা, ভোলা জেলা, বরিশাল বিভাগ, বাংলাদেশ",দৌলতখান উপজেলা,বাংলাদেশ,বরিশাল বিভাগ,local_admin,boundaries,['sawmill'],[],Bangladesh,Barisal,Bhola,Daulatkhan,Saidpur,5fa690b3dbb0e697f575fa03122ab377
6097835041.0,893cc64953bffff,22.5784189,90.7488057,Ghosher hat 5 n. ward,"['logic_undp', 'Cyclone']","Ghosher hat 5 n. ward, Doulatkhan Subdistrict, Bhola District, Barishal Division, Bangladesh","ঘেশার হাট 5 এন।ওয়ার্ড, দৌলতখান উপজেলা, ভোলা জেলা, বরিশাল বিভাগ, বাংলাদেশ",দৌলতখান উপজেলা,বাংলাদেশ,বরিশাল বিভাগ,local_admin,boundaries,['marketplace'],[],Bangladesh,Barisal,Bhola,Daulatkhan,Saidpur,5fa690b3dbb0e697f575fa03122ab377
6097835042.0,893cc649533ffff,22.5793575,90.7506041,Mach Ghat Mosque,"['logic_undp', 'Cyclone']","Mach Ghat Mosque, Doulatkhan Subdistrict, Bhola District, Barishal Division, Bangladesh","মাচ ঘাট মসজিদ, দৌলতখান উপজেলা, ভোলা জেলা, বরিশাল বিভাগ, বাংলাদেশ",দৌলতখান উপজেলা,বাংলাদেশ,বরিশাল বিভাগ,local_admin,boundaries,['place_of_worship_muslim'],[],Bangladesh,Barisal,Bhola,Daulatkhan,Saidpur,5fa690b3dbb0e697f575fa03122ab377
6097835043.0,893cc649533ffff,22.5790888,90.7499054,Blacksmith shop of Ronojit Kamar,"['logic_undp', 'Cyclone']","Blacksmith shop of Ronojit Kamar, Doulatkhan Subdistrict, Bhola District, Barishal Division, Bangladesh","রনোজিত কামারের কামার দোকান, দৌলতখান উপজেলা, ভোলা জেলা, বরিশাল বিভাগ, বাংলাদেশ",দৌলতখান উপজেলা,বাংলাদেশ,বরিশাল বিভাগ,local_admin,boundaries,['houseware'],[],Bangladesh,Barisal,Bhola,Daulatkhan,Saidpur,5fa690b3dbb0e697f575fa03122ab377
6097835045.0,893cc649533ffff,22.5789068,90.7488164,Blacksmith shop of Nirmol Boiddo,"['logic_undp', 'Cyclone']","Blacksmith shop of Nirmol Boiddo, Doulatkhan Subdistrict, Bhola District, Barishal Division, Bangladesh","নির্মল বোয়িদোর কামার দোকান, দৌলতখান উপজেলা, ভোলা জেলা, বরিশাল বিভাগ, বাংলাদেশ",দৌলতখান উপজেলা,বাংলাদেশ,বরিশাল বিভাগ,local_admin,boundaries,['houseware'],[],Bangladesh,Barisal,Bhola,Daulatkhan,Saidpur,5fa690b3dbb0e697f575fa03122ab377
6097835046.0,893cc649507ffff,22.5787953,90.7486662,Ghosher hat 6 n. ward,"['logic_undp', 'Cyclone']","Ghosher hat 6 n. ward, Doulatkhan Subdistrict, Bhola District, Barishal Division, Bangladesh","ঘেশার হাট 6 এন।ওয়ার্ড, দৌলতখান উপজেলা, ভোলা জেলা, বরিশাল বিভাগ, বাংলাদেশ",দৌলতখান উপজেলা,বাংলাদেশ,বরিশাল বিভাগ,local_admin,boundaries,['marketplace'],[],Bangladesh,Barisal,Bhola,Daulatkhan,Saidpur,5fa690b3dbb0e697f575fa03122ab377
6097835047.0,893cc649507ffff,22.578934,90.748634,Ghosher Hat bazaar jame mosque,['logic_undp'],"Ghosher Hat bazaar jame mosque, Doulatkhan Subdistrict, Bhola District, Barishal Division, Bangladesh","ঘেশার হাট বাজার জামে মসজিদ, দৌলতখান উপজেলা, ভোলা জেলা, বরিশাল বিভাগ, বাংলাদেশ",দৌলতখান উপজেলা,বাংলাদেশ,বরিশাল বিভাগ,local_admin,boundaries,['place_of_worship_muslim'],[],Bangladesh,Barisal,Bhola,Daulatkhan,Saidpur,5fa690b3dbb0e697f575fa03122ab377
6097835048.0,893cc64950fffff,22.5775471,90.746609,Rice mill of Lito,['logic_undp'],"Rice mill of Lito, Doulatkhan Subdistrict, Bhola District, Barishal Division, Bangladesh","লিটোর রাইস মিল, দৌলতখান উপজেলা, ভোলা জেলা, বরিশাল বিভাগ, বাংলাদেশ",দৌলতখান উপজেলা,বাংলাদেশ,বরিশাল বিভাগ,local_admin,boundaries,['sawmill'],[],Bangladesh,Barisal,Bhola,Daulatkhan,Saidpur,5fa690b3dbb0e697f575fa03122ab377
6097835060.0,893cc6495afffff,22.5832754,90.7495621,Lahari Jangal Bazar (a part of ward no 4),['logic_undp'],"Lahari Jangal Bazar a part of ward no 4, Doulatkhan Subdistrict, Bhola District, Barishal Division, Bangladesh","লাহারি জাঙ্গাল বাজার 4 নং ওয়ার্ডের একটি অংশ, দৌলতখান উপজেলা, ভোলা জেলা, বরিশাল বিভাগ, বাংলাদেশ",দৌলতখান উপজেলা,বাংলাদেশ,বরিশাল বিভাগ,local_admin,boundaries,['marketplace'],[],Bangladesh,Barisal,Bhola,Daulatkhan,Saidpur,5fa690b3dbb0e697f575fa03122ab377
6097835061.0,893cc6495b3ffff,22.5876849,90.7445155,Lahari Jangal Bazar (a part of ward no 4),['logic_undp'],"Lahari Jangal Bazar a part of ward no 4, Doulatkhan Subdistrict, Bhola District, Barishal Division, Bangladesh","লাহারি জাঙ্গাল বাজার 4 নং ওয়ার্ডের একটি অংশ, দৌলতখান উপজেলা, ভোলা জেলা, বরিশাল বিভাগ, বাংলাদেশ",দৌলতখান উপজেলা,বাংলাদেশ,বরিশাল বিভাগ,local_admin,boundaries,['marketplace'],[],Bangladesh,Barisal,Bhola,Daulatkhan,Paurashava,9a47094f62e89d06a529226462ae23d1
6097835072.0,893cc6495a3ffff,22.5858684,90.7477932,Vegetable farm of Malek,"['logic_undp', 'Cyclone']","Vegetable farm of Malek, Doulatkhan Subdistrict, Bhola District, Barishal Division, Bangladesh","মালেকের উদ্ভিজ্জ খামার, দৌলতখান উপজেলা, ভোলা জেলা, বরিশাল বিভাগ, বাংলাদেশ",দৌলতখান উপজেলা,বাংলাদেশ,বরিশাল বিভাগ,local_admin,boundaries,['farm'],[],Bangladesh,Barisal,Bhola,Daulatkhan,Saidpur,5fa690b3dbb0e697f575fa03122ab377
6097835073.0,893cc6495a7ffff,22.5857594,90.7510856,Vegetable farm of Amin Majhi,"['logic_undp', 'Cyclone']","Vegetable farm of Amin Majhi, Doulatkhan Subdistrict, Bhola District, Barishal Division, Bangladesh","আমিন মাজির উদ্ভিজ্জ খামার, দৌলতখান উপজেলা, ভোলা জেলা, বরিশাল বিভাগ, বাংলাদেশ",দৌলতখান উপজেলা,বাংলাদেশ,বরিশাল বিভাগ,local_admin,boundaries,['farm'],[],Bangladesh,Barisal,Bhola,Daulatkhan,Saidpur,5fa690b3dbb0e697f575fa03122ab377
6097835074.0,893cc6495a7ffff,22.5858993,90.7518983,Vegetable farm of Alom Mia,"['logic_undp', 'Cyclone']","Vegetable farm of Alom Mia, Doulatkhan Subdistrict, Bhola District, Barishal Division, Bangladesh","অ্যালম মিয়া এর উদ্ভিজ্জ খামার, দৌলতখান উপজেলা, ভোলা জেলা, বরিশাল বিভাগ, বাংলাদেশ",দৌলতখান উপজেলা,বাংলাদেশ,বরিশাল বিভাগ,local_admin,boundaries,['farm'],[],Bangladesh,Barisal,Bhola,Daulatkhan,Saidpur,5fa690b3dbb0e697f575fa03122ab377
6098350503.0,893cc64950fffff,22.5766852,90.7453161,South Saidpur Nurullah Government Primary school,['logic_undp'],"South Saidpur Nurullah Government Primary school, Doulatkhan Subdistrict, Bhola District, Barishal Division, Bangladesh","দক্ষিণ সাইদপুর নুরুল্লাহ সরকার প্রাথমিক বিদ্যালয়, দৌলতখান উপজেলা, ভোলা জেলা, বরিশাল বিভাগ, বাংলাদেশ",দৌলতখান উপজেলা,বাংলাদেশ,বরিশাল বিভাগ,local_admin,boundaries,['school'],[],Bangladesh,Barisal,Bhola,Daulatkhan,Saidpur,5fa690b3dbb0e697f575fa03122ab377
6098350504.0,893cc64950bffff,22.5761106,90.7422289,Maktab of Ahmedullah Maolana,['logic_undp'],"Maktab of Ahmedullah Maolana, Doulatkhan Subdistrict, Bhola District, Barishal Division, Bangladesh","আহমেদুল্লাহ মাওলানার ম্যাকতব, দৌলতখান উপজেলা, ভোলা জেলা, বরিশাল বিভাগ, বাংলাদেশ",দৌলতখান উপজেলা,বাংলাদেশ,বরিশাল বিভাগ,local_admin,boundaries,['school'],[],Bangladesh,Barisal,Bhola,Daulatkhan,Saidpur,5fa690b3dbb0e697f575fa03122ab377
6098350505.0,893cc64950bffff,22.5757614,90.7409897,61 no Shukdeb Govt. Primary School.,['logic_undp'],"61 no Shukdeb Govt. Primary School., Doulatkhan Subdistrict, Bhola District, Barishal Division, Bangladesh","61 কোনও শুকদেব সরকার নেই।প্রাথমিক বিদ্যালয়।, দৌলতখান উপজেলা, ভোলা জেলা, বরিশাল বিভাগ, বাংলাদেশ",দৌলতখান উপজেলা,বাংলাদেশ,বরিশাল বিভাগ,local_admin,boundaries,['school'],[],Bangladesh,Barisal,Bhola,Daulatkhan,Saidpur,5fa690b3dbb0e697f575fa03122ab377
6098350508.0,893cc6495dbffff,22.5780746,90.729357,Moktob of Bokter house,['logic_undp'],"Moktob of Bokter house, Doulatkhan Subdistrict, Bhola District, Barishal Division, Bangladesh","বোকার হাউসের মোকটোব, দৌলতখান উপজেলা, ভোলা জেলা, বরিশাল বিভাগ, বাংলাদেশ",দৌলতখান উপজেলা,বাংলাদেশ,বরিশাল বিভাগ,local_admin,boundaries,['school'],[],Bangladesh,Barisal,Bhola,Daulatkhan,Saidpur,5fa690b3dbb0e697f575fa03122ab377
6098350511.0,893cc64954fffff,22.5682767,90.7420009,"Ebtedaee Darul Ulum Madrasa , Char Shuvi",['logic_undp'],"Ebtedaee Darul Ulum Madrasa Char Shuvi, Doulatkhan Subdistrict, Bhola District, Barishal Division, Bangladesh","ইবেডেই দারুল উলুম মাদ্রাসার চর শুভি, দৌলতখান উপজেলা, ভোলা জেলা, বরিশাল বিভাগ, বাংলাদেশ",দৌলতখান উপজেলা,বাংলাদেশ,বরিশাল বিভাগ,local_admin,boundaries,['school'],[],Bangladesh,Barisal,Bhola,Daulatkhan,Saidpur,5fa690b3dbb0e697f575fa03122ab377
6098350512.0,893cc64954bffff,22.5668773,90.7382968,Maktab beside Sahjahan Kerani house,['logic_undp'],"Maktab beside Sahjahan Kerani house, Borhanuddin Subdistrict, Bhola District, Barishal Division, Bangladesh","সহজাহান কেরানী বাড়ির পাশে মক্তাব, বোরহানউদ্দিন উপজেলা, ভোলা জেলা, বরিশাল বিভাগ, বাংলাদেশ",বোরহানউদ্দিন উপজেলা,বাংলাদেশ,বরিশাল বিভাগ,local_admin,boundaries,['school'],[],Bangladesh,Barisal,Bhola,Daulatkhan,Saidpur,5fa690b3dbb0e697f575fa03122ab377
6098350513.0,893cc64954bffff,22.5669243,90.7371166,Moktob in front of Mahajon house,['logic_undp'],"Moktob in front of Mahajon house, Borhanuddin Subdistrict, Bhola District, Barishal Division, Bangladesh","মহাজন বাড়ির সামনে মোকটব, বোরহানউদ্দিন উপজেলা, ভোলা জেলা, বরিশাল বিভাগ, বাংলাদেশ",বোরহানউদ্দিন উপজেলা,বাংলাদেশ,বরিশাল বিভাগ,local_admin,boundaries,['school'],[],Bangladesh,Barisal,Bhola,Daulatkhan,Saidpur,5fa690b3dbb0e697f575fa03122ab377
6098350514.0,893cc6490a7ffff,22.5632004,90.7457077,Vacant school building,['logic_undp'],"Vacant school building, Borhanuddin Subdistrict, Bhola District, Barishal Division, Bangladesh","খালি স্কুল বিল্ডিং, বোরহানউদ্দিন উপজেলা, ভোলা জেলা, বরিশাল বিভাগ, বাংলাদেশ",বোরহানউদ্দিন উপজেলা,বাংলাদেশ,বরিশাল বিভাগ,local_admin,boundaries,['school'],[],Bangladesh,Barisal,Bhola,Daulatkhan,Saidpur,5fa690b3dbb0e697f575fa03122ab377
6098350515.0,893cc6490a7ffff,22.563401,90.7454623,4 no Char Shuvi junior high school.,"['logic_undp', 'High tide']","4 no Char Shuvi junior high school., Borhanuddin Subdistrict, Bhola District, Barishal Division, Bangladesh","4 কোনও চর শুভি জুনিয়র হাই স্কুল নেই, বোরহানউদ্দিন উপজেলা, ভোলা জেলা, বরিশাল বিভাগ, বাংলাদেশ",বোরহানউদ্দিন উপজেলা,বাংলাদেশ,বরিশাল বিভাগ,local_admin,boundaries,['school'],[],Bangladesh,Barisal,Bhola,Daulatkhan,Saidpur,5fa690b3dbb0e697f575fa03122ab377
6098350516.0,893cc649087ffff,22.5640103,90.7373406,Moktob Meanudin house.,['logic_undp'],"Moktob Meanudin house., Borhanuddin Subdistrict, Bhola District, Barishal Division, Bangladesh","মোকটোব মিনুডিন হাউস।, বোরহানউদ্দিন উপজেলা, ভোলা জেলা, বরিশাল বিভাগ, বাংলাদেশ",বোরহানউদ্দিন উপজেলা,বাংলাদেশ,বরিশাল বিভাগ,local_admin,boundaries,['school'],[],Bangladesh,Barisal,Bhola,Daulatkhan,Saidpur,5fa690b3dbb0e697f575fa03122ab377
6098350517.0,893cc64942fffff,22.5673231,90.7312641,39 no. Choto Doli govt.primary school and cyclon shelter,['logic_undp'],"39 no. Choto Doli govt.primary school and cyclon shelter, Borhanuddin Subdistrict, Bhola District, Barishal Division, Bangladesh","39 না।চোটো দোলি সরকার। প্রাইমারি স্কুল এবং সাইক্লন শেল্টার, বোরহানউদ্দিন উপজেলা, ভোলা জেলা, বরিশাল বিভাগ, বাংলাদেশ",বোরহানউদ্দিন উপজেলা,বাংলাদেশ,বরিশাল বিভাগ,local_admin,boundaries,['school'],[],Bangladesh,Barisal,Bhola,Daulatkhan,Saidpur,5fa690b3dbb0e697f575fa03122ab377
6098350518.0,893cc6490a3ffff,22.5634295,90.7432052,Moktob patowary house.,['logic_undp'],"Moktob patowary house., Borhanuddin Subdistrict, Bhola District, Barishal Division, Bangladesh","মোকটব প্যাটোয়ারি হাউস।, বোরহানউদ্দিন উপজেলা, ভোলা জেলা, বরিশাল বিভাগ, বাংলাদেশ",বোরহানউদ্দিন উপজেলা,বাংলাদেশ,বরিশাল বিভাগ,local_admin,boundaries,['school'],[],Bangladesh,Barisal,Bhola,Daulatkhan,Saidpur,5fa690b3dbb0e697f575fa03122ab377
6098350519.0,893cc6490a3ffff,22.5617662,90.7419553,Talukder para nurani hafeji Madrasa,['logic_undp'],"Talukder para nurani hafeji Madrasa, Borhanuddin Subdistrict, Bhola District, Barishal Division, Bangladesh","তালুকদার প্যারা নুরানি হাফেজি মাদ্রাস, বোরহানউদ্দিন উপজেলা, ভোলা জেলা, বরিশাল বিভাগ, বাংলাদেশ",বোরহানউদ্দিন উপজেলা,বাংলাদেশ,বরিশাল বিভাগ,local_admin,boundaries,['school'],[],Bangladesh,Barisal,Bhola,Daulatkhan,Saidpur,5fa690b3dbb0e697f575fa03122ab377
6098350520.0,893cc64908fffff,22.5619396,90.735573,Borodholi Madrasa jame mosque,['logic_undp'],"Borodholi Madrasa jame mosque, Borhanuddin Subdistrict, Bhola District, Barishal Division, Bangladesh","বোরোধলি মাদ্রাসার জামে মসজিদ, বোরহানউদ্দিন উপজেলা, ভোলা জেলা, বরিশাল বিভাগ, বাংলাদেশ",বোরহানউদ্দিন উপজেলা,বাংলাদেশ,বরিশাল বিভাগ,local_admin,boundaries,['place_of_worship_muslim'],[],Bangladesh,Barisal,Bhola,Daulatkhan,Saidpur,5fa690b3dbb0e697f575fa03122ab377
6098350521.0,893cc649437ffff,22.57525,90.7308805,Rohima khanom Hefzo khana,"['logic_undp', 'Cyclon']","Rohima khanom Hefzo khana, Doulatkhan Subdistrict, Bhola District, Barishal Division, Bangladesh","রোহিমা খানম হেফজো খানা, দৌলতখান উপজেলা, ভোলা জেলা, বরিশাল বিভাগ, বাংলাদেশ",দৌলতখান উপজেলা,বাংলাদেশ,বরিশাল বিভাগ,local_admin,boundaries,['school'],[],Bangladesh,Barisal,Bhola,Daulatkhan,Saidpur,5fa690b3dbb0e697f575fa03122ab377
6098350522.0,893cc649437ffff,22.573359,90.7305291,Hazi S M govt. primary school and cyclon shelter,['logic_undp'],"Hazi S M govt. primary school and cyclon shelter, Doulatkhan Subdistrict, Bhola District, Barishal Division, Bangladesh","হাজি এস এম সরকারপ্রাথমিক বিদ্যালয় এবং সাইক্লন শেল্টার, দৌলতখান উপজেলা, ভোলা জেলা, বরিশাল বিভাগ, বাংলাদেশ",দৌলতখান উপজেলা,বাংলাদেশ,বরিশাল বিভাগ,local_admin,boundaries,['school'],[],Bangladesh,Barisal,Bhola,Daulatkhan,Saidpur,5fa690b3dbb0e697f575fa03122ab377
6098350523.0,893cc649437ffff,22.5733194,90.7296091,Saidpur secondary school,['logic_undp'],"Saidpur secondary school, Doulatkhan Subdistrict, Bhola District, Barishal Division, Bangladesh","সাইদপুর মাধ্যমিক বিদ্যালয়, দৌলতখান উপজেলা, ভোলা জেলা, বরিশাল বিভাগ, বাংলাদেশ",দৌলতখান উপজেলা,বাংলাদেশ,বরিশাল বিভাগ,local_admin,boundaries,['school'],[],Bangladesh,Barisal,Bhola,Daulatkhan,Saidpur,5fa690b3dbb0e697f575fa03122ab377
6098350524.0,893cc649433ffff,22.5733887,90.7268572,52 no. Hazipur Govt. primary school and cyclon shelter,['logic_undp'],"52 no. Hazipur Govt. primary school and cyclon shelter, Doulatkhan Subdistrict, Bhola District, Barishal Division, Bangladesh","52 না।হাজিপুর সরকারপ্রাথমিক বিদ্যালয় এবং ঘূর্ণিঝড় আশ্রয়, দৌলতখান উপজেলা, ভোলা জেলা, বরিশাল বিভাগ, বাংলাদেশ",দৌলতখান উপজেলা,বাংলাদেশ,বরিশাল বিভাগ,local_admin,boundaries,['school'],[],Bangladesh,Barisal,Bhola,Daulatkhan,Saidpur,5fa690b3dbb0e697f575fa03122ab377
6098350525.0,893cc64942bffff,22.5675733,90.729416,Ibtadei Arabiya Madrasa,['logic_undp'],"Ibtadei Arabiya Madrasa, Borhanuddin Subdistrict, Bhola District, Barishal Division, Bangladesh","ইবতাদেই আরবিয়া মাদ্রাসা, বোরহানউদ্দিন উপজেলা, ভোলা জেলা, বরিশাল বিভাগ, বাংলাদেশ",বোরহানউদ্দিন উপজেলা,বাংলাদেশ,বরিশাল বিভাগ,local_admin,boundaries,['school'],[],Bangladesh,Barisal,Bhola,Daulatkhan,Saidpur,5fa690b3dbb0e697f575fa03122ab377
6098350526.0,893cc649467ffff,22.5650246,90.7272756,Afiroddi Forize moktob,['logic_undp'],"Afiroddi Forize moktob, Borhanuddin Subdistrict, Bhola District, Barishal Division, Bangladesh","আফিরোদ্দি মোকটোবকে ফোরাইজ করুন, বোরহানউদ্দিন উপজেলা, ভোলা জেলা, বরিশাল বিভাগ, বাংলাদেশ",বোরহানউদ্দিন উপজেলা,বাংলাদেশ,বরিশাল বিভাগ,local_admin,boundaries,['school'],[],Bangladesh,Barisal,Bhola,Daulatkhan,Saidpur,5fa690b3dbb0e697f575fa03122ab377
6098350527.0,893cc649473ffff,22.5664055,90.7214365,36 no. Govt. primary school and cyclon shelter,['logic_undp'],"36 no. Govt. primary school and cyclon shelter, Borhanuddin Subdistrict, Bhola District, Barishal Division, Bangladesh","36 না।সরকারপ্রাথমিক বিদ্যালয় এবং সাইক্লন শেল্টার, বোরহানউদ্দিন উপজেলা, ভোলা জেলা, বরিশাল বিভাগ, বাংলাদেশ",বোরহানউদ্দিন উপজেলা,বাংলাদেশ,বরিশাল বিভাগ,local_admin,boundaries,['school'],[],Bangladesh,Barisal,Bhola,Daulatkhan,Saidpur,5fa690b3dbb0e697f575fa03122ab377
6098350528.0,893cc649473ffff,22.566533,90.7196903,Islamic foundation's Moktob,['logic_undp'],"Islamic foundation's Moktob, Borhanuddin Subdistrict, Bhola District, Barishal Division, Bangladesh","ইসলামিক ফাউন্ডেশনের মোকটোব, বোরহানউদ্দিন উপজেলা, ভোলা জেলা, বরিশাল বিভাগ, বাংলাদেশ",বোরহানউদ্দিন উপজেলা,বাংলাদেশ,বরিশাল বিভাগ,local_admin,boundaries,['school'],[],Bangladesh,Barisal,Bhola,Daulatkhan,Saidpur,5fa690b3dbb0e697f575fa03122ab377
6098350529.0,893cc649463ffff,22.5638605,90.7229573,Abdur Rosidiya Hafiziya Nurani Madrasa,['logic_undp'],"Abdur Rosidiya Hafiziya Nurani Madrasa, Borhanuddin Subdistrict, Bhola District, Barishal Division, Bangladesh","আবদুর রোসিডিয়া হাফিজিয়া নুরানী মাদ্রাস, বোরহানউদ্দিন উপজেলা, ভোলা জেলা, বরিশাল বিভাগ, বাংলাদেশ",বোরহানউদ্দিন উপজেলা,বাংলাদেশ,বরিশাল বিভাগ,local_admin,boundaries,['school'],[],Bangladesh,Barisal,Bhola,Daulatkhan,Saidpur,5fa690b3dbb0e697f575fa03122ab377
6098350530.0,893cc649463ffff,22.5641317,90.7220949,Abdur Rosidiya Hafiziya Nurani Madrasa,['logic_undp'],"Abdur Rosidiya Hafiziya Nurani Madrasa, Borhanuddin Subdistrict, Bhola District, Barishal Division, Bangladesh","আবদুর রোসিডিয়া হাফিজিয়া নুরানী মাদ্রাস, বোরহানউদ্দিন উপজেলা, ভোলা জেলা, বরিশাল বিভাগ, বাংলাদেশ",বোরহানউদ্দিন উপজেলা,বাংলাদেশ,বরিশাল বিভাগ,local_admin,boundaries,['school'],[],Bangladesh,Barisal,Bhola,Daulatkhan,Saidpur,5fa690b3dbb0e697f575fa03122ab377
6098350531.0,893cc649447ffff,22.5653367,90.7159379,Nurmiyar Hat children Academy,['logic_undp'],"Nurmiyar Hat children Academy, Doulatkhan Subdistrict, Bhola District, Barishal Division, Bangladesh","নুরমিয়ার হ্যাট চিলড্রেন একাডেমি, দৌলতখান উপজেলা, ভোলা জেলা, বরিশাল বিভাগ, বাংলাদেশ",দৌলতখান উপজেলা,বাংলাদেশ,বরিশাল বিভাগ,local_admin,boundaries,['school'],[],Bangladesh,Barisal,Bhola,Daulatkhan,Saidpur,5fa690b3dbb0e697f575fa03122ab377
6098350534.0,893cc649503ffff,22.5770511,90.7421051,45 n. Borodholi government primary school,['logic_undp'],"45 n. Borodholi government primary school, Doulatkhan Subdistrict, Bhola District, Barishal Division, Bangladesh","45 এন।বোরোধলি সরকারী প্রাথমিক বিদ্যালয়, দৌলতখান উপজেলা, ভোলা জেলা, বরিশাল বিভাগ, বাংলাদেশ",দৌলতখান উপজেলা,বাংলাদেশ,বরিশাল বিভাগ,local_admin,boundaries,['school'],[],Bangladesh,Barisal,Bhola,Daulatkhan,Saidpur,5fa690b3dbb0e697f575fa03122ab377
6098350535.0,893cc649503ffff,22.5771501,90.7422982,Abandoned building of 45 n. Borodholi government primary school,['logic_undp'],"Abandoned building of 45 n. Borodholi government primary school, Doulatkhan Subdistrict, Bhola District, Barishal Division, Bangladesh","45 এন এর পরিত্যক্ত বিল্ডিং।বোরোধলি সরকারী প্রাথমিক বিদ্যালয়, দৌলতখান উপজেলা, ভোলা জেলা, বরিশাল বিভাগ, বাংলাদেশ",দৌলতখান উপজেলা,বাংলাদেশ,বরিশাল বিভাগ,local_admin,boundaries,['school'],[],Bangladesh,Barisal,Bhola,Daulatkhan,Saidpur,5fa690b3dbb0e697f575fa03122ab377
6098350536.0,893cc6495cfffff,22.5756186,90.7375212,Maktab beside Sahjahan Kerani house,['logic_undp'],"Maktab beside Sahjahan Kerani house, Doulatkhan Subdistrict, Bhola District, Barishal Division, Bangladesh","সহজাহান কেরানী বাড়ির পাশে মক্তাব, দৌলতখান উপজেলা, ভোলা জেলা, বরিশাল বিভাগ, বাংলাদেশ",দৌলতখান উপজেলা,বাংলাদেশ,বরিশাল বিভাগ,local_admin,boundaries,['school'],[],Bangladesh,Barisal,Bhola,Daulatkhan,Saidpur,5fa690b3dbb0e697f575fa03122ab377
6098350537.0,893cc6495bbffff,22.5851933,90.7449147,South Saidpur Nurullah Government Primary school,['logic_undp'],"South Saidpur Nurullah Government Primary school, Doulatkhan Subdistrict, Bhola District, Barishal Division, Bangladesh","দক্ষিণ সাইদপুর নুরুল্লাহ সরকার প্রাথমিক বিদ্যালয়, দৌলতখান উপজেলা, ভোলা জেলা, বরিশাল বিভাগ, বাংলাদেশ",দৌলতখান উপজেলা,বাংলাদেশ,বরিশাল বিভাগ,local_admin,boundaries,['school'],[],Bangladesh,Barisal,Bhola,Daulatkhan,Saidpur,5fa690b3dbb0e697f575fa03122ab377
6098350543.0,893cc649573ffff,22.5721998,90.7444315,4 no Char Shuvi junior high school.,"['logic_undp', 'High tide']","4 no Char Shuvi junior high school., Doulatkhan Subdistrict, Bhola District, Barishal Division, Bangladesh","4 কোনও চর শুভি জুনিয়র হাই স্কুল নেই, দৌলতখান উপজেলা, ভোলা জেলা, বরিশাল বিভাগ, বাংলাদেশ",দৌলতখান উপজেলা,বাংলাদেশ,বরিশাল বিভাগ,local_admin,boundaries,['school'],[],Bangladesh,Barisal,Bhola,Daulatkhan,Saidpur,5fa690b3dbb0e697f575fa03122ab377
6098350545.0,893cc64951bffff,22.5771514,90.7408212,"Ebtedaee Darul Ulum Madrasa , Char Shuvi",['logic_undp'],"Ebtedaee Darul Ulum Madrasa Char Shuvi, Doulatkhan Subdistrict, Bhola District, Barishal Division, Bangladesh","ইবেডেই দারুল উলুম মাদ্রাসার চর শুভি, দৌলতখান উপজেলা, ভোলা জেলা, বরিশাল বিভাগ, বাংলাদেশ",দৌলতখান উপজেলা,বাংলাদেশ,বরিশাল বিভাগ,local_admin,boundaries,['school'],[],Bangladesh,Barisal,Bhola,Daulatkhan,Saidpur,5fa690b3dbb0e697f575fa03122ab377
6098350547.0,893cc64b36bffff,22.5815136,90.7284886,Hazi S M govt. primary school and cyclon shelter,['logic_undp'],"Hazi S M govt. primary school and cyclon shelter, Doulatkhan Subdistrict, Bhola District, Barishal Division, Bangladesh","হাজি এস এম সরকারপ্রাথমিক বিদ্যালয় এবং সাইক্লন শেল্টার, দৌলতখান উপজেলা, ভোলা জেলা, বরিশাল বিভাগ, বাংলাদেশ",দৌলতখান উপজেলা,বাংলাদেশ,বরিশাল বিভাগ,local_admin,boundaries,['school'],[],Bangladesh,Barisal,Bhola,Daulatkhan,Saidpur,5fa690b3dbb0e697f575fa03122ab377
6098350548.0,893cc6494afffff,22.5763232,90.727118,Ibtadei Arabiya Madrasa,['logic_undp'],"Ibtadei Arabiya Madrasa, Doulatkhan Subdistrict, Bhola District, Barishal Division, Bangladesh","ইবতাদেই আরবিয়া মাদ্রাসা, দৌলতখান উপজেলা, ভোলা জেলা, বরিশাল বিভাগ, বাংলাদেশ",দৌলতখান উপজেলা,বাংলাদেশ,বরিশাল বিভাগ,local_admin,boundaries,['school'],[],Bangladesh,Barisal,Bhola,Daulatkhan,Saidpur,5fa690b3dbb0e697f575fa03122ab377
6098350549.0,893cc6495cfffff,22.5756227,90.7366353,Moktob in front of Mahajon house,['logic_undp'],"Moktob in front of Mahajon house, Doulatkhan Subdistrict, Bhola District, Barishal Division, Bangladesh","মহাজন বাড়ির সামনে মোকটব, দৌলতখান উপজেলা, ভোলা জেলা, বরিশাল বিভাগ, বাংলাদেশ",দৌলতখান উপজেলা,বাংলাদেশ,বরিশাল বিভাগ,local_admin,boundaries,['school'],[],Bangladesh,Barisal,Bhola,Daulatkhan,Saidpur,5fa690b3dbb0e697f575fa03122ab377
6098350550.0,893cc649437ffff,22.5755719,90.7308749,39 no. Choto Doli govt.primary school and cyclon shelter,['logic_undp'],"39 no. Choto Doli govt.primary school and cyclon shelter, Doulatkhan Subdistrict, Bhola District, Barishal Division, Bangladesh","39 না।চোটো দোলি সরকার। প্রাইমারি স্কুল এবং সাইক্লন শেল্টার, দৌলতখান উপজেলা, ভোলা জেলা, বরিশাল বিভাগ, বাংলাদেশ",দৌলতখান উপজেলা,বাংলাদেশ,বরিশাল বিভাগ,local_admin,boundaries,['school'],[],Bangladesh,Barisal,Bhola,Daulatkhan,Saidpur,5fa690b3dbb0e697f575fa03122ab377
6098350551.0,893cc649433ffff,22.5740646,90.7260364,Afiroddi Forize moktob,['logic_undp'],"Afiroddi Forize moktob, Doulatkhan Subdistrict, Bhola District, Barishal Division, Bangladesh","আফিরোদ্দি মোকটোবকে ফোরাইজ করুন, দৌলতখান উপজেলা, ভোলা জেলা, বরিশাল বিভাগ, বাংলাদেশ",দৌলতখান উপজেলা,বাংলাদেশ,বরিশাল বিভাগ,local_admin,boundaries,['school'],[],Bangladesh,Barisal,Bhola,Daulatkhan,Saidpur,5fa690b3dbb0e697f575fa03122ab377
6098350552.0,893cc649413ffff,22.5744584,90.7157927,Nurmiyar Hat children Academy,['logic_undp'],"Nurmiyar Hat children Academy, Doulatkhan Subdistrict, Bhola District, Barishal Division, Bangladesh","নুরমিয়ার হ্যাট চিলড্রেন একাডেমি, দৌলতখান উপজেলা, ভোলা জেলা, বরিশাল বিভাগ, বাংলাদেশ",দৌলতখান উপজেলা,বাংলাদেশ,বরিশাল বিভাগ,local_admin,boundaries,['school'],[],Bangladesh,Barisal,Bhola,Daulatkhan,DakshinJoynagar,c79ccaea62f4c1da7018ec3eb288b439
6098350553.0,893cc6494b7ffff,22.5819234,90.7259969,52 no. Hazipur Govt. primary school and cyclon shelter,['logic_undp'],"52 no. Hazipur Govt. primary school and cyclon shelter, Doulatkhan Subdistrict, Bhola District, Barishal Division, Bangladesh","52 না।হাজিপুর সরকারপ্রাথমিক বিদ্যালয় এবং ঘূর্ণিঝড় আশ্রয়, দৌলতখান উপজেলা, ভোলা জেলা, বরিশাল বিভাগ, বাংলাদেশ",দৌলতখান উপজেলা,বাংলাদেশ,বরিশাল বিভাগ,local_admin,boundaries,['school'],[],Bangladesh,Barisal,Bhola,Daulatkhan,CharKhalifa,671566de413f655a7136598c98845b4d
6098350557.0,893cc649507ffff,22.5786034,90.7483175,Char Boro lamchi government primary school,['logic_undp'],"Char Boro lamchi government primary school, Doulatkhan Subdistrict, Bhola District, Barishal Division, Bangladesh","চর বোরো লামচি সরকারী প্রাথমিক বিদ্যালয়, দৌলতখান উপজেলা, ভোলা জেলা, বরিশাল বিভাগ, বাংলাদেশ",দৌলতখান উপজেলা,বাংলাদেশ,বরিশাল বিভাগ,local_admin,boundaries,['school'],[],Bangladesh,Barisal,Bhola,Daulatkhan,Saidpur,5fa690b3dbb0e697f575fa03122ab377
6098350558.0,893cc649507ffff,22.5790851,90.7485992,Maktab of Ghosher Hat bazaar jame mosque,['logic_undp'],"Maktab of Ghosher Hat bazaar jame mosque, Doulatkhan Subdistrict, Bhola District, Barishal Division, Bangladesh","ঘোশার হাট বাজার জামে মসজিদ এর ম্যাকটব, দৌলতখান উপজেলা, ভোলা জেলা, বরিশাল বিভাগ, বাংলাদেশ",দৌলতখান উপজেলা,বাংলাদেশ,বরিশাল বিভাগ,local_admin,boundaries,['school'],[],Bangladesh,Barisal,Bhola,Daulatkhan,Saidpur,5fa690b3dbb0e697f575fa03122ab377
6098350559.0,893cc6495abffff,22.583803,90.747014,38 n. Modonpur government primary school,['logic_undp'],"38 n. Modonpur government primary school, Doulatkhan Subdistrict, Bhola District, Barishal Division, Bangladesh","38 এন।মোডনপুর সরকারী প্রাথমিক বিদ্যালয়, দৌলতখান উপজেলা, ভোলা জেলা, বরিশাল বিভাগ, বাংলাদেশ",দৌলতখান উপজেলা,বাংলাদেশ,বরিশাল বিভাগ,local_admin,boundaries,['school'],[],Bangladesh,Barisal,Bhola,Daulatkhan,Saidpur,5fa690b3dbb0e697f575fa03122ab377
6098350560.0,893cc6495abffff,22.5826959,90.7465526,Maktab of Baitul Aman jame mosque,['logic_undp'],"Maktab of Baitul Aman jame mosque, Doulatkhan Subdistrict, Bhola District, Barishal Division, Bangladesh","বেতুল আমান জামে মসজিদের ম্যাকতব, দৌলতখান উপজেলা, ভোলা জেলা, বরিশাল বিভাগ, বাংলাদেশ",দৌলতখান উপজেলা,বাংলাদেশ,বরিশাল বিভাগ,local_admin,boundaries,['school'],[],Bangladesh,Barisal,Bhola,Daulatkhan,Saidpur,5fa690b3dbb0e697f575fa03122ab377
6098350561.0,893cc649517ffff,22.5828123,90.7431892,48 n. Saidpur government primay school,['logic_undp'],"48 n. Saidpur government primay school, Doulatkhan Subdistrict, Bhola District, Barishal Division, Bangladesh","48 এন।সাইদপুর সরকারী প্রাথমিক বিদ্যালয়, দৌলতখান উপজেলা, ভোলা জেলা, বরিশাল বিভাগ, বাংলাদেশ",দৌলতখান উপজেলা,বাংলাদেশ,বরিশাল বিভাগ,local_admin,boundaries,['school'],[],Bangladesh,Barisal,Bhola,Daulatkhan,Saidpur,5fa690b3dbb0e697f575fa03122ab377
6098350562.0,893cc6495a3ffff,22.586438,90.7486689,Miftahul Ulum Islamia Madrasah,['logic_undp'],"Miftahul Ulum Islamia Madrasah, Doulatkhan Subdistrict, Bhola District, Barishal Division, Bangladesh","মিফাহুল উলুম ইসলামিয়া মাদ্রাসাহ, দৌলতখান উপজেলা, ভোলা জেলা, বরিশাল বিভাগ, বাংলাদেশ",দৌলতখান উপজেলা,বাংলাদেশ,বরিশাল বিভাগ,local_admin,boundaries,['school'],[],Bangladesh,Barisal,Bhola,Daulatkhan,Saidpur,5fa690b3dbb0e697f575fa03122ab377
6098350563.0,893cc6495b3ffff,22.5864355,90.7465634,43 n. North Bijoypur government primary school,['logic_undp'],"43 n. North Bijoypur government primary school, Doulatkhan Subdistrict, Bhola District, Barishal Division, Bangladesh","43 এন।উত্তর বিজয়পুর সরকারী প্রাথমিক বিদ্যালয়, দৌলতখান উপজেলা, ভোলা জেলা, বরিশাল বিভাগ, বাংলাদেশ",দৌলতখান উপজেলা,বাংলাদেশ,বরিশাল বিভাগ,local_admin,boundaries,['school'],[],Bangladesh,Barisal,Bhola,Daulatkhan,Paurashava,9a47094f62e89d06a529226462ae23d1
6098350564.0,893cc6495bbffff,22.5857718,90.7462107,Charshuvi Madrasa,['logic_undp'],"Charshuvi Madrasa, Doulatkhan Subdistrict, Bhola District, Barishal Division, Bangladesh","চারশুভি মাদ্রাসা, দৌলতখান উপজেলা, ভোলা জেলা, বরিশাল বিভাগ, বাংলাদেশ",দৌলতখান উপজেলা,বাংলাদেশ,বরিশাল বিভাগ,local_admin,boundaries,['school'],[],Bangladesh,Barisal,Bhola,Daulatkhan,Saidpur,5fa690b3dbb0e697f575fa03122ab377
6098350565.0,893cc649587ffff,22.5865469,90.7418776,Maktab of Fazle Amin Mia house,['logic_undp'],"Maktab of Fazle Amin Mia house, Doulatkhan Subdistrict, Bhola District, Barishal Division, Bangladesh","ফাজল আমিন মিয়া হাউসের ম্যাকটব, দৌলতখান উপজেলা, ভোলা জেলা, বরিশাল বিভাগ, বাংলাদেশ",দৌলতখান উপজেলা,বাংলাদেশ,বরিশাল বিভাগ,local_admin,boundaries,['school'],[],Bangladesh,Barisal,Bhola,Daulatkhan,Saidpur,5fa690b3dbb0e697f575fa03122ab377
6098350566.0,893cc64b36fffff,22.5837955,90.7313043,Foyzul Ulum Nurani Madrasa,['logic_undp'],"Foyzul Ulum Nurani Madrasa, Doulatkhan Subdistrict, Bhola District, Barishal Division, Bangladesh","ফয়জুল উলুম নুরানী মাদ্রাস, দৌলতখান উপজেলা, ভোলা জেলা, বরিশাল বিভাগ, বাংলাদেশ",দৌলতখান উপজেলা,বাংলাদেশ,বরিশাল বিভাগ,local_admin,boundaries,['school'],[],Bangladesh,Barisal,Bhola,Daulatkhan,Saidpur,5fa690b3dbb0e697f575fa03122ab377
6098350567.0,893cc64b363ffff,22.5853433,90.7297909,Aslam Forije Moktob,"['logic_undp', 'Cyclon']","Aslam Forije Moktob, Doulatkhan Subdistrict, Bhola District, Barishal Division, Bangladesh","আসলাম ফোরিজে মোকটোব, দৌলতখান উপজেলা, ভোলা জেলা, বরিশাল বিভাগ, বাংলাদেশ",দৌলতখান উপজেলা,বাংলাদেশ,বরিশাল বিভাগ,local_admin,boundaries,['school'],[],Bangladesh,Barisal,Bhola,Daulatkhan,Saidpur,5fa690b3dbb0e697f575fa03122ab377
6098350568.0,893cc649583ffff,22.5865766,90.7398391,95 n. Shatbaria Government primary school,['logic_undp'],"95 n. Shatbaria Government primary school, Doulatkhan Subdistrict, Bhola District, Barishal Division, Bangladesh","95 এন।শটবারিয়া সরকারী প্রাথমিক বিদ্যালয়, দৌলতখান উপজেলা, ভোলা জেলা, বরিশাল বিভাগ, বাংলাদেশ",দৌলতখান উপজেলা,বাংলাদেশ,বরিশাল বিভাগ,local_admin,boundaries,['school'],[],Bangladesh,Barisal,Bhola,Daulatkhan,Saidpur,5fa690b3dbb0e697f575fa03122ab377
6098350569.0,893cc649597ffff,22.5884216,90.7413518,Hosainia Eatim Khana & Mohila madrasa,['logic_undp'],"Hosainia Eatim Khana & Mohila madrasa, Doulatkhan Subdistrict, Bhola District, Barishal Division, Bangladesh","হোসাইনিয়া ইটিম খানা ও মোহিলা মাদ্রাস, দৌলতখান উপজেলা, ভোলা জেলা, বরিশাল বিভাগ, বাংলাদেশ",দৌলতখান উপজেলা,বাংলাদেশ,বরিশাল বিভাগ,local_admin,boundaries,['school'],[],Bangladesh,Barisal,Bhola,Daulatkhan,CharKhalifa,671566de413f655a7136598c98845b4d
6098366779.0,893cc649547ffff,22.5710778,90.7402399,Talukder para nurani hafeji Madrasa,['logic_undp'],"Talukder para nurani hafeji Madrasa, Doulatkhan Subdistrict, Bhola District, Barishal Division, Bangladesh","তালুকদার প্যারা নুরানি হাফেজি মাদ্রাস, দৌলতখান উপজেলা, ভোলা জেলা, বরিশাল বিভাগ, বাংলাদেশ",দৌলতখান উপজেলা,বাংলাদেশ,বরিশাল বিভাগ,local_admin,boundaries,['school'],[],Bangladesh,Barisal,Bhola,Daulatkhan,Saidpur,5fa690b3dbb0e697f575fa03122ab377
6098366780.0,893cc649517ffff,22.5814223,90.7453353,Moktob beside Talpata jame mosque.,['logic_undp'],"Moktob beside Talpata jame mosque., Doulatkhan Subdistrict, Bhola District, Barishal Division, Bangladesh","তালপাটা জামে মসজিদের পাশে মোকটোব।, দৌলতখান উপজেলা, ভোলা জেলা, বরিশাল বিভাগ, বাংলাদেশ",দৌলতখান উপজেলা,বাংলাদেশ,বরিশাল বিভাগ,local_admin,boundaries,['school'],[],Bangladesh,Barisal,Bhola,Daulatkhan,Saidpur,5fa690b3dbb0e697f575fa03122ab377
6098366781.0,893cc649503ffff,22.5770711,90.7421075,Abandoned building of 45 n. Borodholi government primary school,"['logic_undp', '_']","Abandoned building of 45 n. Borodholi government primary school, Doulatkhan Subdistrict, Bhola District, Barishal Division, Bangladesh","45 এন এর পরিত্যক্ত বিল্ডিং।বোরোধলি সরকারী প্রাথমিক বিদ্যালয়, দৌলতখান উপজেলা, ভোলা জেলা, বরিশাল বিভাগ, বাংলাদেশ",দৌলতখান উপজেলা,বাংলাদেশ,বরিশাল বিভাগ,local_admin,boundaries,['school'],[],Bangladesh,Barisal,Bhola,Daulatkhan,Saidpur,5fa690b3dbb0e697f575fa03122ab377
6098366784.0,893cc649417ffff,22.5762186,90.7201125,36 no. Govt. primary school and cyclon shelter,['logic_undp'],"36 no. Govt. primary school and cyclon shelter, Doulatkhan Subdistrict, Bhola District, Barishal Division, Bangladesh","36 না।সরকারপ্রাথমিক বিদ্যালয় এবং সাইক্লন শেল্টার, দৌলতখান উপজেলা, ভোলা জেলা, বরিশাল বিভাগ, বাংলাদেশ",দৌলতখান উপজেলা,বাংলাদেশ,বরিশাল বিভাগ,local_admin,boundaries,['school'],[],Bangladesh,Barisal,Bhola,Daulatkhan,CharKhalifa,671566de413f655a7136598c98845b4d
