osm_id,h3level9,lat,lon,name,alt_names,name_en,name_bn,local_admin_name,admin0_name,admin2_name,addr_level,poi_addr_match,poi_class,poi_keywords,country,division,district,thana,union,region_hash
2571296118.0,893c1bae3abffff,25.6458795,88.7758409,চিরিরবন্দর,['Chirirbandar'],"Chirir port, Dinajpur District, Rangpur Division, Bangladesh","চিরিরবন্দর, দিনাজপুর জেলা, রংপুর বিভাগ, বাংলাদেশ",,বাংলাদেশ,রংপুর বিভাগ,admin2,boundaries,['railway_station'],[],Bangladesh,Rangpur,Dinajpur,Chirirbandar,Abdulpur,ec7cd93b9e84659ceebc99bdaae1648b
5104644462.0,893c1ba661bffff,25.800113,88.7682779,,,"Khansama, Dinajpur District, Rangpur Division, Bangladesh","দিনাজপুর জেলা, রংপুর বিভাগ, বাংলাদেশ",Khansama,বাংলাদেশ,রংপুর বিভাগ,local_admin,boundaries,['supermarket'],[],Bangladesh,Rangpur,Dinajpur,Khansama,Bhabki,fd58507d64d91dad1100ac285688983b
5104644464.0,893c1ba661bffff,25.8000164,88.7684603,,,"Khansama, Dinajpur District, Rangpur Division, Bangladesh","দিনাজপুর জেলা, রংপুর বিভাগ, বাংলাদেশ",Khansama,বাংলাদেশ,রংপুর বিভাগ,local_admin,boundaries,['restaurant'],[],Bangladesh,Rangpur,Dinajpur,Khansama,Bhabki,fd58507d64d91dad1100ac285688983b
5104644465.0,893c1ba661bffff,25.8000261,88.7683315,,,"Khansama, Dinajpur District, Rangpur Division, Bangladesh","দিনাজপুর জেলা, রংপুর বিভাগ, বাংলাদেশ",Khansama,বাংলাদেশ,রংপুর বিভাগ,local_admin,boundaries,['hospital'],[],Bangladesh,Rangpur,Dinajpur,Khansama,Bhabki,fd58507d64d91dad1100ac285688983b
5105820387.0,893c19795c7ffff,25.9832521,88.7052122,,,"Birganj, Dinajpur District, Rangpur Division, Bangladesh","দিনাজপুর জেলা, রংপুর বিভাগ, বাংলাদেশ",Birganj,বাংলাদেশ,রংপুর বিভাগ,local_admin,boundaries,['ford'],[],Bangladesh,Rangpur,Dinajpur,Birganj,Shatagram,09fbe00eaf09cad0e04ed9190d8a279a
5105895576.0,893c1979057ffff,25.955525,88.7015523,,,"Birganj, Dinajpur District, Rangpur Division, Bangladesh","দিনাজপুর জেলা, রংপুর বিভাগ, বাংলাদেশ",Birganj,বাংলাদেশ,রংপুর বিভাগ,local_admin,boundaries,['ford'],[],Bangladesh,Rangpur,Dinajpur,Birganj,Mohanpur,5dc7f543ab30e3762790fcd4f8f452ed
5127854072.0,893c1ba766bffff,25.7399306,88.740366,foot ferry,,"foot ferry, Dinajpur, Dinajpur District, Rangpur Division, Bangladesh","পা ফেরি, দিনাজপুর জেলা, রংপুর বিভাগ, বাংলাদেশ",Dinajpur,বাংলাদেশ,রংপুর বিভাগ,local_admin,boundaries,['ferry_terminal'],[],Bangladesh,Rangpur,Dinajpur,DinajpurSadar,Sundarban,7d2d0c53b84b294e39c85fbf731cf31a
5127854073.0,893c1ba766bffff,25.740011,88.7395577,foot ferry,,"foot ferry, Dinajpur, Dinajpur District, Rangpur Division, Bangladesh","পা ফেরি, দিনাজপুর জেলা, রংপুর বিভাগ, বাংলাদেশ",Dinajpur,বাংলাদেশ,রংপুর বিভাগ,local_admin,boundaries,['ferry_terminal'],[],Bangladesh,Rangpur,Dinajpur,DinajpurSadar,Sundarban,7d2d0c53b84b294e39c85fbf731cf31a
5154770240.0,893c1ba0aa7ffff,25.6947575,88.7264496,pedestrian ferry,,"pedestrian ferry, Dinajpur, Dinajpur District, Rangpur Division, Bangladesh","পথচারী ফেরি, দিনাজপুর জেলা, রংপুর বিভাগ, বাংলাদেশ",Dinajpur,বাংলাদেশ,রংপুর বিভাগ,local_admin,boundaries,['ferry_terminal'],[],Bangladesh,Rangpur,Dinajpur,DinajpurSadar,Fazilpur,057ddbb1925eafc13f649a7263d6dc14
5203684909.0,893c1bb20c7ffff,25.8643578,88.491161,Bokultala Bazar বকুলতলা বাজার,,"Bokultala Bazar, Bochaganj, Dinajpur District, Rangpur Division, Bangladesh","বকুলতলা বাজার, দিনাজপুর জেলা, রংপুর বিভাগ, বাংলাদেশ",Bochaganj,বাংলাদেশ,রংপুর বিভাগ,local_admin,boundaries,['marketplace'],[],Bangladesh,Rangpur,Dinajpur,Bochaganj,Ishania,85e63aad229493b7b6e5f20bf77d4711
5154770241.0,893c1ba086bffff,25.6951473,88.7262378,pedestrian ferry,,"pedestrian ferry, Dinajpur, Dinajpur District, Rangpur Division, Bangladesh","পথচারী ফেরি, দিনাজপুর জেলা, রংপুর বিভাগ, বাংলাদেশ",Dinajpur,বাংলাদেশ,রংপুর বিভাগ,local_admin,boundaries,['ferry_terminal'],[],Bangladesh,Rangpur,Dinajpur,DinajpurSadar,Fazilpur,057ddbb1925eafc13f649a7263d6dc14
5203780781.0,893c1949e07ffff,25.8566506,88.4112167,"Futkibari Hat, Bochaganj, Dinajpur",,"Futkibari Hat Bochaganj Dinajpur, Bochaganj, Dinajpur District, Rangpur Division, Bangladesh","ফুটকিবাড়ী হাট বোচাগানজ দিনাজপুর, দিনাজপুর জেলা, রংপুর বিভাগ, বাংলাদেশ",Bochaganj,বাংলাদেশ,রংপুর বিভাগ,local_admin,boundaries,['marketplace'],[],Bangladesh,Rangpur,Dinajpur,Bochaganj,Nafanagar,24c460a0b72bf8f0c184643a24c93b56
5203786305.0,893c1949e07ffff,25.8568551,88.4108921,"Rejul Tea Hotel, Futkibari রেজুল চা হোটেল, ফুটকিবাড়ী",,"Rejul Tea Hotel Futkibari, Bochaganj, Dinajpur District, Rangpur Division, Bangladesh","রেজুল চা হোটেল ফুটকিবাড়ী, দিনাজপুর জেলা, রংপুর বিভাগ, বাংলাদেশ",Bochaganj,বাংলাদেশ,রংপুর বিভাগ,local_admin,boundaries,['restaurant'],[],Bangladesh,Rangpur,Dinajpur,Bochaganj,Nafanagar,24c460a0b72bf8f0c184643a24c93b56
5199777936.0,893c1ba7193ffff,25.7739227,88.779132,"গ্রামীণ ব্যাংক, নসরতপুর শাখা","['Grameen Bank,Nasratpur Branch']","Grameen Bank Nasratpur Branch, Dinajpur District, Rangpur Division, Bangladesh","গ্রামীণ ব্যাংক নসরতপুর শাখা, দিনাজপুর জেলা, রংপুর বিভাগ, বাংলাদেশ",,বাংলাদেশ,রংপুর বিভাগ,admin2,boundaries,['bank'],[],Bangladesh,Rangpur,Dinajpur,Chirirbandar,Nasratpur,d22e2db88a02c83cf6ee6d0b9f2f9475
7757193547.0,893c1bb32b3ffff,25.8006364,88.4593609,সেতাবগঞ্জ রেল ষ্টেশন,,"Setabganj Rail Station, Bochaganj, Dinajpur District, Rangpur Division, Bangladesh","সেতাবগঞ্জ রেল ষ্টেশন, দিনাজপুর জেলা, রংপুর বিভাগ, বাংলাদেশ",Bochaganj,বাংলাদেশ,রংপুর বিভাগ,local_admin,boundaries,['railway_station'],[],Bangladesh,Rangpur,Dinajpur,Bochaganj,SetabganjPaurashava,21886429efdcbd319c9a8fff4bf3a65c
9529713026.0,893c1bb1553ffff,25.7770663,88.4916718,,['আটগাঁও মন্ডলপাড়া জামে মসজিদ'],"Bochaganj, Dinajpur District, Rangpur Division, Bangladesh","দিনাজপুর জেলা, রংপুর বিভাগ, বাংলাদেশ",Bochaganj,বাংলাদেশ,রংপুর বিভাগ,local_admin,boundaries,['place_of_worship_muslim'],[],Bangladesh,Rangpur,Dinajpur,Bochaganj,Atgaon,ad244ff9982a80d1f7e2c58ba084ff7d
5227736502.0,893c1bad333ffff,25.5414285,88.7724833,mouchak hotel and restaurant মৌচাক হোটেল এবং রেস্টুরেন্ট,,"mouchak hotel and restaurant, Dinajpur District, Rangpur Division, Bangladesh","মৌচাক হোটেল এবং রেস্টুরেন্ট, দিনাজপুর জেলা, রংপুর বিভাগ, বাংলাদেশ",,বাংলাদেশ,রংপুর বিভাগ,admin2,boundaries,['restaurant'],[],Bangladesh,Rangpur,Dinajpur,Chirirbandar,Punatti,b265ced3d993e514fb1f73bcb30a00ff
5227737079.0,893c1bad00fffff,25.552521,88.7496919,Laxmitola Bazar লক্ষীতলা বাজার,,"Laxmitola Bazar, Dinajpur, Dinajpur District, Rangpur Division, Bangladesh","লক্ষীতলা বাজার, দিনাজপুর জেলা, রংপুর বিভাগ, বাংলাদেশ",Dinajpur,বাংলাদেশ,রংপুর বিভাগ,local_admin,boundaries,['marketplace'],[],Bangladesh,Rangpur,Dinajpur,DinajpurSadar,Shankarpur,ff66e60c4abcbd359f170ccaae6dd11d
5227738908.0,893c1bad00fffff,25.5521532,88.7498834,Babur Hotel,,"Babur Hotel, Dinajpur, Dinajpur District, Rangpur Division, Bangladesh","বাবুর হোটেল, দিনাজপুর জেলা, রংপুর বিভাগ, বাংলাদেশ",Dinajpur,বাংলাদেশ,রংপুর বিভাগ,local_admin,boundaries,['restaurant'],[],Bangladesh,Rangpur,Dinajpur,DinajpurSadar,Shankarpur,ff66e60c4abcbd359f170ccaae6dd11d
5227739882.0,893c1baf217ffff,25.5881842,88.7123178,"Panchbari Bazar, Dinajpur","['পাঁচবাড়ী বাজার, দিনাজপুর']","Panchbari Bazar Dinajpur, Dinajpur, Dinajpur District, Rangpur Division, Bangladesh","পঞ্চবাড়ী বাজার দিনাজপুর, দিনাজপুর জেলা, রংপুর বিভাগ, বাংলাদেশ",Dinajpur,বাংলাদেশ,রংপুর বিভাগ,local_admin,boundaries,['marketplace'],[],Bangladesh,Rangpur,Dinajpur,DinajpurSadar,Shashara,3a25c055709f20a4390c88768ff866f7
5227750077.0,893c1baf6b7ffff,25.6072717,88.700464,রাজাপুকুর বাজার,"['রাজাপুকুর বাজার', 'Rajapukur bazzer']","Rajapukur Bazar, Dinajpur, Dinajpur District, Rangpur Division, Bangladesh","রাজাপুকুর বাজার, দিনাজপুর জেলা, রংপুর বিভাগ, বাংলাদেশ",Dinajpur,বাংলাদেশ,রংপুর বিভাগ,local_admin,boundaries,['marketplace'],[],Bangladesh,Rangpur,Dinajpur,DinajpurSadar,Shashara,3a25c055709f20a4390c88768ff866f7
5372864337.0,893c1b3202bffff,25.4985477,88.7208372,,,,,,,,,boundaries,['gate'],[],Bangladesh,Rangpur,Dinajpur,DinajpurSadar,Shankarpur,ff66e60c4abcbd359f170ccaae6dd11d
5376223361.0,893c1979137ffff,25.9719516,88.741706,,,"Khansama, Dinajpur District, Rangpur Division, Bangladesh","দিনাজপুর জেলা, রংপুর বিভাগ, বাংলাদেশ",Khansama,বাংলাদেশ,রংপুর বিভাগ,local_admin,boundaries,['ford'],[],Bangladesh,Rangpur,Dinajpur,Khansama,Alokjhari,1c81d15201de84d1db62494d130945dd
5376223363.0,893c1979137ffff,25.970711,88.7412044,,,"Khansama, Dinajpur District, Rangpur Division, Bangladesh","দিনাজপুর জেলা, রংপুর বিভাগ, বাংলাদেশ",Khansama,বাংলাদেশ,রংপুর বিভাগ,local_admin,boundaries,['ford'],[],Bangladesh,Rangpur,Dinajpur,Khansama,Alokjhari,1c81d15201de84d1db62494d130945dd
5894264991.0,893c197900bffff,25.95802,88.7049128,ভুল্লীর হাট,,"Hats, Birganj, Dinajpur District, Rangpur Division, Bangladesh","ভুল্লীর হাট, দিনাজপুর জেলা, রংপুর বিভাগ, বাংলাদেশ",Birganj,বাংলাদেশ,রংপুর বিভাগ,street,boundaries,['bus_stop'],[],Bangladesh,Rangpur,Dinajpur,Birganj,Mohanpur,5dc7f543ab30e3762790fcd4f8f452ed
5894264992.0,893c1bb6c97ffff,25.9336224,88.7151094,,['তুলশীপুর কবরস্থান ও হাফিজিয়া মাদ্রাসা'],"Birganj, Dinajpur District, Rangpur Division, Bangladesh","দিনাজপুর জেলা, রংপুর বিভাগ, বাংলাদেশ",Birganj,বাংলাদেশ,রংপুর বিভাগ,local_admin,boundaries,['school'],[],Bangladesh,Rangpur,Dinajpur,Birganj,Mohanpur,5dc7f543ab30e3762790fcd4f8f452ed
5894264993.0,893c1bb6cbbffff,25.9305362,88.7200039,,['খানসামা ঘাটপাড়'],"Khansama, Dinajpur District, Rangpur Division, Bangladesh","দিনাজপুর জেলা, রংপুর বিভাগ, বাংলাদেশ",Khansama,বাংলাদেশ,রংপুর বিভাগ,local_admin,boundaries,['bus_stop'],[],Bangladesh,Rangpur,Dinajpur,Khansama,Alokjhari,1c81d15201de84d1db62494d130945dd
5894267589.0,893c1bad333ffff,25.5413831,88.7721628,,['Amtoli'],"Dinajpur District, Rangpur Division, Bangladesh","দিনাজপুর জেলা, রংপুর বিভাগ, বাংলাদেশ",,বাংলাদেশ,রংপুর বিভাগ,admin2,boundaries,['bus_stop'],[],Bangladesh,Rangpur,Dinajpur,Chirirbandar,Punatti,b265ced3d993e514fb1f73bcb30a00ff
5894267591.0,893c1bad06fffff,25.544417,88.7535595,,['Ambagan'],"Dinajpur, Dinajpur District, Rangpur Division, Bangladesh","দিনাজপুর জেলা, রংপুর বিভাগ, বাংলাদেশ",Dinajpur,বাংলাদেশ,রংপুর বিভাগ,local_admin,boundaries,['bus_stop'],[],Bangladesh,Rangpur,Dinajpur,DinajpurSadar,Shankarpur,ff66e60c4abcbd359f170ccaae6dd11d
5903096287.0,893c1bad43bffff,25.5687753,88.7350225,,['গোয়াল হাট'],"Dinajpur, Dinajpur District, Rangpur Division, Bangladesh","দিনাজপুর জেলা, রংপুর বিভাগ, বাংলাদেশ",Dinajpur,বাংলাদেশ,রংপুর বিভাগ,local_admin,boundaries,['bus_stop'],[],Bangladesh,Rangpur,Dinajpur,DinajpurSadar,Uthrail,183ca004854c0c83e7de25515a25eba2
5903122487.0,893c1bad317ffff,25.5406905,88.7676144,,['সি এন্ড বি মোড়'],"Dinajpur District, Rangpur Division, Bangladesh","দিনাজপুর জেলা, রংপুর বিভাগ, বাংলাদেশ",,বাংলাদেশ,রংপুর বিভাগ,admin2,boundaries,['bus_stop'],[],Bangladesh,Rangpur,Dinajpur,Chirirbandar,Bhiail,70c0858fe396b2272157c369d252e950
6200805086.0,893c1bae157ffff,25.6573809,88.773728,ঘুঘরাতলী,['Ghugratoli'],"Pound, Dinajpur District, Rangpur Division, Bangladesh","ঘুঘরাতলী, দিনাজপুর জেলা, রংপুর বিভাগ, বাংলাদেশ",,বাংলাদেশ,রংপুর বিভাগ,admin2,boundaries,['attraction'],[],Bangladesh,Rangpur,Dinajpur,Chirirbandar,Abdulpur,ec7cd93b9e84659ceebc99bdaae1648b
7393796936.0,893c1bb49d7ffff,25.8693583,88.7805119,পাকেরহাট সরকারি কলেজ,,"Pakerhat Government College, Khansama, Dinajpur District, Rangpur Division, Bangladesh","পাকেরহাট সরকারি কলেজ, দিনাজপুর জেলা, রংপুর বিভাগ, বাংলাদেশ",Khansama,বাংলাদেশ,রংপুর বিভাগ,local_admin,boundaries,['college'],[],Bangladesh,Rangpur,Dinajpur,Khansama,AngarPara,fdbb3a2b9845c9c2fbb979a385d9bd62
530376387.0,893c1bb33d3ffff,25.79973701,88.46716688,Bochaganj Upazila Health Complex,,"Bochaganj Upazila Health Complex, Bochaganj, Dinajpur District, Rangpur Division, Bangladesh","বোচাগানজে উপজিলা স্বাস্থ্য কমপ্লেক্স, দিনাজপুর জেলা, রংপুর বিভাগ, বাংলাদেশ",Bochaganj,বাংলাদেশ,রংপুর বিভাগ,local_admin,boundaries,['hospital'],[],Bangladesh,Rangpur,Dinajpur,Bochaganj,SetabganjPaurashava,21886429efdcbd319c9a8fff4bf3a65c
4633787271.0,893c1bab3c7ffff,25.5417545,88.5582969,,,"Biral, Dinajpur District, Rangpur Division, Bangladesh","দিনাজপুর জেলা, রংপুর বিভাগ, বাংলাদেশ",Biral,বাংলাদেশ,রংপুর বিভাগ,local_admin,boundaries,['ford'],[],Bangladesh,Rangpur,Dinajpur,Biral,Dharmapur,cc9a47c31128e45a66e8bedd0189c0d4
4633792517.0,893c1ba8693ffff,25.5593166,88.5820992,,,"Biral, Dinajpur District, Rangpur Division, Bangladesh","দিনাজপুর জেলা, রংপুর বিভাগ, বাংলাদেশ",Biral,বাংলাদেশ,রংপুর বিভাগ,local_admin,boundaries,['ford'],[],Bangladesh,Rangpur,Dinajpur,Biral,Bijora,ef7114894a013b43982089ca3a02ed58
4958430808.0,893c1baa193ffff,25.6235395,88.5997528,কাঞ্চন,"['কাঞ্চন রেলওয়ে স্টেশন', 'কাঞ্চন', 'Kanchan']","Kanchan, Biral, Dinajpur District, Rangpur Division, Bangladesh","কাঞ্চন, দিনাজপুর জেলা, রংপুর বিভাগ, বাংলাদেশ",Biral,বাংলাদেশ,রংপুর বিভাগ,local_admin,boundaries,['railway_station'],[],Bangladesh,Rangpur,Dinajpur,Biral,Bijora,ef7114894a013b43982089ca3a02ed58
4958430927.0,893c1bb8acfffff,25.6351288,88.5391829,বিরল,['Birol'],"Rare, Biral, Dinajpur District, Rangpur Division, Bangladesh","বিরল, দিনাজপুর জেলা, রংপুর বিভাগ, বাংলাদেশ",Biral,বাংলাদেশ,রংপুর বিভাগ,local_admin,boundaries,['railway_station'],[],Bangladesh,Rangpur,Dinajpur,Biral,Biral,a7ba42fa5684d4a6b65a271cefd0b73d
9529713027.0,893c1bb5db3ffff,25.8384077,88.7384438,,['কেন্দ্রীয় মসজিদ'],"Khansama, Dinajpur District, Rangpur Division, Bangladesh","দিনাজপুর জেলা, রংপুর বিভাগ, বাংলাদেশ",Khansama,বাংলাদেশ,রংপুর বিভাগ,local_admin,boundaries,['place_of_worship_muslim'],[],Bangladesh,Rangpur,Dinajpur,Khansama,KhamarPara,ddbdd7f49ccfcd07e3ce696ebc7bf619
5178069837.0,893c1bb0d8bffff,25.835054,88.5974001,,,"Kaharole, Dinajpur District, Rangpur Division, Bangladesh","দিনাজপুর জেলা, রংপুর বিভাগ, বাংলাদেশ",Kaharole,বাংলাদেশ,রংপুর বিভাগ,local_admin,boundaries,['ford'],[],Bangladesh,Rangpur,Dinajpur,Kaharole,Rasulpur,b07ffa6ded4467676e06df63d9f06765
524646472.0,893c1bb5bd7ffff,25.79578465,88.74074775,,,"Khansama, Dinajpur District, Rangpur Division, Bangladesh","দিনাজপুর জেলা, রংপুর বিভাগ, বাংলাদেশ",Khansama,বাংলাদেশ,রংপুর বিভাগ,local_admin,boundaries,['ford'],[],Bangladesh,Rangpur,Dinajpur,Khansama,Bhabki,fd58507d64d91dad1100ac285688983b
525261923.0,893c1ba64abffff,25.82644535,88.78311845,,,"Khansama, Dinajpur District, Rangpur Division, Bangladesh","দিনাজপুর জেলা, রংপুর বিভাগ, বাংলাদেশ",Khansama,বাংলাদেশ,রংপুর বিভাগ,local_admin,boundaries,['ford'],[],Bangladesh,Rangpur,Dinajpur,Khansama,Goaldihi,d0438bfe3d28a143f845246f061bcec1
5201721010.0,893c194de9bffff,25.9108149,88.570707,Bot-Tola Bus Stop বটতলা বাস স্টপ,,"Bot-Tola Bus Stop, Birganj, Dinajpur District, Rangpur Division, Bangladesh","বটতলা বাস স্টপ, দিনাজপুর জেলা, রংপুর বিভাগ, বাংলাদেশ",Birganj,বাংলাদেশ,রংপুর বিভাগ,street,boundaries,['bus_stop'],[],Bangladesh,Rangpur,Dinajpur,Birganj,Satair,fb1cbdd1606044ab5c6f476af939b2c5
526242234.0,893c1baf223ffff,25.58312508,88.72253865,Rangdhonu Filling Station,,"Rangdhonu Filling Station, Dinajpur, Dinajpur District, Rangpur Division, Bangladesh","রাংধোনু ফিলিং স্টেশন, দিনাজপুর জেলা, রংপুর বিভাগ, বাংলাদেশ",Dinajpur,বাংলাদেশ,রংপুর বিভাগ,local_admin,boundaries,['fuel'],[],Bangladesh,Rangpur,Dinajpur,DinajpurSadar,Shashara,3a25c055709f20a4390c88768ff866f7
5201805504.0,893c194d843ffff,25.9047353,88.5984471,Thakurgaon bus stop ঠাকুরগাঁও বাস স্টপ,,"Thakurgaon bus stop, Birganj, Dinajpur District, Rangpur Division, Bangladesh","ঠাকুরগাঁও বাস স্টপ, দিনাজপুর জেলা, রংপুর বিভাগ, বাংলাদেশ",Birganj,বাংলাদেশ,রংপুর বিভাগ,street,boundaries,['bus_stop'],[],Bangladesh,Rangpur,Dinajpur,Birganj,Bhognagar,4f7b789fe1f2b33712313e004ea9497d
5201808789.0,893c194d847ffff,25.9051785,88.5991537,BIPLOP FOOD COMPLEX,,"BIPLOP FOOD COMPLEX, Birganj, Dinajpur District, Rangpur Division, Bangladesh","বাইপলপ ফুড কমপ্লেক্স, দিনাজপুর জেলা, রংপুর বিভাগ, বাংলাদেশ",Birganj,বাংলাদেশ,রংপুর বিভাগ,local_admin,boundaries,['restaurant'],[],Bangladesh,Rangpur,Dinajpur,Birganj,Bhognagar,4f7b789fe1f2b33712313e004ea9497d
5201818343.0,893c194d853ffff,25.9060157,88.593125,গ্রামিণ ব্যাংক,,"Grameen Bank, Birganj, Dinajpur District, Rangpur Division, Bangladesh","গ্রামিণ ব্যাংক, দিনাজপুর জেলা, রংপুর বিভাগ, বাংলাদেশ",Birganj,বাংলাদেশ,রংপুর বিভাগ,local_admin,boundaries,['bank'],[],Bangladesh,Rangpur,Dinajpur,Birganj,Bhognagar,4f7b789fe1f2b33712313e004ea9497d
526974742.0,893c1bac6b7ffff,25.60786834,88.76806877,,,"Dinajpur District, Rangpur Division, Bangladesh","দিনাজপুর জেলা, রংপুর বিভাগ, বাংলাদেশ",,বাংলাদেশ,রংপুর বিভাগ,admin2,boundaries,['ford'],[],Bangladesh,Rangpur,Dinajpur,Chirirbandar,Bhiail,70c0858fe396b2272157c369d252e950
5201834140.0,893c194d147ffff,25.9142249,88.5567212,25 Mile Bazar Bus Stop ২৫ মাইল বাস স্টপ,,"25 Mile Bazar Bus Stop, Birganj, Dinajpur District, Rangpur Division, Bangladesh","২৫ মাইল বাস স্টপ, দিনাজপুর জেলা, রংপুর বিভাগ, বাংলাদেশ",Birganj,বাংলাদেশ,রংপুর বিভাগ,street,boundaries,['bus_stop'],[],Bangladesh,Rangpur,Dinajpur,Birganj,Satair,fb1cbdd1606044ab5c6f476af939b2c5
527112992.0,893c1baf43bffff,25.61905024,88.70620506,কাউগাঁ,['কাউগাঁ'],"Couga, Dinajpur District, Rangpur Division, Bangladesh","কাউগাঁ, দিনাজপুর জেলা, রংপুর বিভাগ, বাংলাদেশ",,বাংলাদেশ,রংপুর বিভাগ,admin2,boundaries,['railway_station'],[],Bangladesh,Rangpur,Dinajpur,Chirirbandar,AuliaPukur,cbfcb91b32a01ec82cde50d5f35212a3
527232270.0,893c1bac483ffff,25.6265115,88.76290057,,,"Dinajpur District, Rangpur Division, Bangladesh","দিনাজপুর জেলা, রংপুর বিভাগ, বাংলাদেশ",,বাংলাদেশ,রংপুর বিভাগ,admin2,boundaries,['beach'],[],Bangladesh,Rangpur,Dinajpur,Chirirbandar,AuliaPukur,cbfcb91b32a01ec82cde50d5f35212a3
527232271.0,893c1bac497ffff,25.62999263,88.76376891,,,"Dinajpur District, Rangpur Division, Bangladesh","দিনাজপুর জেলা, রংপুর বিভাগ, বাংলাদেশ",,বাংলাদেশ,রংপুর বিভাগ,admin2,boundaries,['beach'],[],Bangladesh,Rangpur,Dinajpur,Chirirbandar,AuliaPukur,cbfcb91b32a01ec82cde50d5f35212a3
5201849333.0,893c194d193ffff,25.9277189,88.5524196,Malik's Farm Bazar মালিক'স ফার্ম বাজার,,"Malik's Farm Bazar, Birganj, Dinajpur District, Rangpur Division, Bangladesh","মালিক'স ফার্ম বাজার, দিনাজপুর জেলা, রংপুর বিভাগ, বাংলাদেশ",Birganj,বাংলাদেশ,রংপুর বিভাগ,local_admin,boundaries,['marketplace'],[],Bangladesh,Rangpur,Dinajpur,Birganj,Satair,fb1cbdd1606044ab5c6f476af939b2c5
527237757.0,893c1bad193ffff,25.57027834,88.76413095,,,"Dinajpur District, Rangpur Division, Bangladesh","দিনাজপুর জেলা, রংপুর বিভাগ, বাংলাদেশ",,বাংলাদেশ,রংপুর বিভাগ,admin2,boundaries,['beach'],[],Bangladesh,Rangpur,Dinajpur,Chirirbandar,Bhiail,70c0858fe396b2272157c369d252e950
527237762.0,893c1bad1d7ffff,25.5643745,88.76362653,,,"Dinajpur District, Rangpur Division, Bangladesh","দিনাজপুর জেলা, রংপুর বিভাগ, বাংলাদেশ",,বাংলাদেশ,রংপুর বিভাগ,admin2,boundaries,['beach'],[],Bangladesh,Rangpur,Dinajpur,Chirirbandar,Bhiail,70c0858fe396b2272157c369d252e950
527237763.0,893c1bad113ffff,25.56219277,88.76922692,,,"Dinajpur District, Rangpur Division, Bangladesh","দিনাজপুর জেলা, রংপুর বিভাগ, বাংলাদেশ",,বাংলাদেশ,রংপুর বিভাগ,admin2,boundaries,['beach'],[],Bangladesh,Rangpur,Dinajpur,Chirirbandar,Bhiail,70c0858fe396b2272157c369d252e950
527373964.0,893c1badc7bffff,25.559545,88.79684555,,,"Dinajpur District, Rangpur Division, Bangladesh","দিনাজপুর জেলা, রংপুর বিভাগ, বাংলাদেশ",,বাংলাদেশ,রংপুর বিভাগ,admin2,boundaries,['ford'],[],Bangladesh,Rangpur,Dinajpur,Chirirbandar,Punatti,b265ced3d993e514fb1f73bcb30a00ff
5201849415.0,893c194d193ffff,25.9279675,88.552455,Malik's Farm Bus Stop মালিক'স র্ফাম বাস স্টপ,,"Malik's Farm Bus Stop, Birganj, Dinajpur District, Rangpur Division, Bangladesh","মালিক'স র্ফাম বাস স্টপ, দিনাজপুর জেলা, রংপুর বিভাগ, বাংলাদেশ",Birganj,বাংলাদেশ,রংপুর বিভাগ,street,boundaries,['bus_stop'],[],Bangladesh,Rangpur,Dinajpur,Birganj,Satair,fb1cbdd1606044ab5c6f476af939b2c5
5201851283.0,893c194c643ffff,25.9471526,88.5418693,28 Mile Bus Stop ২৮ মাইল বাস স্টপ,,"28 Mile Bus Stop, Birganj, Dinajpur District, Rangpur Division, Bangladesh","২৮ মাইল বাস স্টপ, দিনাজপুর জেলা, রংপুর বিভাগ, বাংলাদেশ",Birganj,বাংলাদেশ,রংপুর বিভাগ,street,boundaries,['bus_stop'],[],Bangladesh,Rangpur,Dinajpur,Birganj,Satair,fb1cbdd1606044ab5c6f476af939b2c5
5201851477.0,893c194d5a3ffff,25.9407249,88.5455656,Dolua Bazar দলুয়া বাজার,,"Dolua Bazar, Birganj, Dinajpur District, Rangpur Division, Bangladesh","দলুয়া বাজার, দিনাজপুর জেলা, রংপুর বিভাগ, বাংলাদেশ",Birganj,বাংলাদেশ,রংপুর বিভাগ,local_admin,boundaries,['marketplace'],[],Bangladesh,Rangpur,Dinajpur,Birganj,Satair,fb1cbdd1606044ab5c6f476af939b2c5
5201853280.0,893c194d5a3ffff,25.9407478,88.5452894,Dolua Bus Stop,,"Dolua Bus Stop, Birganj, Dinajpur District, Rangpur Division, Bangladesh","দোলুয়া বাস স্টপ, দিনাজপুর জেলা, রংপুর বিভাগ, বাংলাদেশ",Birganj,বাংলাদেশ,রংপুর বিভাগ,street,boundaries,['bus_stop'],[],Bangladesh,Rangpur,Dinajpur,Birganj,Satair,fb1cbdd1606044ab5c6f476af939b2c5
5203680145.0,893c1bb2873ffff,25.8562062,88.5663271,Boleya- ,,"Boleya-, Kaharole, Dinajpur District, Rangpur Division, Bangladesh","বোলিয়া-, দিনাজপুর জেলা, রংপুর বিভাগ, বাংলাদেশ",Kaharole,বাংলাদেশ,রংপুর বিভাগ,local_admin,boundaries,['marketplace'],[],Bangladesh,Rangpur,Dinajpur,Kaharole,Rasulpur,b07ffa6ded4467676e06df63d9f06765
5203683951.0,893c1bb2143ffff,25.8628328,88.5176401,Joynanda Hat Bus Stop জয়নন্দ হাট,,"Joynanda Hat Bus Stop, Kaharole, Dinajpur District, Rangpur Division, Bangladesh","জয়নন্দ হাট, দিনাজপুর জেলা, রংপুর বিভাগ, বাংলাদেশ",Kaharole,বাংলাদেশ,রংপুর বিভাগ,street,boundaries,['bus_stop'],[],Bangladesh,Rangpur,Dinajpur,Kaharole,Dabar,3fea0e4130efdc43d78796279536ad17
5203688578.0,893c1bb2153ffff,25.8629542,88.5162223,সোনালী ব্যাংক লিমিটেড,['Sonali Bank Limited'],"Sonali Bank Limited, Kaharole, Dinajpur District, Rangpur Division, Bangladesh","সোনালী ব্যাংক লিমিটেড, দিনাজপুর জেলা, রংপুর বিভাগ, বাংলাদেশ",Kaharole,বাংলাদেশ,রংপুর বিভাগ,local_admin,boundaries,['bank'],[],Bangladesh,Rangpur,Dinajpur,Kaharole,Dabar,3fea0e4130efdc43d78796279536ad17
527458593.0,893c1ba7607ffff,25.75000375,88.73998215,,,"Dinajpur District, Rangpur Division, Bangladesh","দিনাজপুর জেলা, রংপুর বিভাগ, বাংলাদেশ",,বাংলাদেশ,রংপুর বিভাগ,admin2,boundaries,['ford'],[],Bangladesh,Rangpur,Dinajpur,Chirirbandar,Tentulia,c621d7df0b646eacbd39faffc3cdf47e
527559166.0,893c1ba74cfffff,25.7693314,88.7362509,,,"Dinajpur, Dinajpur District, Rangpur Division, Bangladesh","দিনাজপুর জেলা, রংপুর বিভাগ, বাংলাদেশ",Dinajpur,বাংলাদেশ,রংপুর বিভাগ,local_admin,boundaries,['beach'],[],Bangladesh,Rangpur,Dinajpur,Chirirbandar,Tentulia,c621d7df0b646eacbd39faffc3cdf47e
527559167.0,893c1ba7443ffff,25.76496398,88.73640965,,,"Dinajpur, Dinajpur District, Rangpur Division, Bangladesh","দিনাজপুর জেলা, রংপুর বিভাগ, বাংলাদেশ",Dinajpur,বাংলাদেশ,রংপুর বিভাগ,local_admin,boundaries,['beach'],[],Bangladesh,Rangpur,Dinajpur,DinajpurSadar,Sundarban,7d2d0c53b84b294e39c85fbf731cf31a
527559168.0,893c1ba76b3ffff,25.75932345,88.74054894,,,"Dinajpur District, Rangpur Division, Bangladesh","দিনাজপুর জেলা, রংপুর বিভাগ, বাংলাদেশ",,বাংলাদেশ,রংপুর বিভাগ,admin2,boundaries,['beach'],[],Bangladesh,Rangpur,Dinajpur,Chirirbandar,Tentulia,c621d7df0b646eacbd39faffc3cdf47e
527644713.0,893c1badc0bffff,25.56362596,88.79683667,,,"Dinajpur District, Rangpur Division, Bangladesh","দিনাজপুর জেলা, রংপুর বিভাগ, বাংলাদেশ",,বাংলাদেশ,রংপুর বিভাগ,admin2,boundaries,['ford'],[],Bangladesh,Rangpur,Dinajpur,Chirirbandar,Punatti,b265ced3d993e514fb1f73bcb30a00ff
2481961853.0,893c1bb304fffff,25.801655,88.4594777,সেতাবগঞ্জ,"['সেতাবগঞ্জ', 'Setabganj']","Setabganj, Bochaganj, Dinajpur District, Rangpur Division, Bangladesh","সেতাবগঞ্জ, দিনাজপুর জেলা, রংপুর বিভাগ, বাংলাদেশ",Bochaganj,বাংলাদেশ,রংপুর বিভাগ,locality,,,,Bangladesh,Rangpur,Dinajpur,Bochaganj,SetabganjPaurashava,21886429efdcbd319c9a8fff4bf3a65c
5247829598.0,893c1b149a7ffff,25.5211769,88.5442525,,,"Biral, Dinajpur District, Rangpur Division, Bangladesh","দিনাজপুর জেলা, রংপুর বিভাগ, বাংলাদেশ",Biral,বাংলাদেশ,রংপুর বিভাগ,local_admin,boundaries,['ford'],[],Bangladesh,Rangpur,Dinajpur,Biral,Dharmapur,cc9a47c31128e45a66e8bedd0189c0d4
5255240725.0,893c1bab0a7ffff,25.5652097,88.5577829,,,"Biral, Dinajpur District, Rangpur Division, Bangladesh","দিনাজপুর জেলা, রংপুর বিভাগ, বাংলাদেশ",Biral,বাংলাদেশ,রংপুর বিভাগ,local_admin,boundaries,['ford'],[],Bangladesh,Rangpur,Dinajpur,Biral,Dharmapur,cc9a47c31128e45a66e8bedd0189c0d4
5255240727.0,893c1bab573ffff,25.5723316,88.5564901,,,"Biral, Dinajpur District, Rangpur Division, Bangladesh","দিনাজপুর জেলা, রংপুর বিভাগ, বাংলাদেশ",Biral,বাংলাদেশ,রংপুর বিভাগ,local_admin,boundaries,['ford'],[],Bangladesh,Rangpur,Dinajpur,Biral,RaniPukur,6d0d85535c2bdf42dc0b89f6b9078ac7
532342692.0,893c1bb4513ffff,25.88463795,88.70279185,,,"Birganj, Dinajpur District, Rangpur Division, Bangladesh","দিনাজপুর জেলা, রংপুর বিভাগ, বাংলাদেশ",Birganj,বাংলাদেশ,রংপুর বিভাগ,local_admin,boundaries,['ford'],[],Bangladesh,Rangpur,Dinajpur,Birganj,Nijpara,de662adcbbe3e5ed071e71ca86b0d2bf
536863284.0,893c1ba71b3ffff,25.77380958,88.78743332,Ranirbandar Petrol Station,,"Ranirbandar Petrol Station, Dinajpur District, Rangpur Division, Bangladesh","রানিরবন্দর পেট্রোল স্টেশন, দিনাজপুর জেলা, রংপুর বিভাগ, বাংলাদেশ",,বাংলাদেশ,রংপুর বিভাগ,admin2,boundaries,['fuel'],[],Bangladesh,Rangpur,Dinajpur,Chirirbandar,Nasratpur,d22e2db88a02c83cf6ee6d0b9f2f9475
536863360.0,893c1ba624bffff,25.77455743,88.78564154,Ranirbandar congress jame masjid,,"Ranirbandar congress jame masjid, Dinajpur District, Rangpur Division, Bangladesh","রানিরবন্দর কংগ্রেস জামে মসজিদ, দিনাজপুর জেলা, রংপুর বিভাগ, বাংলাদেশ",,বাংলাদেশ,রংপুর বিভাগ,admin2,boundaries,['place_of_worship_muslim'],[],Bangladesh,Rangpur,Dinajpur,Chirirbandar,Nasratpur,d22e2db88a02c83cf6ee6d0b9f2f9475
536863610.0,893c1ba624bffff,25.77467752,88.78447055,রূপালী ব্যাংক,['Rupali Bank'],"Silver Bank, Dinajpur District, Rangpur Division, Bangladesh","রূপালী ব্যাংক, দিনাজপুর জেলা, রংপুর বিভাগ, বাংলাদেশ",,বাংলাদেশ,রংপুর বিভাগ,admin2,boundaries,['bank'],[],Bangladesh,Rangpur,Dinajpur,Chirirbandar,Nasratpur,d22e2db88a02c83cf6ee6d0b9f2f9475
536863907.0,893c1ba7197ffff,25.77442046,88.78005511,ব্র্যাক ব্যাংক লিমিটেড,['BRAC Bank Limited'],"BRAC Bank Limited, Dinajpur District, Rangpur Division, Bangladesh","ব্র্যাক ব্যাংক লিমিটেড, দিনাজপুর জেলা, রংপুর বিভাগ, বাংলাদেশ",,বাংলাদেশ,রংপুর বিভাগ,admin2,boundaries,['bank'],[],Bangladesh,Rangpur,Dinajpur,Chirirbandar,Nasratpur,d22e2db88a02c83cf6ee6d0b9f2f9475
540364503.0,893c1baf62fffff,25.59481292,88.70450944,Jaliapara Jame Masjid,,"Jaliapara Jame Masjid, Dinajpur, Dinajpur District, Rangpur Division, Bangladesh","জালিয়াপেরা জামে মসজিদ, দিনাজপুর জেলা, রংপুর বিভাগ, বাংলাদেশ",Dinajpur,বাংলাদেশ,রংপুর বিভাগ,local_admin,boundaries,['place_of_worship_muslim'],[],Bangladesh,Rangpur,Dinajpur,DinajpurSadar,Shashara,3a25c055709f20a4390c88768ff866f7
540364658.0,893c1baf62fffff,25.5959179,88.70448923,Filling station,,"Filling station, Dinajpur, Dinajpur District, Rangpur Division, Bangladesh","পেট্রল - পাস্প, দিনাজপুর জেলা, রংপুর বিভাগ, বাংলাদেশ",Dinajpur,বাংলাদেশ,রংপুর বিভাগ,local_admin,boundaries,['fuel'],[],Bangladesh,Rangpur,Dinajpur,DinajpurSadar,Shashara,3a25c055709f20a4390c88768ff866f7
540364888.0,893c1baf6afffff,25.60296458,88.70271861,Rajapukur Jame Mosjid রাজাপুকুর জামে মসজিদ,,"Rajapukur Jame Mosjid, Dinajpur, Dinajpur District, Rangpur Division, Bangladesh","রাজাপুকুর জামে মসজিদ, দিনাজপুর জেলা, রংপুর বিভাগ, বাংলাদেশ",Dinajpur,বাংলাদেশ,রংপুর বিভাগ,local_admin,boundaries,['place_of_worship_muslim'],[],Bangladesh,Rangpur,Dinajpur,DinajpurSadar,Shashara,3a25c055709f20a4390c88768ff866f7
542308540.0,893c1bb4517ffff,25.88379553,88.70824548,,,"Birganj, Dinajpur District, Rangpur Division, Bangladesh","দিনাজপুর জেলা, রংপুর বিভাগ, বাংলাদেশ",Birganj,বাংলাদেশ,রংপুর বিভাগ,local_admin,boundaries,['ford'],[],Bangladesh,Rangpur,Dinajpur,Birganj,Nijpara,de662adcbbe3e5ed071e71ca86b0d2bf
583390498.0,893c1979523ffff,25.9839783,88.72100284,,,"Birganj, Dinajpur District, Rangpur Division, Bangladesh","দিনাজপুর জেলা, রংপুর বিভাগ, বাংলাদেশ",Birganj,বাংলাদেশ,রংপুর বিভাগ,local_admin,boundaries,['ford'],[],Bangladesh,Rangpur,Dinajpur,Birganj,Shatagram,09fbe00eaf09cad0e04ed9190d8a279a
625696880.0,893c1baf28fffff,25.58901917,88.71066899,"Panchbari Hat, Dinajpur","['পাঁচবাড়ী হাট, দিনাজপুর']","Panchbari Hat Dinajpur, Dinajpur, Dinajpur District, Rangpur Division, Bangladesh","পঞ্চবাড়ী হাট দিনাজপুর, দিনাজপুর জেলা, রংপুর বিভাগ, বাংলাদেশ",Dinajpur,বাংলাদেশ,রংপুর বিভাগ,local_admin,boundaries,['marketplace'],[],Bangladesh,Rangpur,Dinajpur,DinajpurSadar,Shashara,3a25c055709f20a4390c88768ff866f7
916215000.0,893c1978613ffff,26.00707722,88.7144204,পঞ্চগড় - দিনাজপুর জেলা সীমানা,,"Panchagarh - Dinajpur District boundary, -, Birganj, Dinajpur District, Rangpur Division, Bangladesh","পঞ্চগড় দিনাজপুর জেলা সীমানা, দিনাজপুর জেলা, রংপুর বিভাগ, বাংলাদেশ",Birganj,বাংলাদেশ,রংপুর বিভাগ,local_admin,boundaries,['ford'],[],Bangladesh,Rangpur,Dinajpur,Khansama,Alokjhari,1c81d15201de84d1db62494d130945dd
3037417018.0,893ce6db083ffff,25.6618441,88.8839189,LAMB-WMPL,,"LAMB-WMPL, Parbatipur, Dinajpur District, Rangpur Division, Bangladesh","ল্যাম্ব-ডাব্লুএমপিএল, দিনাজপুর জেলা, রংপুর বিভাগ, বাংলাদেশ",Parbatipur,বাংলাদেশ,রংপুর বিভাগ,local_admin,boundaries,['ngo'],[],Bangladesh,Rangpur,Dinajpur,Parbatipur,Manmathapur,65a8662b8028372648ada0a96ab878eb
3037417019.0,893ce6db4cbffff,25.6651243,88.861392,CTW-Come To Work,,"CTW-Come To Work, Parbatipur, Dinajpur District, Rangpur Division, Bangladesh","কাজ করার জন্য সিটিডব্লিউ-, দিনাজপুর জেলা, রংপুর বিভাগ, বাংলাদেশ",Parbatipur,বাংলাদেশ,রংপুর বিভাগ,local_admin,boundaries,['ngo'],[],Bangladesh,Rangpur,Dinajpur,Parbatipur,Manmathapur,65a8662b8028372648ada0a96ab878eb
524154087.0,893c1bb69cbffff,25.91398075,88.75083615,Khansama - Nilphamari Rd,,"Khansama - Nilphamari Rd, Khansama, Dinajpur District, Rangpur Division, Bangladesh","খানসামা - নীলফামারি আরডি, দিনাজপুর জেলা, রংপুর বিভাগ, বাংলাদেশ",Khansama,বাংলাদেশ,রংপুর বিভাগ,street,,,,Bangladesh,Rangpur,Dinajpur,Khansama,Alokjhari,1c81d15201de84d1db62494d130945dd
528538735.0,893c1ba1b33ffff,25.6432334,88.7127807,Dinajpur - Parbatipur Road,,"Dinajpur - Parbatipur Road, Dinajpur, Dinajpur District, Rangpur Division, Bangladesh","দিনজপুর - পার্বতপুর রোড, দিনাজপুর জেলা, রংপুর বিভাগ, বাংলাদেশ",Dinajpur,বাংলাদেশ,রংপুর বিভাগ,street,,,,Bangladesh,Rangpur,Dinajpur,DinajpurSadar,Sekhpura,f8a585b041906cd45f8c8472e5abc9be
528538765.0,893c1ba1b13ffff,25.64267078108882,88.70257614722628,Dinajpur - Parbatipur Road,,"Dinajpur - Parbatipur Road, Dinajpur, Dinajpur District, Rangpur Division, Bangladesh","দিনজপুর - পার্বতপুর রোড, দিনাজপুর জেলা, রংপুর বিভাগ, বাংলাদেশ",Dinajpur,বাংলাদেশ,রংপুর বিভাগ,street,,,,Bangladesh,Rangpur,Dinajpur,DinajpurSadar,Sekhpura,f8a585b041906cd45f8c8472e5abc9be
539022488.0,893c1ba1b33ffff,25.64350818252148,88.71406435751909,Dinajpur - Parbatipur Road,,"Dinajpur - Parbatipur Road, Dinajpur District, Rangpur Division, Bangladesh","দিনজপুর - পার্বতপুর রোড, দিনাজপুর জেলা, রংপুর বিভাগ, বাংলাদেশ",,বাংলাদেশ,রংপুর বিভাগ,street,,,,Bangladesh,Rangpur,Dinajpur,DinajpurSadar,Sekhpura,f8a585b041906cd45f8c8472e5abc9be
539022488.0,893c1ba1b33ffff,25.64350818252148,88.71406435751909,Dinajpur - Parbatipur Road,,"Dinajpur - Parbatipur Road, Dinajpur, Dinajpur District, Rangpur Division, Bangladesh","দিনজপুর - পার্বতপুর রোড, দিনাজপুর জেলা, রংপুর বিভাগ, বাংলাদেশ",Dinajpur,বাংলাদেশ,রংপুর বিভাগ,street,,,,Bangladesh,Rangpur,Dinajpur,DinajpurSadar,Sekhpura,f8a585b041906cd45f8c8472e5abc9be
1055347353.0,893c1bb6ca7ffff,25.931506050000003,88.72561285,Atrai Bridge,,"Atrai Bridge, Khansama, Dinajpur District, Rangpur Division, Bangladesh","অ্যাট্রাই ব্রিজ, দিনাজপুর জেলা, রংপুর বিভাগ, বাংলাদেশ",Khansama,বাংলাদেশ,রংপুর বিভাগ,street,,,,Bangladesh,Rangpur,Dinajpur,Khansama,Alokjhari,1c81d15201de84d1db62494d130945dd
524134131.0,893c1bb691bffff,25.91508858303961,88.75689245534465,Khansama - Nilphamari Rd,,"Khansama - Nilphamari Rd, Khansama, Dinajpur District, Rangpur Division, Bangladesh","খানসামা - নীলফামারি আরডি, দিনাজপুর জেলা, রংপুর বিভাগ, বাংলাদেশ",Khansama,বাংলাদেশ,রংপুর বিভাগ,street,,,,Bangladesh,Rangpur,Dinajpur,Khansama,Alokjhari,1c81d15201de84d1db62494d130945dd
527002961.0,893c1bae13bffff,25.66003115,88.78551569999999,Dinajpur - Parbatipur Road,,"Dinajpur - Parbatipur Road, Dinajpur District, Rangpur Division, Bangladesh","দিনজপুর - পার্বতপুর রোড, দিনাজপুর জেলা, রংপুর বিভাগ, বাংলাদেশ",,বাংলাদেশ,রংপুর বিভাগ,street,,,,Bangladesh,Rangpur,Dinajpur,Chirirbandar,Abdulpur,ec7cd93b9e84659ceebc99bdaae1648b
539017416.0,893c1bae02bffff,25.652757663468137,88.76179279080006,Dinajpur - Parbatipur Road,,"Dinajpur - Parbatipur Road, Dinajpur District, Rangpur Division, Bangladesh","দিনজপুর - পার্বতপুর রোড, দিনাজপুর জেলা, রংপুর বিভাগ, বাংলাদেশ",,বাংলাদেশ,রংপুর বিভাগ,street,,,,Bangladesh,Rangpur,Dinajpur,Chirirbandar,Abdulpur,ec7cd93b9e84659ceebc99bdaae1648b
1052189365.0,893c1bb6dd7ffff,25.93554233324876,88.73295872241306,Khansama - Nilphamari Rd,,"Khansama - Nilphamari Rd, Khansama, Dinajpur District, Rangpur Division, Bangladesh","খানসামা - নীলফামারি আরডি, দিনাজপুর জেলা, রংপুর বিভাগ, বাংলাদেশ",Khansama,বাংলাদেশ,রংপুর বিভাগ,street,,,,Bangladesh,Rangpur,Dinajpur,Khansama,Alokjhari,1c81d15201de84d1db62494d130945dd
1052201753.0,893c196b043ffff,25.90165648808653,88.79678769724798,Khansama - Nilphamari Rd,,"Khansama - Nilphamari Rd, Khansama, Dinajpur District, Rangpur Division, Bangladesh","খানসামা - নীলফামারি আরডি, দিনাজপুর জেলা, রংপুর বিভাগ, বাংলাদেশ",Khansama,বাংলাদেশ,রংপুর বিভাগ,street,,,,Bangladesh,Rangpur,Dinajpur,Khansama,AngarPara,fdbb3a2b9845c9c2fbb979a385d9bd62
275036555.0,893c1ba74c3ffff,25.77074105,88.73167129999999,সেতু,['Bridge'],"Bridge, Dinajpur, Dinajpur District, Rangpur Division, Bangladesh","সেতু, দিনাজপুর জেলা, রংপুর বিভাগ, বাংলাদেশ",Dinajpur,বাংলাদেশ,রংপুর বিভাগ,street,,,,Bangladesh,Rangpur,Dinajpur,Chirirbandar,Tentulia,c621d7df0b646eacbd39faffc3cdf47e
526257356.0,893c1baf22fffff,25.58229558200647,88.72365672533392,দিনাজপুর - ফুলবাড়ি সড়ক,,"Dinajpur - Phulbari Road, -, Dinajpur, Dinajpur District, Rangpur Division, Bangladesh","দিনাজপুর ফুলবাড়ি সড়ক, দিনাজপুর জেলা, রংপুর বিভাগ, বাংলাদেশ",Dinajpur,বাংলাদেশ,রংপুর বিভাগ,street,,,,Bangladesh,Rangpur,Dinajpur,DinajpurSadar,Shashara,3a25c055709f20a4390c88768ff866f7
537363921.0,893c1bae077ffff,25.652197366023604,88.76023563745132,Dinajpur - Parbatipur Road,,"Dinajpur - Parbatipur Road, Dinajpur District, Rangpur Division, Bangladesh","দিনজপুর - পার্বতপুর রোড, দিনাজপুর জেলা, রংপুর বিভাগ, বাংলাদেশ",,বাংলাদেশ,রংপুর বিভাগ,street,,,,Bangladesh,Rangpur,Dinajpur,Chirirbandar,AuliaPukur,cbfcb91b32a01ec82cde50d5f35212a3
524248561.0,893c1bb6967ffff,25.91056874250848,88.76806797015021,Khansama - Nilphamari Rd,,"Khansama - Nilphamari Rd, Khansama, Dinajpur District, Rangpur Division, Bangladesh","খানসামা - নীলফামারি আরডি, দিনাজপুর জেলা, রংপুর বিভাগ, বাংলাদেশ",Khansama,বাংলাদেশ,রংপুর বিভাগ,street,,,,Bangladesh,Rangpur,Dinajpur,Khansama,Bherbheri,e4e2bfc5a67cecdc469a858e29fe38ed
363514264.0,893c1bb6ca3ffff,25.9310847,88.72312529999999,Atrai Bridge,,"Atrai Bridge, Khansama, Dinajpur District, Rangpur Division, Bangladesh","অ্যাট্রাই ব্রিজ, দিনাজপুর জেলা, রংপুর বিভাগ, বাংলাদেশ",Khansama,বাংলাদেশ,রংপুর বিভাগ,street,,,,Bangladesh,Rangpur,Dinajpur,Khansama,Alokjhari,1c81d15201de84d1db62494d130945dd
1052189367.0,893c1bb6ddbffff,25.92978209179697,88.72839928472298,Khansama - Nilphamari Rd,,"Khansama - Nilphamari Rd, Khansama, Dinajpur District, Rangpur Division, Bangladesh","খানসামা - নীলফামারি আরডি, দিনাজপুর জেলা, রংপুর বিভাগ, বাংলাদেশ",Khansama,বাংলাদেশ,রংপুর বিভাগ,street,,,,Bangladesh,Rangpur,Dinajpur,Khansama,Alokjhari,1c81d15201de84d1db62494d130945dd
5199795900.0,893c1ba4cd3ffff,25.7711152,88.864241,Sona Pukur Durga Temple সোনা পুকুর দুর্গা মন্দির,,"Sona Pukur Durga Temple, Parbatipur, Dinajpur District, Rangpur Division, Bangladesh","সোনা পুকুর দুর্গা মন্দির, দিনাজপুর জেলা, রংপুর বিভাগ, বাংলাদেশ",Parbatipur,বাংলাদেশ,রংপুর বিভাগ,local_admin,boundaries,['place_of_worship'],[],Bangladesh,Rangpur,Dinajpur,Parbatipur,Belaichandi,42faca26b7bcecb74e36e41610598f6a
275036552.0,893c1ba2b93ffff,25.7527796,88.70441285,সেতু,['Bridge'],"Bridge, Dinajpur, Dinajpur District, Rangpur Division, Bangladesh","সেতু, দিনাজপুর জেলা, রংপুর বিভাগ, বাংলাদেশ",Dinajpur,বাংলাদেশ,রংপুর বিভাগ,street,,,,Bangladesh,Rangpur,Dinajpur,DinajpurSadar,Sundarban,7d2d0c53b84b294e39c85fbf731cf31a
5199796389.0,893c1ba41bbffff,25.769391,88.8527935,Debiganj Market,,"Debiganj Market, Dinajpur District, Rangpur Division, Bangladesh","দেবিগঞ্জ মার্কেট, দিনাজপুর জেলা, রংপুর বিভাগ, বাংলাদেশ",,বাংলাদেশ,রংপুর বিভাগ,admin2,boundaries,['marketplace'],[],Bangladesh,Rangpur,Dinajpur,Chirirbandar,Fatehjanapur,0053258332a5f4aa4cf0af49f2ff2747
5225889785.0,893c1b371d7ffff,25.5124191,88.8626837,Bejai Mor Bus Stop বেজাই মোড়,,"Bejai Mor Bus Stop, Fulbari Upazila, Dinajpur District, Rangpur Division, Bangladesh","বেজাই মোড়, ফুলবাড়ী উপজেলা দিনাজপুর, দিনাজপুর জেলা, রংপুর বিভাগ, বাংলাদেশ","ফুলবাড়ী উপজেলা, দিনাজপুর",বাংলাদেশ,রংপুর বিভাগ,street,boundaries,['bus_stop'],[],Bangladesh,Rangpur,Dinajpur,Fulbari,Eluary,460ff76e16d021efe37c67ff8928455d
5225891763.0,893c1badba3ffff,25.5437211,88.8384854,Ambari degree College jame masjid,,"Ambari degree College jame masjid, Parbatipur, Dinajpur District, Rangpur Division, Bangladesh","আম্বারি ডিগ্রি কলেজ জামে মসজিদ, দিনাজপুর জেলা, রংপুর বিভাগ, বাংলাদেশ",Parbatipur,বাংলাদেশ,রংপুর বিভাগ,local_admin,boundaries,['place_of_worship_muslim'],[],Bangladesh,Rangpur,Dinajpur,Chirirbandar,Punatti,b265ced3d993e514fb1f73bcb30a00ff
5227700982.0,893c1badba3ffff,25.5454403,88.837011,Mizan Mistanno Vandar,,"Mizan Mistanno Vandar, Dinajpur District, Rangpur Division, Bangladesh","মিজান মিসান্নো ভান্দার, দিনাজপুর জেলা, রংপুর বিভাগ, বাংলাদেশ",,বাংলাদেশ,রংপুর বিভাগ,admin2,boundaries,['restaurant'],[],Bangladesh,Rangpur,Dinajpur,Chirirbandar,Punatti,b265ced3d993e514fb1f73bcb30a00ff
5227701929.0,893c1badba3ffff,25.5450692,88.83703,Jahanara Pharmacy,,"Jahanara Pharmacy, Dinajpur District, Rangpur Division, Bangladesh","জাহানারা ফার্মাসি, দিনাজপুর জেলা, রংপুর বিভাগ, বাংলাদেশ",,বাংলাদেশ,রংপুর বিভাগ,admin2,boundaries,['pharmacy'],[],Bangladesh,Rangpur,Dinajpur,Chirirbandar,Punatti,b265ced3d993e514fb1f73bcb30a00ff
5227704741.0,893c1badbb7ffff,25.5491464,88.83894,আমবাড়ী শিল্পীপাড়া মন্দির আমবাড়ী শিল্পীপাড়া মন্দির,,"Ambari Shilipara Temple Ambari Shilipara Temple, Parbatipur, Dinajpur District, Rangpur Division, Bangladesh","আমবাড়ী শিল্পীপাড়া মন্দির আমবাড়ী শিল্পীপাড়া মন্দির, দিনাজপুর জেলা, রংপুর বিভাগ, বাংলাদেশ",Parbatipur,বাংলাদেশ,রংপুর বিভাগ,local_admin,boundaries,['place_of_worship'],[],Bangladesh,Rangpur,Dinajpur,Chirirbandar,Punatti,b265ced3d993e514fb1f73bcb30a00ff
275036549.0,893c1ba7413ffff,25.7727736,88.74016555,সেতু,['Bridge'],"Bridge, Dinajpur District, Rangpur Division, Bangladesh","সেতু, দিনাজপুর জেলা, রংপুর বিভাগ, বাংলাদেশ",,বাংলাদেশ,রংপুর বিভাগ,street,,,,Bangladesh,Rangpur,Dinajpur,Chirirbandar,Tentulia,c621d7df0b646eacbd39faffc3cdf47e
5227704997.0,893c1badba3ffff,25.5459744,88.83734,Afzal Sobahan Market,,"Afzal Sobahan Market, Parbatipur, Dinajpur District, Rangpur Division, Bangladesh","আফজাল সোহাহান বাজার, দিনাজপুর জেলা, রংপুর বিভাগ, বাংলাদেশ",Parbatipur,বাংলাদেশ,রংপুর বিভাগ,local_admin,boundaries,['marketplace'],[],Bangladesh,Rangpur,Dinajpur,Chirirbandar,Punatti,b265ced3d993e514fb1f73bcb30a00ff
5227705038.0,893c1badba3ffff,25.546317,88.8380526,Chaudhary tea stall চৌধুরীর চায়ের দোকান,,"Chaudhary tea stall, Parbatipur, Dinajpur District, Rangpur Division, Bangladesh","চৌধুরীর চায়ের দোকান, দিনাজপুর জেলা, রংপুর বিভাগ, বাংলাদেশ",Parbatipur,বাংলাদেশ,রংপুর বিভাগ,local_admin,boundaries,['tea'],[],Bangladesh,Rangpur,Dinajpur,Chirirbandar,Punatti,b265ced3d993e514fb1f73bcb30a00ff
363514266.0,893c196b6a3ffff,25.90822599743542,88.7829574406839,Khansama - Nilphamari Rd,,"Khansama - Nilphamari Rd, Khansama, Dinajpur District, Rangpur Division, Bangladesh","খানসামা - নীলফামারি আরডি, দিনাজপুর জেলা, রংপুর বিভাগ, বাংলাদেশ",Khansama,বাংলাদেশ,রংপুর বিভাগ,street,,,,Bangladesh,Rangpur,Dinajpur,Khansama,Bherbheri,e4e2bfc5a67cecdc469a858e29fe38ed
527002962.0,893c1bae893ffff,25.66515085837404,88.8141285938692,Dinajpur - Parbatipur Road,,"Dinajpur - Parbatipur Road, Dinajpur District, Rangpur Division, Bangladesh","দিনজপুর - পার্বতপুর রোড, দিনাজপুর জেলা, রংপুর বিভাগ, বাংলাদেশ",,বাংলাদেশ,রংপুর বিভাগ,street,,,,Bangladesh,Rangpur,Dinajpur,Chirirbandar,Abdulpur,ec7cd93b9e84659ceebc99bdaae1648b
524154088.0,893c1bb6d4fffff,25.92132699195308,88.73853680568519,Khansama - Nilphamari Rd,,"Khansama - Nilphamari Rd, Khansama, Dinajpur District, Rangpur Division, Bangladesh","খানসামা - নীলফামারি আরডি, দিনাজপুর জেলা, রংপুর বিভাগ, বাংলাদেশ",Khansama,বাংলাদেশ,রংপুর বিভাগ,street,,,,Bangladesh,Rangpur,Dinajpur,Khansama,Alokjhari,1c81d15201de84d1db62494d130945dd
301613321.0,893c1bae157ffff,25.65747853583212,88.77311353317694,দিনাজপুর - পার্বতীপুর সড়ক,"['দিনাজপুর - পার্বতীপুর সড়ক', 'Dinajpur - Parbatipur Road']","Dinajpur - Parbatipur Road, -, Dinajpur District, Rangpur Division, Bangladesh","দিনাজপুর পার্বতীপুর সড়ক, দিনাজপুর - পার্বতীপুর সড়ক, দিনাজপুর জেলা, রংপুর বিভাগ, বাংলাদেশ",,বাংলাদেশ,রংপুর বিভাগ,street,,,,Bangladesh,Rangpur,Dinajpur,Chirirbandar,Abdulpur,ec7cd93b9e84659ceebc99bdaae1648b
5227711881.0,893c1badbb3ffff,25.54767,88.8373544,Janoni homeopathic,,"Janoni homeopathic, Parbatipur, Dinajpur District, Rangpur Division, Bangladesh","জ্যাননি হোমিওপ্যাথিক, দিনাজপুর জেলা, রংপুর বিভাগ, বাংলাদেশ",Parbatipur,বাংলাদেশ,রংপুর বিভাগ,local_admin,boundaries,['pharmacy'],[],Bangladesh,Rangpur,Dinajpur,Chirirbandar,Punatti,b265ced3d993e514fb1f73bcb30a00ff
5227717782.0,893c1badbabffff,25.5429629,88.8370973,Ambari Bus Stand,,"Ambari Bus Stand, Dinajpur District, Rangpur Division, Bangladesh","আম্বারি বাস স্ট্যান্ড, দিনাজপুর জেলা, রংপুর বিভাগ, বাংলাদেশ",,বাংলাদেশ,রংপুর বিভাগ,street,boundaries,['bus_stop'],[],Bangladesh,Rangpur,Dinajpur,Chirirbandar,Punatti,b265ced3d993e514fb1f73bcb30a00ff
532314035.0,893c1bb6e1bffff,25.90325117782992,88.7075098237978,Khansama-Golapganj-Kabiraj Road,,"Khansama-Golapganj-Kabiraj Road, Khansama, Dinajpur District, Rangpur Division, Bangladesh","খানসামা-গোলাপগঞ্জ-কাবিরাজ রোড, দিনাজপুর জেলা, রংপুর বিভাগ, বাংলাদেশ",Khansama,বাংলাদেশ,রংপুর বিভাগ,street,,,,Bangladesh,Rangpur,Dinajpur,Birganj,Mohanpur,5dc7f543ab30e3762790fcd4f8f452ed
5227721519.0,893c1badab3ffff,25.5403916,88.8129691,Uchitpur More Bus Stop,,"Uchitpur More Bus Stop, Dinajpur District, Rangpur Division, Bangladesh","উচিটপুর আরও বাস স্টপ, দিনাজপুর জেলা, রংপুর বিভাগ, বাংলাদেশ",,বাংলাদেশ,রংপুর বিভাগ,street,boundaries,['bus_stop'],[],Bangladesh,Rangpur,Dinajpur,Chirirbandar,Punatti,b265ced3d993e514fb1f73bcb30a00ff
532314035.0,893c1bb6e1bffff,25.90325117782992,88.7075098237978,Khansama-Golapganj-Kabiraj Road,,"Khansama-Golapganj-Kabiraj Road, Birganj, Dinajpur District, Rangpur Division, Bangladesh","খানসামা-গোলাপগঞ্জ-কাবিরাজ রোড, দিনাজপুর জেলা, রংপুর বিভাগ, বাংলাদেশ",Birganj,বাংলাদেশ,রংপুর বিভাগ,street,,,,Bangladesh,Rangpur,Dinajpur,Birganj,Mohanpur,5dc7f543ab30e3762790fcd4f8f452ed
524134129.0,893c1bb690fffff,25.913771500000003,88.76282929999999,Khansama - Nilphamari Rd,,"Khansama - Nilphamari Rd, Khansama, Dinajpur District, Rangpur Division, Bangladesh","খানসামা - নীলফামারি আরডি, দিনাজপুর জেলা, রংপুর বিভাগ, বাংলাদেশ",Khansama,বাংলাদেশ,রংপুর বিভাগ,street,,,,Bangladesh,Rangpur,Dinajpur,Khansama,Alokjhari,1c81d15201de84d1db62494d130945dd
1052189364.0,893c1bb6c87ffff,25.93223666450068,88.71744234172931,Khansama-Golapganj-Kabiraj Road,,"Khansama-Golapganj-Kabiraj Road, Khansama, Dinajpur District, Rangpur Division, Bangladesh","খানসামা-গোলাপগঞ্জ-কাবিরাজ রোড, দিনাজপুর জেলা, রংপুর বিভাগ, বাংলাদেশ",Khansama,বাংলাদেশ,রংপুর বিভাগ,street,,,,Bangladesh,Rangpur,Dinajpur,Birganj,Mohanpur,5dc7f543ab30e3762790fcd4f8f452ed
1052189364.0,893c1bb6c87ffff,25.93223666450068,88.71744234172931,Khansama-Golapganj-Kabiraj Road,,"Khansama-Golapganj-Kabiraj Road, Birganj, Dinajpur District, Rangpur Division, Bangladesh","খানসামা-গোলাপগঞ্জ-কাবিরাজ রোড, দিনাজপুর জেলা, রংপুর বিভাগ, বাংলাদেশ",Birganj,বাংলাদেশ,রংপুর বিভাগ,street,,,,Bangladesh,Rangpur,Dinajpur,Birganj,Mohanpur,5dc7f543ab30e3762790fcd4f8f452ed
523828667.0,893c1bad3c7ffff,25.53924405,88.76030575,Mohonpur Bridge,,"Mohonpur Bridge, Dinajpur, Dinajpur District, Rangpur Division, Bangladesh","মোহনপুর ব্রিজ, দিনাজপুর জেলা, রংপুর বিভাগ, বাংলাদেশ",Dinajpur,বাংলাদেশ,রংপুর বিভাগ,street,,,,Bangladesh,Rangpur,Dinajpur,DinajpurSadar,Shankarpur,ff66e60c4abcbd359f170ccaae6dd11d
537363922.0,893c1bae62bffff,25.64640713502143,88.74010058317013,Dinajpur - Parbatipur Road,,"Dinajpur - Parbatipur Road, Dinajpur District, Rangpur Division, Bangladesh","দিনজপুর - পার্বতপুর রোড, দিনাজপুর জেলা, রংপুর বিভাগ, বাংলাদেশ",,বাংলাদেশ,রংপুর বিভাগ,street,,,,Bangladesh,Rangpur,Dinajpur,Chirirbandar,AuliaPukur,cbfcb91b32a01ec82cde50d5f35212a3
524270765.0,893c1bb4c4bffff,25.86167005,88.74292575,Z5005,,"Z5005, Khansama, Dinajpur District, Rangpur Division, Bangladesh","জেড 5005, দিনাজপুর জেলা, রংপুর বিভাগ, বাংলাদেশ",Khansama,বাংলাদেশ,রংপুর বিভাগ,street,,,,Bangladesh,Rangpur,Dinajpur,Khansama,KhamarPara,ddbdd7f49ccfcd07e3ce696ebc7bf619
526231469.0,893c1baf6b7ffff,25.60748564107523,88.69942649813653,দিনাজপুর - ফুলবাড়ি সড়ক,,"Dinajpur - Phulbari Road, -, Dinajpur, Dinajpur District, Rangpur Division, Bangladesh","দিনাজপুর ফুলবাড়ি সড়ক, দিনাজপুর জেলা, রংপুর বিভাগ, বাংলাদেশ",Dinajpur,বাংলাদেশ,রংপুর বিভাগ,street,,,,Bangladesh,Rangpur,Dinajpur,DinajpurSadar,Shashara,3a25c055709f20a4390c88768ff866f7
528538766.0,893c1bae6cbffff,25.6452027,88.71960625,Dinajpur - Parbatipur Road,,"Dinajpur - Parbatipur Road, Dinajpur District, Rangpur Division, Bangladesh","দিনজপুর - পার্বতপুর রোড, দিনাজপুর জেলা, রংপুর বিভাগ, বাংলাদেশ",,বাংলাদেশ,রংপুর বিভাগ,street,,,,Bangladesh,Rangpur,Dinajpur,Chirirbandar,AuliaPukur,cbfcb91b32a01ec82cde50d5f35212a3
527002949.0,893c1bae3a7ffff,25.647634466765663,88.78167685958579,কলেজ সড়ক,,"College road, Dinajpur District, Rangpur Division, Bangladesh","কলেজ সড়ক, দিনাজপুর জেলা, রংপুর বিভাগ, বাংলাদেশ",,বাংলাদেশ,রংপুর বিভাগ,street,,,,Bangladesh,Rangpur,Dinajpur,Chirirbandar,Abdulpur,ec7cd93b9e84659ceebc99bdaae1648b
528538737.0,893c1ba1b37ffff,25.64455016215969,88.71723936284472,Dinajpur - Parbatipur Road,,"Dinajpur - Parbatipur Road, Dinajpur District, Rangpur Division, Bangladesh","দিনজপুর - পার্বতপুর রোড, দিনাজপুর জেলা, রংপুর বিভাগ, বাংলাদেশ",,বাংলাদেশ,রংপুর বিভাগ,street,,,,Bangladesh,Rangpur,Dinajpur,Chirirbandar,AuliaPukur,cbfcb91b32a01ec82cde50d5f35212a3
524248562.0,893c196b683ffff,25.9085603,88.7739016,Khansama - Nilphamari Rd,,"Khansama - Nilphamari Rd, Khansama, Dinajpur District, Rangpur Division, Bangladesh","খানসামা - নীলফামারি আরডি, দিনাজপুর জেলা, রংপুর বিভাগ, বাংলাদেশ",Khansama,বাংলাদেশ,রংপুর বিভাগ,street,,,,Bangladesh,Rangpur,Dinajpur,Khansama,Bherbheri,e4e2bfc5a67cecdc469a858e29fe38ed
2825480208.0,893c1bae147ffff,25.656989,88.7761974,চিরিরবন্দর,"['চিরিরবন্দর', 'Chirir Bandar']","Chirir port, Chirir Bandar, Dinajpur District, Rangpur Division, Bangladesh","চিরিরবন্দর, দিনাজপুর জেলা, রংপুর বিভাগ, বাংলাদেশ",,বাংলাদেশ,রংপুর বিভাগ,locality,,,,Bangladesh,Rangpur,Dinajpur,Chirirbandar,Abdulpur,ec7cd93b9e84659ceebc99bdaae1648b
9137640344.0,893c1bb6d5bffff,25.9226607,88.7331981,খানসামা,"['খানসামা', 'Khanshama']","Khansama, Khanshama, Dinajpur District, Rangpur Division, Bangladesh","খানসামা, দিনাজপুর জেলা, রংপুর বিভাগ, বাংলাদেশ",Khansama,বাংলাদেশ,রংপুর বিভাগ,locality,,,,Bangladesh,Rangpur,Dinajpur,Khansama,Alokjhari,1c81d15201de84d1db62494d130945dd
5894264994.0,893c1b34453ffff,25.5095102,88.8849394,,['Barai'],"Fulbari Upazila, Dinajpur District, Rangpur Division, Bangladesh","ফুলবাড়ী উপজেলা দিনাজপুর, দিনাজপুর জেলা, রংপুর বিভাগ, বাংলাদেশ","ফুলবাড়ী উপজেলা, দিনাজপুর",বাংলাদেশ,রংপুর বিভাগ,local_admin,boundaries,['bus_stop'],[],Bangladesh,Rangpur,Dinajpur,Fulbari,Aladipur,5c361c0380ea59c51fd6e49c712d683b
5903145185.0,893c1b371bbffff,25.5128447,88.8719729,,['পুটকিয়া'],"Parbatipur, Dinajpur District, Rangpur Division, Bangladesh","দিনাজপুর জেলা, রংপুর বিভাগ, বাংলাদেশ",Parbatipur,বাংলাদেশ,রংপুর বিভাগ,local_admin,boundaries,['bus_stop'],[],Bangladesh,Rangpur,Dinajpur,Fulbari,Eluary,460ff76e16d021efe37c67ff8928455d
6741929293.0,893c1b22303ffff,25.385395,88.857045,Rezwan Maltimedia And Computer Training Centre,,"Rezwan Maltimedia And Computer Training Centre, Birampur Upazila, Dinajpur District, Rangpur Division, Bangladesh","রেজওয়ান মাল্টিমিডিয়া এবং কম্পিউটার প্রশিক্ষণ কেন্দ্র, বিরামপুর উপজেলা, দিনাজপুর জেলা, রংপুর বিভাগ, বাংলাদেশ",বিরামপুর উপজেলা,বাংলাদেশ,রংপুর বিভাগ,local_admin,boundaries,['computer'],[],Bangladesh,Rangpur,Dinajpur,Birampur,Benail,6006529cc7502eb757dce85fff5cbb6c
7174859985.0,893c1ba442bffff,25.7684014,88.8173743,,['চম্পাতলী বাজার'],"Dinajpur District, Rangpur Division, Bangladesh","দিনাজপুর জেলা, রংপুর বিভাগ, বাংলাদেশ",,বাংলাদেশ,রংপুর বিভাগ,admin2,boundaries,['bus_stop'],[],Bangladesh,Rangpur,Dinajpur,Chirirbandar,Alokdihi,a43377280ce0d28bc4cf20cb34e4dfca
530768926.0,893c1ba86c7ffff,25.55122925,88.58453371,,,"Biral, Dinajpur District, Rangpur Division, Bangladesh","দিনাজপুর জেলা, রংপুর বিভাগ, বাংলাদেশ",Biral,বাংলাদেশ,রংপুর বিভাগ,local_admin,boundaries,['ford'],[],Bangladesh,Rangpur,Dinajpur,Biral,Dharmapur,cc9a47c31128e45a66e8bedd0189c0d4
537104121.0,893c194d847ffff,25.90476897,88.59995764,রূপালী ব্যাংক লিমিটেড,['Rupali Bank Limited'],"Rupali Bank Limited, Birganj, Dinajpur District, Rangpur Division, Bangladesh","রূপালী ব্যাংক লিমিটেড, দিনাজপুর জেলা, রংপুর বিভাগ, বাংলাদেশ",Birganj,বাংলাদেশ,রংপুর বিভাগ,local_admin,boundaries,['bank'],[],Bangladesh,Rangpur,Dinajpur,Birganj,Bhognagar,4f7b789fe1f2b33712313e004ea9497d
537105973.0,893c194de33ffff,25.90778476,88.58567805,Hussain Filling Station হুসেন ফিলিং ষ্টেশন,,"Hussain Filling Station, Birganj, Dinajpur District, Rangpur Division, Bangladesh","হুসেন ফিলিং ষ্টেশন, দিনাজপুর জেলা, রংপুর বিভাগ, বাংলাদেশ",Birganj,বাংলাদেশ,রংপুর বিভাগ,local_admin,boundaries,['fuel'],[],Bangladesh,Rangpur,Dinajpur,Birganj,Bhognagar,4f7b789fe1f2b33712313e004ea9497d
537109075.0,893c194d157ffff,25.9154076,88.55630625,25 Bazar Old Jami Mosque ২৫ মাইল বাজার পুরাতন জামে মসজিদ,,"25 Bazar Old Jami Mosque, Birganj, Dinajpur District, Rangpur Division, Bangladesh","২৫ মাইল বাজার পুরাতন জামে মসজিদ, দিনাজপুর জেলা, রংপুর বিভাগ, বাংলাদেশ",Birganj,বাংলাদেশ,রংপুর বিভাগ,local_admin,boundaries,['place_of_worship_muslim'],[],Bangladesh,Rangpur,Dinajpur,Birganj,Satair,fb1cbdd1606044ab5c6f476af939b2c5
537110361.0,893c194d19bffff,25.92520415,88.55300315,Old 26 Mile Bangpukur Jame Mosjid,,"Old 26 Mile Bangpukur Jame Mosjid, Birganj, Dinajpur District, Rangpur Division, Bangladesh","ওল্ড 26 মাইল ব্যাংপুকুর জামে মোসজিড, দিনাজপুর জেলা, রংপুর বিভাগ, বাংলাদেশ",Birganj,বাংলাদেশ,রংপুর বিভাগ,local_admin,boundaries,['place_of_worship_muslim'],[],Bangladesh,Rangpur,Dinajpur,Birganj,Satair,fb1cbdd1606044ab5c6f476af939b2c5
537112697.0,893c194d193ffff,25.92848488,88.55197211,Malik's Farm Jame Mosque,,"Malik's Farm Jame Mosque, Birganj, Dinajpur District, Rangpur Division, Bangladesh","মালিকের খামার জামে মসজিদ, দিনাজপুর জেলা, রংপুর বিভাগ, বাংলাদেশ",Birganj,বাংলাদেশ,রংপুর বিভাগ,local_admin,boundaries,['place_of_worship_muslim'],[],Bangladesh,Rangpur,Dinajpur,Birganj,Satair,fb1cbdd1606044ab5c6f476af939b2c5
537112969.0,893c194d523ffff,25.93383156,88.54917828,Ali Filling Station আলী ফিলিং স্টেশন,,"Ali Filling Station, Birganj, Dinajpur District, Rangpur Division, Bangladesh","আলী ফিলিং স্টেশন, দিনাজপুর জেলা, রংপুর বিভাগ, বাংলাদেশ",Birganj,বাংলাদেশ,রংপুর বিভাগ,local_admin,boundaries,['fuel'],[],Bangladesh,Rangpur,Dinajpur,Birganj,Satair,fb1cbdd1606044ab5c6f476af939b2c5
537113316.0,893c194d5a3ffff,25.94091203,88.54555997,Dolua Bazar Jame Masjid,,"Dolua Bazar Jame Masjid, Birganj, Dinajpur District, Rangpur Division, Bangladesh","দোলুয়া বাজার জামে মসজিদ, দিনাজপুর জেলা, রংপুর বিভাগ, বাংলাদেশ",Birganj,বাংলাদেশ,রংপুর বিভাগ,local_admin,boundaries,['place_of_worship_muslim'],[],Bangladesh,Rangpur,Dinajpur,Birganj,Satair,fb1cbdd1606044ab5c6f476af939b2c5
537113497.0,893c194c64bffff,25.94713599,88.54129258,28 Mile Bazar Jame Masjid ২৮ মাইল বাজার জামে মসজিদ,,"28 Mile Bazar Jame Masjid, Birganj, Dinajpur District, Rangpur Division, Bangladesh","২৮ মাইল বাজার জামে মসজিদ, দিনাজপুর জেলা, রংপুর বিভাগ, বাংলাদেশ",Birganj,বাংলাদেশ,রংপুর বিভাগ,local_admin,boundaries,['place_of_worship_muslim'],[],Bangladesh,Rangpur,Dinajpur,Birganj,Satair,fb1cbdd1606044ab5c6f476af939b2c5
537144565.0,893c1bb0e13ffff,25.8059755,88.57001873,,,"Kaharole, Dinajpur District, Rangpur Division, Bangladesh","দিনাজপুর জেলা, রংপুর বিভাগ, বাংলাদেশ",Kaharole,বাংলাদেশ,রংপুর বিভাগ,local_admin,boundaries,['park'],[],Bangladesh,Rangpur,Dinajpur,Kaharole,Rasulpur,b07ffa6ded4467676e06df63d9f06765
537344899.0,893c1bb2167ffff,25.8617585,88.53003015,ডাবর পুরাতন জামে মসজিদ,,"Dabur Old Jame Mosque, Kaharole, Dinajpur District, Rangpur Division, Bangladesh","ডাবর পুরাতন জামে মসজিদ, দিনাজপুর জেলা, রংপুর বিভাগ, বাংলাদেশ",Kaharole,বাংলাদেশ,রংপুর বিভাগ,local_admin,boundaries,['place_of_worship_muslim'],[],Bangladesh,Rangpur,Dinajpur,Kaharole,Dabar,3fea0e4130efdc43d78796279536ad17
537345494.0,893c1bb2143ffff,25.86299753,88.51705453,Joynando Bazar Mosque,,"Joynando Bazar Mosque, Kaharole, Dinajpur District, Rangpur Division, Bangladesh","জয়ানন্দো বাজার মসজিদ, দিনাজপুর জেলা, রংপুর বিভাগ, বাংলাদেশ",Kaharole,বাংলাদেশ,রংপুর বিভাগ,local_admin,boundaries,['place_of_worship_muslim'],[],Bangladesh,Rangpur,Dinajpur,Kaharole,Dabar,3fea0e4130efdc43d78796279536ad17
2381389093.0,893c1baacabffff,25.6256582,88.6371367,Dinajpur General Hospital,,"Dinajpur General Hospital, Dinajpur, Dinajpur District, Rangpur Division, Bangladesh","দিনজপুর জেনারেল হাসপাতাল, দিনাজপুর জেলা, রংপুর বিভাগ, বাংলাদেশ",Dinajpur,বাংলাদেশ,রংপুর বিভাগ,local_admin,boundaries,['hospital'],[],Bangladesh,Rangpur,Dinajpur,DinajpurSadar,Paurashava,2a2ee293b891249ecde588c78e6afc45
2381389722.0,893c1bb0bcfffff,25.7937281,88.606676,Kaharole Upazila Health Complex,,"Kaharole Upazila Health Complex, Kaharole, Dinajpur District, Rangpur Division, Bangladesh","কাহারোল উপজিলা স্বাস্থ্য কমপ্লেক্স, দিনাজপুর জেলা, রংপুর বিভাগ, বাংলাদেশ",Kaharole,বাংলাদেশ,রংপুর বিভাগ,local_admin,boundaries,['hospital'],[],Bangladesh,Rangpur,Dinajpur,Kaharole,Mukundapur,f556e0dafb61fd9b42bbc62e9bc2dbe6
2508504137.0,893c1baacabffff,25.6245627,88.6369105,Dinajpur Zilla School,,"Dinajpur Zilla School, Dinajpur, Dinajpur District, Rangpur Division, Bangladesh","দিনজপুর জিলা স্কুল, দিনাজপুর জেলা, রংপুর বিভাগ, বাংলাদেশ",Dinajpur,বাংলাদেশ,রংপুর বিভাগ,local_admin,boundaries,['school'],[],Bangladesh,Rangpur,Dinajpur,DinajpurSadar,Paurashava,2a2ee293b891249ecde588c78e6afc45
2508506603.0,893c1baacabffff,25.6241527,88.6378714,Dinajpur Municipal High School,,"Dinajpur Municipal High School, Dinajpur, Dinajpur District, Rangpur Division, Bangladesh","দিনজপুর পৌর উচ্চ বিদ্যালয়, দিনাজপুর জেলা, রংপুর বিভাগ, বাংলাদেশ",Dinajpur,বাংলাদেশ,রংপুর বিভাগ,local_admin,boundaries,['school'],[],Bangladesh,Rangpur,Dinajpur,DinajpurSadar,Paurashava,2a2ee293b891249ecde588c78e6afc45
2508509405.0,893c1baacabffff,25.6263383,88.6378239,Civil Surgeon Office,,"Civil Surgeon Office, Dinajpur, Dinajpur District, Rangpur Division, Bangladesh","সিভিল সার্জন অফিস, দিনাজপুর জেলা, রংপুর বিভাগ, বাংলাদেশ",Dinajpur,বাংলাদেশ,রংপুর বিভাগ,local_admin,boundaries,['government'],[],Bangladesh,Rangpur,Dinajpur,DinajpurSadar,Paurashava,2a2ee293b891249ecde588c78e6afc45
2508510818.0,893c1baaca3ffff,25.6266021,88.638255,Institute of Nuclear Medicine and Allied Sciences,,"Institute of Nuclear Medicine and Allied Sciences, Dinajpur, Dinajpur District, Rangpur Division, Bangladesh","পারমাণবিক মেডিসিন এবং মিত্র বিজ্ঞান ইনস্টিটিউট, দিনাজপুর জেলা, রংপুর বিভাগ, বাংলাদেশ",Dinajpur,বাংলাদেশ,রংপুর বিভাগ,local_admin,boundaries,['hospital'],[],Bangladesh,Rangpur,Dinajpur,DinajpurSadar,Paurashava,2a2ee293b891249ecde588c78e6afc45
2508511951.0,893c1baacbbffff,25.6277169,88.6335854,Lily More,['লিলি মোড়'],"Lily More, Dinajpur, Dinajpur District, Rangpur Division, Bangladesh","লিলি আরও, দিনাজপুর জেলা, রংপুর বিভাগ, বাংলাদেশ",Dinajpur,বাংলাদেশ,রংপুর বিভাগ,street,boundaries,['bus_stop'],[],Bangladesh,Rangpur,Dinajpur,DinajpurSadar,Paurashava,2a2ee293b891249ecde588c78e6afc45
2508513420.0,893c1baaca7ffff,25.6280983,88.6406692,Law College More,['আইন কলেজ মোড়'],"Law College More, Dinajpur, Dinajpur District, Rangpur Division, Bangladesh","আইন কলেজ আরও, দিনাজপুর জেলা, রংপুর বিভাগ, বাংলাদেশ",Dinajpur,বাংলাদেশ,রংপুর বিভাগ,local_admin,boundaries,['attraction'],[],Bangladesh,Rangpur,Dinajpur,DinajpurSadar,Paurashava,2a2ee293b891249ecde588c78e6afc45
2509372423.0,893c1baac07ffff,25.6220111,88.6357071,DC Office,,"DC Office, Dinajpur, Dinajpur District, Rangpur Division, Bangladesh","ডিসি অফিস, দিনাজপুর জেলা, রংপুর বিভাগ, বাংলাদেশ",Dinajpur,বাংলাদেশ,রংপুর বিভাগ,local_admin,boundaries,['government'],[],Bangladesh,Rangpur,Dinajpur,DinajpurSadar,Paurashava,2a2ee293b891249ecde588c78e6afc45
3509281784.0,893c1bb714fffff,25.8589318,88.6551308,Dina purchase Bus Stand,,"Dina purchase Bus Stand, Birganj, Dinajpur District, Rangpur Division, Bangladesh","ডিনা ক্রয় বাস স্ট্যান্ড, দিনাজপুর জেলা, রংপুর বিভাগ, বাংলাদেশ",Birganj,বাংলাদেশ,রংপুর বিভাগ,street,boundaries,['bus_stop'],[],Bangladesh,Rangpur,Dinajpur,Birganj,Paurashava,386c7f31ecb3cf1c265ed8047fa6b171
3941919938.0,893c1baac17ffff,25.6249608,88.632424,দিনাজপুর,"['দিনাজপুর রেলওয়ে স্টেশন', 'দিনাজপুর', 'Dinajpur']","Dinajpur, Dinajpur District, Rangpur Division, Bangladesh","দিনাজপুর, দিনাজপুর জেলা, রংপুর বিভাগ, বাংলাদেশ",Dinajpur,বাংলাদেশ,রংপুর বিভাগ,local_admin,boundaries,['railway_station'],[],Bangladesh,Rangpur,Dinajpur,DinajpurSadar,Paurashava,2a2ee293b891249ecde588c78e6afc45
4160227789.0,893c1ba133bffff,25.6422313,88.6462899,aristocrats,,"aristocrats, Dinajpur, Dinajpur District, Rangpur Division, Bangladesh","অভিজাত, দিনাজপুর জেলা, রংপুর বিভাগ, বাংলাদেশ",Dinajpur,বাংলাদেশ,রংপুর বিভাগ,local_admin,boundaries,['castle'],[],Bangladesh,Rangpur,Dinajpur,DinajpurSadar,Chehelgazi,78ff3cefbb48c4ed3ff608d5ce543dfa
4315763596.0,893c1baad17ffff,25.6319578,88.65811,মাতাসাগর মোড়,,"Matasagar twist, Dinajpur, Dinajpur District, Rangpur Division, Bangladesh","মাতাসাগর মোড়, দিনাজপুর জেলা, রংপুর বিভাগ, বাংলাদেশ",Dinajpur,বাংলাদেশ,রংপুর বিভাগ,local_admin,boundaries,['viewpoint'],[],Bangladesh,Rangpur,Dinajpur,DinajpurSadar,Sekhpura,f8a585b041906cd45f8c8472e5abc9be
4532965708.0,893c1baac33ffff,25.6224783,88.6383216,,,"Dinajpur, Dinajpur District, Rangpur Division, Bangladesh","দিনাজপুর জেলা, রংপুর বিভাগ, বাংলাদেশ",Dinajpur,বাংলাদেশ,রংপুর বিভাগ,local_admin,boundaries,['playground'],[],Bangladesh,Rangpur,Dinajpur,DinajpurSadar,Paurashava,2a2ee293b891249ecde588c78e6afc45
4532972765.0,893c1baac27ffff,25.6231538,88.6446933,,,"Dinajpur, Dinajpur District, Rangpur Division, Bangladesh","দিনাজপুর জেলা, রংপুর বিভাগ, বাংলাদেশ",Dinajpur,বাংলাদেশ,রংপুর বিভাগ,local_admin,boundaries,['place_of_worship_muslim'],[],Bangladesh,Rangpur,Dinajpur,DinajpurSadar,Paurashava,2a2ee293b891249ecde588c78e6afc45
4545955860.0,893c1baac17ffff,25.6250882,88.6326565,Sadek Tea Store,,"Sadek Tea Store, Dinajpur, Dinajpur District, Rangpur Division, Bangladesh","সাদেক চা স্টোর, দিনাজপুর জেলা, রংপুর বিভাগ, বাংলাদেশ",Dinajpur,বাংলাদেশ,রংপুর বিভাগ,local_admin,boundaries,['tea'],[],Bangladesh,Rangpur,Dinajpur,DinajpurSadar,Paurashava,2a2ee293b891249ecde588c78e6afc45
4545955876.0,893c1baac17ffff,25.6240383,88.6348745,Rolex Fast Food & Bekery,,"Rolex Fast Food & Bekery, Dinajpur, Dinajpur District, Rangpur Division, Bangladesh","রোলেক্স ফাস্ট ফুড এবং বেকারি, দিনাজপুর জেলা, রংপুর বিভাগ, বাংলাদেশ",Dinajpur,বাংলাদেশ,রংপুর বিভাগ,local_admin,boundaries,['bakery'],[],Bangladesh,Rangpur,Dinajpur,DinajpurSadar,Paurashava,2a2ee293b891249ecde588c78e6afc45
4545973501.0,893c1baacbbffff,25.6274736,88.6329159,আইবিবিএল ব্যাংক এটিএম,['IBBL Bank ATM'],"IBBL Bank ATM, Dinajpur, Dinajpur District, Rangpur Division, Bangladesh","আইবিবিএল ব্যাংক এটিএম, দিনাজপুর জেলা, রংপুর বিভাগ, বাংলাদেশ",Dinajpur,বাংলাদেশ,রংপুর বিভাগ,local_admin,boundaries,['atm'],[],Bangladesh,Rangpur,Dinajpur,DinajpurSadar,Paurashava,2a2ee293b891249ecde588c78e6afc45
4545973991.0,893c1baacbbffff,25.6270479,88.6328635,AB  Bank Limited,,"AB Bank Limited, Dinajpur, Dinajpur District, Rangpur Division, Bangladesh","আব ব্যাংক লিমিটেড, দিনাজপুর জেলা, রংপুর বিভাগ, বাংলাদেশ",Dinajpur,বাংলাদেশ,রংপুর বিভাগ,local_admin,boundaries,['atm'],[],Bangladesh,Rangpur,Dinajpur,DinajpurSadar,Paurashava,2a2ee293b891249ecde588c78e6afc45
4545974148.0,893c1baacbbffff,25.627106,88.6329441,Masuma Hotel,,"Masuma Hotel, Dinajpur, Dinajpur District, Rangpur Division, Bangladesh","মাসুমা হোটেল, দিনাজপুর জেলা, রংপুর বিভাগ, বাংলাদেশ",Dinajpur,বাংলাদেশ,রংপুর বিভাগ,local_admin,boundaries,['restaurant'],[],Bangladesh,Rangpur,Dinajpur,DinajpurSadar,Paurashava,2a2ee293b891249ecde588c78e6afc45
4545977306.0,893c1baacbbffff,25.6271495,88.632987,মার্চেন্টাইল কো-অপারেটিভ ব্যাংক,['Mercantile Co-operative Bank'],"Merchantile Co-operative Bank, Dinajpur, Dinajpur District, Rangpur Division, Bangladesh","মার্চেন্টাইল কো-অপারেটিভ ব্যাংক, দিনাজপুর জেলা, রংপুর বিভাগ, বাংলাদেশ",Dinajpur,বাংলাদেশ,রংপুর বিভাগ,local_admin,boundaries,['bank'],[],Bangladesh,Rangpur,Dinajpur,DinajpurSadar,Paurashava,2a2ee293b891249ecde588c78e6afc45
4545991533.0,893c1baacb3ffff,25.6301219,88.6350097,Mercantile Bank Limited,,"Mercantile Bank Limited, Dinajpur, Dinajpur District, Rangpur Division, Bangladesh","মার্কেন্টাইল ব্যাংক লিমিটেড, দিনাজপুর জেলা, রংপুর বিভাগ, বাংলাদেশ",Dinajpur,বাংলাদেশ,রংপুর বিভাগ,local_admin,boundaries,['bank'],[],Bangladesh,Rangpur,Dinajpur,DinajpurSadar,Paurashava,2a2ee293b891249ecde588c78e6afc45
4547933487.0,893c1baacbbffff,25.6276073,88.6335707,Bata Bazar,,"Bata Bazar, Dinajpur, Dinajpur District, Rangpur Division, Bangladesh","বাটা বাজার, দিনাজপুর জেলা, রংপুর বিভাগ, বাংলাদেশ",Dinajpur,বাংলাদেশ,রংপুর বিভাগ,local_admin,boundaries,['shoes'],[],Bangladesh,Rangpur,Dinajpur,DinajpurSadar,Paurashava,2a2ee293b891249ecde588c78e6afc45
4752738302.0,893c1bb5237ffff,25.79035,88.6667818,Kantanagar Temple,['Kantajew Temple'],"Kantanagar Temple, Kaharole, Dinajpur District, Rangpur Division, Bangladesh","কান্তানগর মন্দির, দিনাজপুর জেলা, রংপুর বিভাগ, বাংলাদেশ",Kaharole,বাংলাদেশ,রংপুর বিভাগ,local_admin,boundaries,['place_of_worship'],[],Bangladesh,Rangpur,Dinajpur,Kaharole,Sundarpur,6ff357b620205788878d4ab93e83ea80
542970280.0,893c1bb9c17ffff,25.62660441,88.5001776,,,"Biral, Dinajpur District, Rangpur Division, Bangladesh","দিনাজপুর জেলা, রংপুর বিভাগ, বাংলাদেশ",Biral,বাংলাদেশ,রংপুর বিভাগ,local_admin,boundaries,['park'],[],Bangladesh,Rangpur,Dinajpur,Biral,Bhandara,4ab4603e076223395dfaeb117bd887af
543033210.0,893c1bbac13ffff,25.72703657,88.50105973,,,"Biral, Dinajpur District, Rangpur Division, Bangladesh","দিনাজপুর জেলা, রংপুর বিভাগ, বাংলাদেশ",Biral,বাংলাদেশ,রংপুর বিভাগ,local_admin,boundaries,['ford'],[],Bangladesh,Rangpur,Dinajpur,Biral,Sahargram,42a97b47f167137e02d638d07e64d610
543033212.0,893c1bbac83ffff,25.73017596,88.5007916,,,"Biral, Dinajpur District, Rangpur Division, Bangladesh","দিনাজপুর জেলা, রংপুর বিভাগ, বাংলাদেশ",Biral,বাংলাদেশ,রংপুর বিভাগ,local_admin,boundaries,['ford'],[],Bangladesh,Rangpur,Dinajpur,Biral,Mangalpur,ee50b79089c1ba567d19e8f5408913c0
543033213.0,893c1bbac13ffff,25.72510955,88.50122624,,,"Biral, Dinajpur District, Rangpur Division, Bangladesh","দিনাজপুর জেলা, রংপুর বিভাগ, বাংলাদেশ",Biral,বাংলাদেশ,রংপুর বিভাগ,local_admin,boundaries,['ford'],[],Bangladesh,Rangpur,Dinajpur,Biral,Sahargram,42a97b47f167137e02d638d07e64d610
543211835.0,893c1bb8c97ffff,25.68495268,88.53093672,,,"Biral, Dinajpur District, Rangpur Division, Bangladesh","দিনাজপুর জেলা, রংপুর বিভাগ, বাংলাদেশ",Biral,বাংলাদেশ,রংপুর বিভাগ,local_admin,boundaries,['ford'],[],Bangladesh,Rangpur,Dinajpur,Biral,Dhamair,a570f1a804f6d73f1cbd549b020264cf
543211836.0,893c1bbaa2fffff,25.68621853,88.52949281,,,"Biral, Dinajpur District, Rangpur Division, Bangladesh","দিনাজপুর জেলা, রংপুর বিভাগ, বাংলাদেশ",Biral,বাংলাদেশ,রংপুর বিভাগ,local_admin,boundaries,['ford'],[],Bangladesh,Rangpur,Dinajpur,Biral,Sahargram,42a97b47f167137e02d638d07e64d610
5162994684.0,893c197943bffff,25.9748916,88.6941023,,,"Birganj, Dinajpur District, Rangpur Division, Bangladesh","দিনাজপুর জেলা, রংপুর বিভাগ, বাংলাদেশ",Birganj,বাংলাদেশ,রংপুর বিভাগ,local_admin,boundaries,['ford'],[],Bangladesh,Rangpur,Dinajpur,Birganj,Shatagram,09fbe00eaf09cad0e04ed9190d8a279a
5163888470.0,893c1bb541bffff,25.8228027,88.6416667,,,"Kaharole, Dinajpur District, Rangpur Division, Bangladesh","দিনাজপুর জেলা, রংপুর বিভাগ, বাংলাদেশ",Kaharole,বাংলাদেশ,রংপুর বিভাগ,local_admin,boundaries,['ford'],[],Bangladesh,Rangpur,Dinajpur,Kaharole,Mukundapur,f556e0dafb61fd9b42bbc62e9bc2dbe6
5170585078.0,893c1baa937ffff,25.6144822,88.6859963,,,"Dinajpur, Dinajpur District, Rangpur Division, Bangladesh","দিনাজপুর জেলা, রংপুর বিভাগ, বাংলাদেশ",Dinajpur,বাংলাদেশ,রংপুর বিভাগ,local_admin,boundaries,['ford'],[],Bangladesh,Rangpur,Dinajpur,DinajpurSadar,Sekhpura,f8a585b041906cd45f8c8472e5abc9be
5170625001.0,893c1baf4cfffff,25.6172244,88.6920831,,,"Dinajpur, Dinajpur District, Rangpur Division, Bangladesh","দিনাজপুর জেলা, রংপুর বিভাগ, বাংলাদেশ",Dinajpur,বাংলাদেশ,রংপুর বিভাগ,local_admin,boundaries,['ford'],[],Bangladesh,Rangpur,Dinajpur,DinajpurSadar,Sekhpura,f8a585b041906cd45f8c8472e5abc9be
5170635672.0,893c1baf457ffff,25.6158439,88.6958443,,,"Dinajpur, Dinajpur District, Rangpur Division, Bangladesh","দিনাজপুর জেলা, রংপুর বিভাগ, বাংলাদেশ",Dinajpur,বাংলাদেশ,রংপুর বিভাগ,local_admin,boundaries,['ford'],[],Bangladesh,Rangpur,Dinajpur,DinajpurSadar,Sekhpura,f8a585b041906cd45f8c8472e5abc9be
5170635698.0,893c1baf41bffff,25.6181078,88.6966348,,,"Dinajpur, Dinajpur District, Rangpur Division, Bangladesh","দিনাজপুর জেলা, রংপুর বিভাগ, বাংলাদেশ",Dinajpur,বাংলাদেশ,রংপুর বিভাগ,local_admin,boundaries,['ford'],[],Bangladesh,Rangpur,Dinajpur,DinajpurSadar,Sekhpura,f8a585b041906cd45f8c8472e5abc9be
5181363424.0,893c1bb0d6fffff,25.8230113,88.608208,,,"Kaharole, Dinajpur District, Rangpur Division, Bangladesh","দিনাজপুর জেলা, রংপুর বিভাগ, বাংলাদেশ",Kaharole,বাংলাদেশ,রংপুর বিভাগ,local_admin,boundaries,['ford'],[],Bangladesh,Rangpur,Dinajpur,Birganj,Sujalpur,0a798e1100e879e590e69ca4c02ddfcf
5181458323.0,893c1bb0823ffff,25.8107196,88.6049804,,,"Kaharole, Dinajpur District, Rangpur Division, Bangladesh","দিনাজপুর জেলা, রংপুর বিভাগ, বাংলাদেশ",Kaharole,বাংলাদেশ,রংপুর বিভাগ,local_admin,boundaries,['ford'],[],Bangladesh,Rangpur,Dinajpur,Kaharole,Rasulpur,b07ffa6ded4467676e06df63d9f06765
5188688079.0,893c1ba2677ffff,25.7491605,88.606641,,,"Kaharole, Dinajpur District, Rangpur Division, Bangladesh","দিনাজপুর জেলা, রংপুর বিভাগ, বাংলাদেশ",Kaharole,বাংলাদেশ,রংপুর বিভাগ,local_admin,boundaries,['ford'],[],Bangladesh,Rangpur,Dinajpur,Kaharole,Ramchandrapur,2b9568c4373014513816e5efd1554c23
5188702713.0,893c1ba2667ffff,25.7451847,88.6100177,,,"Kaharole, Dinajpur District, Rangpur Division, Bangladesh","দিনাজপুর জেলা, রংপুর বিভাগ, বাংলাদেশ",Kaharole,বাংলাদেশ,রংপুর বিভাগ,local_admin,boundaries,['ford'],[],Bangladesh,Rangpur,Dinajpur,Kaharole,Ramchandrapur,2b9568c4373014513816e5efd1554c23
905665444.0,893c1ba9087ffff,25.51510899,88.57629809,,,"Biral, Dinajpur District, Rangpur Division, Bangladesh","দিনাজপুর জেলা, রংপুর বিভাগ, বাংলাদেশ",Biral,বাংলাদেশ,রংপুর বিভাগ,local_admin,boundaries,['ford'],[],Bangladesh,Rangpur,Dinajpur,DinajpurSadar,Askarpur,e218fc0d54de329303a754079769f0d6
5201658979.0,893c1ba2ea3ffff,25.7569909,88.6738923,Dashmail Durga Temple,,"Dashmail Durga Temple, Kaharole, Dinajpur District, Rangpur Division, Bangladesh","ড্যাশমেল দুর্গা মন্দির, দিনাজপুর জেলা, রংপুর বিভাগ, বাংলাদেশ",Kaharole,বাংলাদেশ,রংপুর বিভাগ,local_admin,boundaries,['place_of_worship'],[],Bangladesh,Rangpur,Dinajpur,Kaharole,Sundarpur,6ff357b620205788878d4ab93e83ea80
5201659542.0,893c1ba2eabffff,25.7565501,88.6739881,Dosh Mile Bus Stop,,"Dosh Mile Bus Stop, Kaharole, Dinajpur District, Rangpur Division, Bangladesh","দোশ মাইল বাস স্টপ, দিনাজপুর জেলা, রংপুর বিভাগ, বাংলাদেশ",Kaharole,বাংলাদেশ,রংপুর বিভাগ,street,boundaries,['bus_stop'],[],Bangladesh,Rangpur,Dinajpur,Kaharole,Sundarpur,6ff357b620205788878d4ab93e83ea80
5201675290.0,893c1bb5393ffff,25.8039536,88.6761486,Vuiya Fashion,,"Vuiya Fashion, Kaharole, Dinajpur District, Rangpur Division, Bangladesh","ভুইয়া ফ্যাশন, দিনাজপুর জেলা, রংপুর বিভাগ, বাংলাদেশ",Kaharole,বাংলাদেশ,রংপুর বিভাগ,local_admin,boundaries,['clothes'],[],Bangladesh,Rangpur,Dinajpur,Kaharole,Mukundapur,f556e0dafb61fd9b42bbc62e9bc2dbe6
5201687330.0,893c1bb50b3ffff,25.8179171,88.665627,Rampur Bus Stop রামপুর বাস স্টপ,,"Rampur Bus Stop, Kaharole, Dinajpur District, Rangpur Division, Bangladesh","রামপুর বাস স্টপ, দিনাজপুর জেলা, রংপুর বিভাগ, বাংলাদেশ",Kaharole,বাংলাদেশ,রংপুর বিভাগ,street,boundaries,['bus_stop'],[],Bangladesh,Rangpur,Dinajpur,Kaharole,Mukundapur,f556e0dafb61fd9b42bbc62e9bc2dbe6
5201687379.0,893c1bb50b3ffff,25.8186639,88.665072,"Ahmadiyya Muslim Mosque, Rampur",,"Ahmadiyya Muslim Mosque Rampur, Kaharole, Dinajpur District, Rangpur Division, Bangladesh","আহমদিয়া মুসলিম মসজিদ রামপুর, দিনাজপুর জেলা, রংপুর বিভাগ, বাংলাদেশ",Kaharole,বাংলাদেশ,রংপুর বিভাগ,local_admin,boundaries,['place_of_worship_muslim'],[],Bangladesh,Rangpur,Dinajpur,Kaharole,Mukundapur,f556e0dafb61fd9b42bbc62e9bc2dbe6
5201689125.0,893c1bb55cfffff,25.8276091,88.6621873,Rampur Bazar Bus Stop রামপুর বাজার বাস স্টপ,,"Rampur Bazar Bus Stop, Kaharole, Dinajpur District, Rangpur Division, Bangladesh","রামপুর বাজার বাস স্টপ, দিনাজপুর জেলা, রংপুর বিভাগ, বাংলাদেশ",Kaharole,বাংলাদেশ,রংপুর বিভাগ,street,boundaries,['bus_stop'],[],Bangladesh,Rangpur,Dinajpur,Kaharole,Mukundapur,f556e0dafb61fd9b42bbc62e9bc2dbe6
5201708926.0,893c1bb714fffff,25.8583277,88.6548663,Mokbul Hotel মকবুল হোটেল,,"Mokbul Hotel, Birganj, Dinajpur District, Rangpur Division, Bangladesh","মকবুল হোটেল, দিনাজপুর জেলা, রংপুর বিভাগ, বাংলাদেশ",Birganj,বাংলাদেশ,রংপুর বিভাগ,local_admin,boundaries,['restaurant'],[],Bangladesh,Rangpur,Dinajpur,Birganj,Paurashava,386c7f31ecb3cf1c265ed8047fa6b171
5201714479.0,893c1bb714fffff,25.8584206,88.654865,New Sadhona Sweets নিউ সাধনা সুইটস,,"New Sadhona Sweets, Birganj, Dinajpur District, Rangpur Division, Bangladesh","নিউ সাধনা সুইটস, দিনাজপুর জেলা, রংপুর বিভাগ, বাংলাদেশ",Birganj,বাংলাদেশ,রংপুর বিভাগ,local_admin,boundaries,['restaurant'],[],Bangladesh,Rangpur,Dinajpur,Birganj,Paurashava,386c7f31ecb3cf1c265ed8047fa6b171
5201719358.0,893c1bb714fffff,25.8592287,88.6552663,,,"Birganj, Dinajpur District, Rangpur Division, Bangladesh","দিনাজপুর জেলা, রংপুর বিভাগ, বাংলাদেশ",Birganj,বাংলাদেশ,রংপুর বিভাগ,local_admin,boundaries,['atm'],[],Bangladesh,Rangpur,Dinajpur,Birganj,Paurashava,386c7f31ecb3cf1c265ed8047fa6b171
5201721999.0,893c1bb714fffff,25.8588677,88.6552269,SHAH SUPER MARKET শাহ সুপার মার্কেট,,"SHAH SUPER MARKET, Birganj, Dinajpur District, Rangpur Division, Bangladesh","শাহ সুপার মার্কেট, দিনাজপুর জেলা, রংপুর বিভাগ, বাংলাদেশ",Birganj,বাংলাদেশ,রংপুর বিভাগ,local_admin,boundaries,['marketplace'],[],Bangladesh,Rangpur,Dinajpur,Birganj,Paurashava,386c7f31ecb3cf1c265ed8047fa6b171
5201723412.0,893c1bb714fffff,25.8595453,88.6550733,Dinajpur Bus Stand দিনাজপুর বাসস্ট্যান্ড,,"Dinajpur Bus Stand, Birganj, Dinajpur District, Rangpur Division, Bangladesh","দিনাজপুর বাসস্ট্যান্ড, দিনাজপুর জেলা, রংপুর বিভাগ, বাংলাদেশ",Birganj,বাংলাদেশ,রংপুর বিভাগ,street,boundaries,['bus_stop'],[],Bangladesh,Rangpur,Dinajpur,Birganj,Paurashava,386c7f31ecb3cf1c265ed8047fa6b171
5201753562.0,893c1bb7157ffff,25.8634068,88.6530433,Kazi market কাজী মার্কেট,,"Kazi market, Birganj, Dinajpur District, Rangpur Division, Bangladesh","কাজী মার্কেট, দিনাজপুর জেলা, রংপুর বিভাগ, বাংলাদেশ",Birganj,বাংলাদেশ,রংপুর বিভাগ,local_admin,boundaries,['marketplace'],[],Bangladesh,Rangpur,Dinajpur,Birganj,Paurashava,386c7f31ecb3cf1c265ed8047fa6b171
5201760489.0,893c1bb7147ffff,25.862311,88.6545042,দত্ত মার্কেট,,"Dutt Market, Birganj, Dinajpur District, Rangpur Division, Bangladesh","দত্ত মার্কেট, দিনাজপুর জেলা, রংপুর বিভাগ, বাংলাদেশ",Birganj,বাংলাদেশ,রংপুর বিভাগ,local_admin,boundaries,['marketplace'],[],Bangladesh,Rangpur,Dinajpur,Birganj,Paurashava,386c7f31ecb3cf1c265ed8047fa6b171
5201764965.0,893c1bb7147ffff,25.8617765,88.6541758,Sadhona Hotel সাধনা হোটেল,,"Sadhona Hotel, Birganj, Dinajpur District, Rangpur Division, Bangladesh","সাধনা হোটেল, দিনাজপুর জেলা, রংপুর বিভাগ, বাংলাদেশ",Birganj,বাংলাদেশ,রংপুর বিভাগ,local_admin,boundaries,['restaurant'],[],Bangladesh,Rangpur,Dinajpur,Birganj,Paurashava,386c7f31ecb3cf1c265ed8047fa6b171
5201768927.0,893c1bb7147ffff,25.8617975,88.6544384,Sadhona Sweets সাধনা মিষ্টি,,"Sadhona Sweets, Birganj, Dinajpur District, Rangpur Division, Bangladesh","সাধনা মিষ্টি, দিনাজপুর জেলা, রংপুর বিভাগ, বাংলাদেশ",Birganj,বাংলাদেশ,রংপুর বিভাগ,local_admin,boundaries,['restaurant'],[],Bangladesh,Rangpur,Dinajpur,Birganj,Paurashava,386c7f31ecb3cf1c265ed8047fa6b171
5201770608.0,893c1bb7147ffff,25.8618682,88.6543234,Asha Hotel আশা হোটেল,,"Asha Hotel, Birganj, Dinajpur District, Rangpur Division, Bangladesh","আশা হোটেল, দিনাজপুর জেলা, রংপুর বিভাগ, বাংলাদেশ",Birganj,বাংলাদেশ,রংপুর বিভাগ,local_admin,boundaries,['restaurant'],[],Bangladesh,Rangpur,Dinajpur,Birganj,Paurashava,386c7f31ecb3cf1c265ed8047fa6b171
5201777888.0,893c1bb7147ffff,25.862689,88.6545817,Mukta Restaurant মুক্তা রেস্তোরা,,"Mukta Restaurant, Birganj, Dinajpur District, Rangpur Division, Bangladesh","মুক্তা রেস্তোরা, দিনাজপুর জেলা, রংপুর বিভাগ, বাংলাদেশ",Birganj,বাংলাদেশ,রংপুর বিভাগ,local_admin,boundaries,['restaurant'],[],Bangladesh,Rangpur,Dinajpur,Birganj,Paurashava,386c7f31ecb3cf1c265ed8047fa6b171
5201778859.0,893c1bb7157ffff,25.863569,88.6525515,,,"Birganj, Dinajpur District, Rangpur Division, Bangladesh","দিনাজপুর জেলা, রংপুর বিভাগ, বাংলাদেশ",Birganj,বাংলাদেশ,রংপুর বিভাগ,local_admin,boundaries,['atm'],[],Bangladesh,Rangpur,Dinajpur,Birganj,Paurashava,386c7f31ecb3cf1c265ed8047fa6b171
5201780339.0,893c1bb7157ffff,25.8625541,88.653891,ইত্যাদি বেকারী,,"Etc. Baker, Birganj, Dinajpur District, Rangpur Division, Bangladesh","ইত্যাদি বেকারী, দিনাজপুর জেলা, রংপুর বিভাগ, বাংলাদেশ",Birganj,বাংলাদেশ,রংপুর বিভাগ,local_admin,boundaries,['bakery'],[],Bangladesh,Rangpur,Dinajpur,Birganj,Paurashava,386c7f31ecb3cf1c265ed8047fa6b171
301613337.0,893c1bb2873ffff,25.8566969,88.5676651,bridge,,"bridge, Kaharole, Dinajpur District, Rangpur Division, Bangladesh","সেতু, দিনাজপুর জেলা, রংপুর বিভাগ, বাংলাদেশ",Kaharole,বাংলাদেশ,রংপুর বিভাগ,street,,,,Bangladesh,Rangpur,Dinajpur,Kaharole,Rasulpur,b07ffa6ded4467676e06df63d9f06765
5201783227.0,893c1bb7157ffff,25.8628283,88.6534048,Thakurgaon Bus Station ঠাকুরগাঁ বাস স্টপ,,"Thakurgaon Bus Station, Birganj, Dinajpur District, Rangpur Division, Bangladesh","ঠাকুরগাঁ বাস স্টপ, দিনাজপুর জেলা, রংপুর বিভাগ, বাংলাদেশ",Birganj,বাংলাদেশ,রংপুর বিভাগ,street,boundaries,['bus_stop'],[],Bangladesh,Rangpur,Dinajpur,Birganj,Paurashava,386c7f31ecb3cf1c265ed8047fa6b171
5201783546.0,893c1bb7157ffff,25.8628862,88.6536127,Suchona Backery সূচনা বেকারী,,"Suchona Backery, Birganj, Dinajpur District, Rangpur Division, Bangladesh","সূচনা বেকারী, দিনাজপুর জেলা, রংপুর বিভাগ, বাংলাদেশ",Birganj,বাংলাদেশ,রংপুর বিভাগ,local_admin,boundaries,['bakery'],[],Bangladesh,Rangpur,Dinajpur,Birganj,Paurashava,386c7f31ecb3cf1c265ed8047fa6b171
5201787838.0,893c1bb7157ffff,25.8630323,88.6529418,অনা ফ্যাশন,,"Ana fashion, Birganj, Dinajpur District, Rangpur Division, Bangladesh","অনা ফ্যাশন, দিনাজপুর জেলা, রংপুর বিভাগ, বাংলাদেশ",Birganj,বাংলাদেশ,রংপুর বিভাগ,local_admin,boundaries,['clothes'],[],Bangladesh,Rangpur,Dinajpur,Birganj,Paurashava,386c7f31ecb3cf1c265ed8047fa6b171
5201790923.0,893c1bb7153ffff,25.8632597,88.649782,College Hostel কলেজ হোস্টেল,,"College Hostel, Birganj, Dinajpur District, Rangpur Division, Bangladesh","কলেজ হোস্টেল, দিনাজপুর জেলা, রংপুর বিভাগ, বাংলাদেশ",Birganj,বাংলাদেশ,রংপুর বিভাগ,local_admin,boundaries,['hostel'],[],Bangladesh,Rangpur,Dinajpur,Birganj,Paurashava,386c7f31ecb3cf1c265ed8047fa6b171
5201791892.0,893c1bb71cfffff,25.8646051,88.6506687,Golapganj Mor Market গোলাপগঞ্জ মোড় বাজার,,"Golapganj Mor Market, Birganj, Dinajpur District, Rangpur Division, Bangladesh","গোলাপগঞ্জ মোড় বাজার, দিনাজপুর জেলা, রংপুর বিভাগ, বাংলাদেশ",Birganj,বাংলাদেশ,রংপুর বিভাগ,local_admin,boundaries,['marketplace'],[],Bangladesh,Rangpur,Dinajpur,Birganj,Paurashava,386c7f31ecb3cf1c265ed8047fa6b171
5201792939.0,893c1bb71cfffff,25.8654527,88.6491988,Fozu Coffee House ফজু কফি হাউস,,"Fozu Coffee House, Birganj, Dinajpur District, Rangpur Division, Bangladesh","ফজু কফি হাউস, দিনাজপুর জেলা, রংপুর বিভাগ, বাংলাদেশ",Birganj,বাংলাদেশ,রংপুর বিভাগ,local_admin,boundaries,['cafe'],[],Bangladesh,Rangpur,Dinajpur,Birganj,Paurashava,386c7f31ecb3cf1c265ed8047fa6b171
525716944.0,893c1b225b3ffff,25.4302948,88.84843685,,,"Fulbari Upazila, Dinajpur District, Rangpur Division, Bangladesh","ফুলবাড়ী উপজেলা দিনাজপুর, দিনাজপুর জেলা, রংপুর বিভাগ, বাংলাদেশ","ফুলবাড়ী উপজেলা, দিনাজপুর",বাংলাদেশ,রংপুর বিভাগ,local_admin,boundaries,['ford'],[],Bangladesh,Rangpur,Dinajpur,Fulbari,Kazihal,7fec8584530813277e207446b6a1ff04
5201798760.0,893c1bb7557ffff,25.8795265,88.6353932,Chakai Bus Stop চাকাই বাস স্টপ,,"Chakai Bus Stop, Birganj, Dinajpur District, Rangpur Division, Bangladesh","চাকাই বাস স্টপ, দিনাজপুর জেলা, রংপুর বিভাগ, বাংলাদেশ",Birganj,বাংলাদেশ,রংপুর বিভাগ,street,boundaries,['bus_stop'],[],Bangladesh,Rangpur,Dinajpur,Birganj,Sujalpur,0a798e1100e879e590e69ca4c02ddfcf
5201800999.0,893c194d847ffff,25.9046625,88.6009974,Mostakim Hotel & Restaurant মোস্তাকিম হোটেল এন্ড রেঁস্তোরা,,"Mostakim Hotel & Restaurant, Birganj, Dinajpur District, Rangpur Division, Bangladesh","মোস্তাকিম হোটেল এন্ড রেঁস্তোরা, দিনাজপুর জেলা, রংপুর বিভাগ, বাংলাদেশ",Birganj,বাংলাদেশ,রংপুর বিভাগ,local_admin,boundaries,['restaurant'],[],Bangladesh,Rangpur,Dinajpur,Birganj,Bhognagar,4f7b789fe1f2b33712313e004ea9497d
5201801122.0,893c194d847ffff,25.9043594,88.6013229,Kabiraj Hat Bus Stop কবিরাজ হাট বাস স্টপ,,"Kabiraj Hat Bus Stop, Birganj, Dinajpur District, Rangpur Division, Bangladesh","কবিরাজ হাট বাস স্টপ, দিনাজপুর জেলা, রংপুর বিভাগ, বাংলাদেশ",Birganj,বাংলাদেশ,রংপুর বিভাগ,street,boundaries,['bus_stop'],[],Bangladesh,Rangpur,Dinajpur,Birganj,Bhognagar,4f7b789fe1f2b33712313e004ea9497d
5203653498.0,893c1bb714bffff,25.8581606,88.6503597,College Para Mosque কলেজ পাড়া মসজিদ,,"College Para Mosque, Birganj, Dinajpur District, Rangpur Division, Bangladesh","কলেজ পাড়া মসজিদ, দিনাজপুর জেলা, রংপুর বিভাগ, বাংলাদেশ",Birganj,বাংলাদেশ,রংপুর বিভাগ,local_admin,boundaries,['place_of_worship_muslim'],[],Bangladesh,Rangpur,Dinajpur,Birganj,Paurashava,386c7f31ecb3cf1c265ed8047fa6b171
5203670387.0,893c1bb7143ffff,25.8603619,88.6519414,মনসা মন্দির,,"Mansa Temple, Birganj, Dinajpur District, Rangpur Division, Bangladesh","মনসা মন্দির, দিনাজপুর জেলা, রংপুর বিভাগ, বাংলাদেশ",Birganj,বাংলাদেশ,রংপুর বিভাগ,local_admin,boundaries,['place_of_worship'],[],Bangladesh,Rangpur,Dinajpur,Birganj,Paurashava,386c7f31ecb3cf1c265ed8047fa6b171
527647783.0,893c1ba5e4bffff,25.6869591,88.8259299,,,"Dinajpur District, Rangpur Division, Bangladesh","দিনাজপুর জেলা, রংপুর বিভাগ, বাংলাদেশ",,বাংলাদেশ,রংপুর বিভাগ,admin2,boundaries,['ford'],[],Bangladesh,Rangpur,Dinajpur,Chirirbandar,Isabpur,370309829a21be8ed752bed522844f4e
5203670400.0,893c1bb715bffff,25.8598619,88.6498743,Vishnu Temple বিষ্ণু মন্দির,,"Vishnu Temple, Birganj, Dinajpur District, Rangpur Division, Bangladesh","বিষ্ণু মন্দির, দিনাজপুর জেলা, রংপুর বিভাগ, বাংলাদেশ",Birganj,বাংলাদেশ,রংপুর বিভাগ,local_admin,boundaries,['place_of_worship'],[],Bangladesh,Rangpur,Dinajpur,Birganj,Paurashava,386c7f31ecb3cf1c265ed8047fa6b171
527650197.0,893c1baedbbffff,25.68311319,88.82956571,,,"Dinajpur District, Rangpur Division, Bangladesh","দিনাজপুর জেলা, রংপুর বিভাগ, বাংলাদেশ",,বাংলাদেশ,রংপুর বিভাগ,admin2,boundaries,['ford'],[],Bangladesh,Rangpur,Dinajpur,Chirirbandar,Abdulpur,ec7cd93b9e84659ceebc99bdaae1648b
5203674910.0,893c1bb715bffff,25.8599146,88.6494621,Balaka Moor Bus Stop,,"Balaka Moor Bus Stop, Birganj, Dinajpur District, Rangpur Division, Bangladesh","বালাকা মুর বাস স্টপ, দিনাজপুর জেলা, রংপুর বিভাগ, বাংলাদেশ",Birganj,বাংলাদেশ,রংপুর বিভাগ,street,boundaries,['bus_stop'],[],Bangladesh,Rangpur,Dinajpur,Birganj,Paurashava,386c7f31ecb3cf1c265ed8047fa6b171
5203675969.0,893c1bb715bffff,25.8599397,88.6484829,Ma Kali Mandir মা কালী মন্দির,,"Ma Kali Mandir, Birganj, Dinajpur District, Rangpur Division, Bangladesh","মা কালী মন্দির, দিনাজপুর জেলা, রংপুর বিভাগ, বাংলাদেশ",Birganj,বাংলাদেশ,রংপুর বিভাগ,local_admin,boundaries,['place_of_worship'],[],Bangladesh,Rangpur,Dinajpur,Birganj,Paurashava,386c7f31ecb3cf1c265ed8047fa6b171
5227739314.0,893c1baa977ffff,25.6083956,88.6821097,চুনিয়াপাড়া মোড়,['Chuniapara Mor'],"To bend of Chuniapara, Dinajpur, Dinajpur District, Rangpur Division, Bangladesh","চুনিয়াপাড়া মোড়, দিনাজপুর জেলা, রংপুর বিভাগ, বাংলাদেশ",Dinajpur,বাংলাদেশ,রংপুর বিভাগ,local_admin,boundaries,['monument'],[],Bangladesh,Rangpur,Dinajpur,DinajpurSadar,Shashara,3a25c055709f20a4390c88768ff866f7
5227823675.0,893c1baa8abffff,25.6105066,88.6546444,"KFC, Dinajpur Medical College, Dinajpur",,"KFC Dinajpur Medical College Dinajpur, Dinajpur, Dinajpur District, Rangpur Division, Bangladesh","কেএফসি দিনজপুর মেডিকেল কলেজ দিনাজপুর, দিনাজপুর জেলা, রংপুর বিভাগ, বাংলাদেশ",Dinajpur,বাংলাদেশ,রংপুর বিভাগ,local_admin,boundaries,['restaurant'],[],Bangladesh,Rangpur,Dinajpur,DinajpurSadar,Paurashava,2a2ee293b891249ecde588c78e6afc45
5227827580.0,893c1baa8abffff,25.6107802,88.65413,Staff Canteen DjMC,,"Staff Canteen DjMC, Dinajpur, Dinajpur District, Rangpur Division, Bangladesh","স্টাফ ক্যান্টিন ডিজেএমসি, দিনাজপুর জেলা, রংপুর বিভাগ, বাংলাদেশ",Dinajpur,বাংলাদেশ,রংপুর বিভাগ,local_admin,boundaries,['restaurant'],[],Bangladesh,Rangpur,Dinajpur,DinajpurSadar,Paurashava,2a2ee293b891249ecde588c78e6afc45
5227829211.0,893c1baa8abffff,25.6112868,88.6544537,Rahamat Medical Store,,"Rahamat Medical Store, Dinajpur, Dinajpur District, Rangpur Division, Bangladesh","রাহামাত মেডিকেল স্টোর, দিনাজপুর জেলা, রংপুর বিভাগ, বাংলাদেশ",Dinajpur,বাংলাদেশ,রংপুর বিভাগ,local_admin,boundaries,['pharmacy'],[],Bangladesh,Rangpur,Dinajpur,DinajpurSadar,Paurashava,2a2ee293b891249ecde588c78e6afc45
5227829552.0,893c1baa8abffff,25.611238,88.656253,Dui Konna Departmental Store,,"Dui Konna Departmental Store, Dinajpur, Dinajpur District, Rangpur Division, Bangladesh","ডিইউআই কোনা বিভাগীয় স্টোর, দিনাজপুর জেলা, রংপুর বিভাগ, বাংলাদেশ",Dinajpur,বাংলাদেশ,রংপুর বিভাগ,local_admin,boundaries,['restaurant'],[],Bangladesh,Rangpur,Dinajpur,DinajpurSadar,Paurashava,2a2ee293b891249ecde588c78e6afc45
5227829712.0,893c1baa8abffff,25.6108982,88.6567679,Dadur Tea Stall,,"Dadur Tea Stall, Dinajpur, Dinajpur District, Rangpur Division, Bangladesh","দাদুর চা স্টল, দিনাজপুর জেলা, রংপুর বিভাগ, বাংলাদেশ",Dinajpur,বাংলাদেশ,রংপুর বিভাগ,local_admin,boundaries,['cafe'],[],Bangladesh,Rangpur,Dinajpur,DinajpurSadar,Paurashava,2a2ee293b891249ecde588c78e6afc45
5227831672.0,893c1baa8a3ffff,25.6125408,88.6549753,,,"Dinajpur, Dinajpur District, Rangpur Division, Bangladesh","দিনাজপুর জেলা, রংপুর বিভাগ, বাংলাদেশ",Dinajpur,বাংলাদেশ,রংপুর বিভাগ,local_admin,boundaries,['atm'],[],Bangladesh,Rangpur,Dinajpur,DinajpurSadar,Shashara,3a25c055709f20a4390c88768ff866f7
5227835043.0,893c1baac33ffff,25.6235942,88.6410727,আইএফআইসি ব্যাংক লিমিটেড,['IFIC Bank Limited'],"IFIC Bank Limited, Dinajpur, Dinajpur District, Rangpur Division, Bangladesh","আইএফআইসি ব্যাংক লিমিটেড, দিনাজপুর জেলা, রংপুর বিভাগ, বাংলাদেশ",Dinajpur,বাংলাদেশ,রংপুর বিভাগ,local_admin,boundaries,['bank'],[],Bangladesh,Rangpur,Dinajpur,DinajpurSadar,Paurashava,2a2ee293b891249ecde588c78e6afc45
5227836854.0,893c1baad5bffff,25.6196432,88.646948,Razu Drug House,,"Razu Drug House, Dinajpur, Dinajpur District, Rangpur Division, Bangladesh","রাজু ড্রাগ হাউস, দিনাজপুর জেলা, রংপুর বিভাগ, বাংলাদেশ",Dinajpur,বাংলাদেশ,রংপুর বিভাগ,local_admin,boundaries,['pharmacy'],[],Bangladesh,Rangpur,Dinajpur,DinajpurSadar,Sekhpura,f8a585b041906cd45f8c8472e5abc9be
5227838157.0,893c1baac2fffff,25.6200266,88.6450509,Walton,['ওয়ালটন'],"Walton, Dinajpur, Dinajpur District, Rangpur Division, Bangladesh","ওয়ালটন, দিনাজপুর জেলা, রংপুর বিভাগ, বাংলাদেশ",Dinajpur,বাংলাদেশ,রংপুর বিভাগ,local_admin,boundaries,['electronics'],[],Bangladesh,Rangpur,Dinajpur,DinajpurSadar,Paurashava,2a2ee293b891249ecde588c78e6afc45
5227840023.0,893c1baac27ffff,25.6209768,88.6441958,JR ELECTRONIC,,"JR ELECTRONIC, Dinajpur, Dinajpur District, Rangpur Division, Bangladesh","জেআর বৈদ্যুতিন, দিনাজপুর জেলা, রংপুর বিভাগ, বাংলাদেশ",Dinajpur,বাংলাদেশ,রংপুর বিভাগ,local_admin,boundaries,['electronics'],[],Bangladesh,Rangpur,Dinajpur,DinajpurSadar,Paurashava,2a2ee293b891249ecde588c78e6afc45
5227851977.0,893c1baac23ffff,25.6211241,88.643356,Smart Computer,,"Smart Computer, Dinajpur, Dinajpur District, Rangpur Division, Bangladesh","স্মার্ট কম্পিউটার, দিনাজপুর জেলা, রংপুর বিভাগ, বাংলাদেশ",Dinajpur,বাংলাদেশ,রংপুর বিভাগ,local_admin,boundaries,['computer'],[],Bangladesh,Rangpur,Dinajpur,DinajpurSadar,Paurashava,2a2ee293b891249ecde588c78e6afc45
5227852247.0,893c1baac23ffff,25.6212294,88.6437476,Fulbari Bus Stand ফুলবাড়ী বাস ষ্ট্যান্ড,,"Fulbari Bus Stand, Dinajpur, Dinajpur District, Rangpur Division, Bangladesh","ফুলবাড়ী বাস ষ্ট্যান্ড, দিনাজপুর জেলা, রংপুর বিভাগ, বাংলাদেশ",Dinajpur,বাংলাদেশ,রংপুর বিভাগ,street,boundaries,['bus_stop'],[],Bangladesh,Rangpur,Dinajpur,DinajpurSadar,Paurashava,2a2ee293b891249ecde588c78e6afc45
5227853178.0,893c1baac37ffff,25.6225189,88.6439613,,['ডাচ-বাংলা ব্যাংক লিমিটেড এটিএম'],"Dinajpur, Dinajpur District, Rangpur Division, Bangladesh","দিনাজপুর জেলা, রংপুর বিভাগ, বাংলাদেশ",Dinajpur,বাংলাদেশ,রংপুর বিভাগ,local_admin,boundaries,['atm'],[],Bangladesh,Rangpur,Dinajpur,DinajpurSadar,Paurashava,2a2ee293b891249ecde588c78e6afc45
5227854881.0,893c1baac37ffff,25.623204,88.642286,College Cafe,,"College Cafe, Dinajpur, Dinajpur District, Rangpur Division, Bangladesh","কলেজ ক্যাফে, দিনাজপুর জেলা, রংপুর বিভাগ, বাংলাদেশ",Dinajpur,বাংলাদেশ,রংপুর বিভাগ,local_admin,boundaries,['cafe'],[],Bangladesh,Rangpur,Dinajpur,DinajpurSadar,Paurashava,2a2ee293b891249ecde588c78e6afc45
5227855257.0,893c1baac37ffff,25.6223087,88.643654,Fulbari Bazar ফুলবাড়ি বাজার,,"Fulbari Bazar, Dinajpur, Dinajpur District, Rangpur Division, Bangladesh","ফুলবাড়ি বাজার, দিনাজপুর জেলা, রংপুর বিভাগ, বাংলাদেশ",Dinajpur,বাংলাদেশ,রংপুর বিভাগ,local_admin,boundaries,['marketplace'],[],Bangladesh,Rangpur,Dinajpur,DinajpurSadar,Paurashava,2a2ee293b891249ecde588c78e6afc45
5227885889.0,893c1baac37ffff,25.6251864,88.6425487,Ramzan Hotel,,"Ramzan Hotel, Dinajpur, Dinajpur District, Rangpur Division, Bangladesh","রমজান হোটেল, দিনাজপুর জেলা, রংপুর বিভাগ, বাংলাদেশ",Dinajpur,বাংলাদেশ,রংপুর বিভাগ,local_admin,boundaries,['restaurant'],[],Bangladesh,Rangpur,Dinajpur,DinajpurSadar,Paurashava,2a2ee293b891249ecde588c78e6afc45
5229588263.0,893c1baadc3ffff,25.6272856,88.6465197,Zooti Hostel,,"Zooti Hostel, Dinajpur, Dinajpur District, Rangpur Division, Bangladesh","জুটি হোস্টেল, দিনাজপুর জেলা, রংপুর বিভাগ, বাংলাদেশ",Dinajpur,বাংলাদেশ,রংপুর বিভাগ,local_admin,boundaries,['hostel'],[],Bangladesh,Rangpur,Dinajpur,DinajpurSadar,Paurashava,2a2ee293b891249ecde588c78e6afc45
5229594996.0,893c1baadd7ffff,25.6323912,88.6491767,মহারাজা মোড়,,"The Maharaja twist, Dinajpur, Dinajpur District, Rangpur Division, Bangladesh","মহারাজা মোড়, দিনাজপুর জেলা, রংপুর বিভাগ, বাংলাদেশ",Dinajpur,বাংলাদেশ,রংপুর বিভাগ,local_admin,boundaries,['monument'],[],Bangladesh,Rangpur,Dinajpur,DinajpurSadar,Paurashava,2a2ee293b891249ecde588c78e6afc45
5229595505.0,893c1baad9bffff,25.632932,88.6492766,Naeem Bazar নাঈম বাজার,,"Naeem Bazar, Dinajpur, Dinajpur District, Rangpur Division, Bangladesh","নাঈম বাজার, দিনাজপুর জেলা, রংপুর বিভাগ, বাংলাদেশ",Dinajpur,বাংলাদেশ,রংপুর বিভাগ,local_admin,boundaries,['marketplace'],[],Bangladesh,Rangpur,Dinajpur,DinajpurSadar,Paurashava,2a2ee293b891249ecde588c78e6afc45
5229595993.0,893c1baad9bffff,25.6341064,88.6496973,Jahangir Tea Stall জাহাঙ্গীর টি স্টল,,"Jahangir Tea Stall, Dinajpur, Dinajpur District, Rangpur Division, Bangladesh","জাহাঙ্গীর টি স্টল, দিনাজপুর জেলা, রংপুর বিভাগ, বাংলাদেশ",Dinajpur,বাংলাদেশ,রংপুর বিভাগ,local_admin,boundaries,['tea'],[],Bangladesh,Rangpur,Dinajpur,DinajpurSadar,Paurashava,2a2ee293b891249ecde588c78e6afc45
5229596050.0,893c1baad9bffff,25.634043,88.6500848,Bottola Mor Bus Station বটতলা মোর বাস স্টেশন,,"Bottola Mor Bus Station, Dinajpur, Dinajpur District, Rangpur Division, Bangladesh","বটতলা মোর বাস স্টেশন, দিনাজপুর জেলা, রংপুর বিভাগ, বাংলাদেশ",Dinajpur,বাংলাদেশ,রংপুর বিভাগ,street,boundaries,['bus_stop'],[],Bangladesh,Rangpur,Dinajpur,DinajpurSadar,Paurashava,2a2ee293b891249ecde588c78e6afc45
5229679391.0,893c1ba1323ffff,25.6432933,88.647433,Brack training center,,"Brack training center, Dinajpur, Dinajpur District, Rangpur Division, Bangladesh","ব্র্যাক প্রশিক্ষণ কেন্দ্র, দিনাজপুর জেলা, রংপুর বিভাগ, বাংলাদেশ",Dinajpur,বাংলাদেশ,রংপুর বিভাগ,local_admin,boundaries,['atm'],[],Bangladesh,Rangpur,Dinajpur,DinajpurSadar,Chehelgazi,78ff3cefbb48c4ed3ff608d5ce543dfa
5229690079.0,893c1ba13a7ffff,25.6515916,88.6463483,Mim's Tea Stall,,"Mim's Tea Stall, Dinajpur, Dinajpur District, Rangpur Division, Bangladesh","মিমের চা স্টল, দিনাজপুর জেলা, রংপুর বিভাগ, বাংলাদেশ",Dinajpur,বাংলাদেশ,রংপুর বিভাগ,local_admin,boundaries,['tea'],[],Bangladesh,Rangpur,Dinajpur,DinajpurSadar,Chehelgazi,78ff3cefbb48c4ed3ff608d5ce543dfa
5229694296.0,893c1ba116bffff,25.654173,88.6466856,Mission Gate,,"Mission Gate, Dinajpur, Dinajpur District, Rangpur Division, Bangladesh","মিশন গেট, দিনাজপুর জেলা, রংপুর বিভাগ, বাংলাদেশ",Dinajpur,বাংলাদেশ,রংপুর বিভাগ,local_admin,boundaries,['gate'],[],Bangladesh,Rangpur,Dinajpur,DinajpurSadar,Chehelgazi,78ff3cefbb48c4ed3ff608d5ce543dfa
532029334.0,893c194d853ffff,25.905696693961502,88.59482617002901,Dhaka - Thakurgaon Highway,,"Dhaka - Thakurgaon Highway, Birganj, Dinajpur District, Rangpur Division, Bangladesh","Dhaka াকা - ঠাকুরগাঁও হাইওয়ে, দিনাজপুর জেলা, রংপুর বিভাগ, বাংলাদেশ",Birganj,বাংলাদেশ,রংপুর বিভাগ,street,,,,Bangladesh,Rangpur,Dinajpur,Birganj,Bhognagar,4f7b789fe1f2b33712313e004ea9497d
5229700027.0,893c1ba1163ffff,25.6575345,88.6480679,PDB Guesthouse বিদ্যুৎ উন্নয়ন বোর্ড গেস্টহাউজ,,"PDB Guesthouse, Dinajpur, Dinajpur District, Rangpur Division, Bangladesh","বিদ্যুৎ উন্নয়ন বোর্ড গেস্টহাউজ, দিনাজপুর জেলা, রংপুর বিভাগ, বাংলাদেশ",Dinajpur,বাংলাদেশ,রংপুর বিভাগ,local_admin,boundaries,['hostel'],[],Bangladesh,Rangpur,Dinajpur,DinajpurSadar,Chehelgazi,78ff3cefbb48c4ed3ff608d5ce543dfa
5229700141.0,893c1ba1177ffff,25.6596444,88.6483475,Monija Market,,"Monija Market, Dinajpur, Dinajpur District, Rangpur Division, Bangladesh","মনিজা বাজার, দিনাজপুর জেলা, রংপুর বিভাগ, বাংলাদেশ",Dinajpur,বাংলাদেশ,রংপুর বিভাগ,local_admin,boundaries,['marketplace'],[],Bangladesh,Rangpur,Dinajpur,DinajpurSadar,Chehelgazi,78ff3cefbb48c4ed3ff608d5ce543dfa
5229718329.0,893c1ba11a7ffff,25.6731727,88.6517979,GopalganjHat Durga_Mondir,,"GopalganjHat Durga_Mondir, Dinajpur, Dinajpur District, Rangpur Division, Bangladesh","গোপালগানহাত দুর্গা_মন্ডির, দিনাজপুর জেলা, রংপুর বিভাগ, বাংলাদেশ",Dinajpur,বাংলাদেশ,রংপুর বিভাগ,local_admin,boundaries,['place_of_worship'],[],Bangladesh,Rangpur,Dinajpur,DinajpurSadar,Chehelgazi,78ff3cefbb48c4ed3ff608d5ce543dfa
5229719816.0,893c1ba11b7ffff,25.6739898,88.6517322,Gopalgonj,,"Gopalgonj, Dinajpur, Dinajpur District, Rangpur Division, Bangladesh","গোপালগনজ, দিনাজপুর জেলা, রংপুর বিভাগ, বাংলাদেশ",Dinajpur,বাংলাদেশ,রংপুর বিভাগ,local_admin,boundaries,['marketplace'],[],Bangladesh,Rangpur,Dinajpur,DinajpurSadar,Chehelgazi,78ff3cefbb48c4ed3ff608d5ce543dfa
532044223.0,893c194d163ffff,25.91093375,88.56475465,Dhaka - Thakurgaon Hwy,,"Dhaka - Thakurgaon Hwy, Birganj, Dinajpur District, Rangpur Division, Bangladesh","Dhaka াকা - ঠাকুর্গাঁ হুই, দিনাজপুর জেলা, রংপুর বিভাগ, বাংলাদেশ",Birganj,বাংলাদেশ,রংপুর বিভাগ,street,,,,Bangladesh,Rangpur,Dinajpur,Birganj,Satair,fb1cbdd1606044ab5c6f476af939b2c5
5229723743.0,893c1ba004fffff,25.6977472,88.6556803,ডাচ-বাংলা ব্যাংক লিমিটেড এটিএম,['Dutch-Bangla Bank Limited ATM'],"Dutch-Bangla Bank Ltd ATM, Dinajpur, Dinajpur District, Rangpur Division, Bangladesh","ডাচ-বাংলা ব্যাংক লিমিটেড এটিএম, দিনাজপুর জেলা, রংপুর বিভাগ, বাংলাদেশ",Dinajpur,বাংলাদেশ,রংপুর বিভাগ,local_admin,boundaries,['atm'],[],Bangladesh,Rangpur,Dinajpur,DinajpurSadar,Chehelgazi,78ff3cefbb48c4ed3ff608d5ce543dfa
5229744503.0,893c1ba004fffff,25.6976618,88.6542131,HSTU Garage,,"HSTU Garage, Dinajpur, Dinajpur District, Rangpur Division, Bangladesh","এইচএসটিইউ গ্যারেজ, দিনাজপুর জেলা, রংপুর বিভাগ, বাংলাদেশ",Dinajpur,বাংলাদেশ,রংপুর বিভাগ,local_admin,boundaries,['parking'],[],Bangladesh,Rangpur,Dinajpur,DinajpurSadar,Chehelgazi,78ff3cefbb48c4ed3ff608d5ce543dfa
5229745251.0,893c1ba02b7ffff,25.6976564,88.6560712,2nd Gate,,"2nd Gate, Dinajpur, Dinajpur District, Rangpur Division, Bangladesh","২ য় গেট, দিনাজপুর জেলা, রংপুর বিভাগ, বাংলাদেশ",Dinajpur,বাংলাদেশ,রংপুর বিভাগ,local_admin,boundaries,['gate'],[],Bangladesh,Rangpur,Dinajpur,DinajpurSadar,Chehelgazi,78ff3cefbb48c4ed3ff608d5ce543dfa
5229747860.0,893c1ba004fffff,25.6986062,88.6561474,TSC_cafeteria building of HSTU,,"TSC_cafeteria building of HSTU, Dinajpur, Dinajpur District, Rangpur Division, Bangladesh","এইচএসটিইউয়ের টিএসসি_ক্যাফেরিয়া বিল্ডিং, দিনাজপুর জেলা, রংপুর বিভাগ, বাংলাদেশ",Dinajpur,বাংলাদেশ,রংপুর বিভাগ,local_admin,boundaries,['cafe'],[],Bangladesh,Rangpur,Dinajpur,DinajpurSadar,Chehelgazi,78ff3cefbb48c4ed3ff608d5ce543dfa
5229752452.0,893c1ba007bffff,25.6989896,88.6565865,মৌ-বন সুপার মার্কেট,,"Mau-Ban Super Market, Dinajpur, Dinajpur District, Rangpur Division, Bangladesh","মৌ-বন সুপার মার্কেট, দিনাজপুর জেলা, রংপুর বিভাগ, বাংলাদেশ",Dinajpur,বাংলাদেশ,রংপুর বিভাগ,local_admin,boundaries,['marketplace'],[],Bangladesh,Rangpur,Dinajpur,DinajpurSadar,Chehelgazi,78ff3cefbb48c4ed3ff608d5ce543dfa
5229752475.0,893c1ba007bffff,25.6991585,88.6563604,1St Gate,,"1St Gate, Dinajpur, Dinajpur District, Rangpur Division, Bangladesh","1 ম গেট, দিনাজপুর জেলা, রংপুর বিভাগ, বাংলাদেশ",Dinajpur,বাংলাদেশ,রংপুর বিভাগ,local_admin,boundaries,['gate'],[],Bangladesh,Rangpur,Dinajpur,DinajpurSadar,Chehelgazi,78ff3cefbb48c4ed3ff608d5ce543dfa
5229759026.0,893c1ba007bffff,25.6996978,88.6566943,Moubon hostel,,"Moubon hostel, Dinajpur, Dinajpur District, Rangpur Division, Bangladesh","মাউবন হোস্টেল, দিনাজপুর জেলা, রংপুর বিভাগ, বাংলাদেশ",Dinajpur,বাংলাদেশ,রংপুর বিভাগ,local_admin,boundaries,['hotel'],[],Bangladesh,Rangpur,Dinajpur,DinajpurSadar,Chehelgazi,78ff3cefbb48c4ed3ff608d5ce543dfa
5229759088.0,893c1ba007bffff,25.6996188,88.65736,Hemal Hostel হিমেল হোষ্টেল,,"Hemal Hostel, Dinajpur, Dinajpur District, Rangpur Division, Bangladesh","হিমেল হোষ্টেল, দিনাজপুর জেলা, রংপুর বিভাগ, বাংলাদেশ",Dinajpur,বাংলাদেশ,রংপুর বিভাগ,local_admin,boundaries,['hostel'],[],Bangladesh,Rangpur,Dinajpur,DinajpurSadar,Chehelgazi,78ff3cefbb48c4ed3ff608d5ce543dfa
530422148.0,893c1bb014fffff,25.808516582381813,88.55130069186048,Bonchaganj-kaharole Rd,,"Bonchaganj-kaharole Rd, Bochaganj, Dinajpur District, Rangpur Division, Bangladesh","Bonchaganj-kaharole rd, দিনাজপুর জেলা, রংপুর বিভাগ, বাংলাদেশ",Bochaganj,বাংলাদেশ,রংপুর বিভাগ,street,,,,Bangladesh,Rangpur,Dinajpur,Kaharole,Rasulpur,b07ffa6ded4467676e06df63d9f06765
530422148.0,893c1bb014fffff,25.808516582381813,88.55130069186048,Bonchaganj-kaharole Rd,,"Bonchaganj-kaharole Rd, Kaharole, Dinajpur District, Rangpur Division, Bangladesh","Bonchaganj-kaharole rd, দিনাজপুর জেলা, রংপুর বিভাগ, বাংলাদেশ",Kaharole,বাংলাদেশ,রংপুর বিভাগ,street,,,,Bangladesh,Rangpur,Dinajpur,Kaharole,Rasulpur,b07ffa6ded4467676e06df63d9f06765
5229763332.0,893c1ba0073ffff,25.7029797,88.6568811,Zayan Super Market,,"Zayan Super Market, Dinajpur, Dinajpur District, Rangpur Division, Bangladesh","জায়ান সুপার মার্কেট, দিনাজপুর জেলা, রংপুর বিভাগ, বাংলাদেশ",Dinajpur,বাংলাদেশ,রংপুর বিভাগ,local_admin,boundaries,['marketplace'],[],Bangladesh,Rangpur,Dinajpur,DinajpurSadar,Chehelgazi,78ff3cefbb48c4ed3ff608d5ce543dfa
5229765041.0,893c1ba000bffff,25.7050696,88.657348,আমবাগান টি স্টল,,"Ambagan Tea Stall, Dinajpur, Dinajpur District, Rangpur Division, Bangladesh","আমবাগান টি স্টল, দিনাজপুর জেলা, রংপুর বিভাগ, বাংলাদেশ",Dinajpur,বাংলাদেশ,রংপুর বিভাগ,local_admin,boundaries,['tea'],[],Bangladesh,Rangpur,Dinajpur,DinajpurSadar,Chehelgazi,78ff3cefbb48c4ed3ff608d5ce543dfa
5229767609.0,893c1ba0003ffff,25.7080245,88.6580954,"BRAC Learning Center, Dinajpur ব্র্যাক লার্নিং সেন্টার, দিনাজপুর",,"BRAC Learning Center Dinajpur, Dinajpur, Dinajpur District, Rangpur Division, Bangladesh","ব্র্যাক লার্নিং সেন্টার দিনাজপুর, দিনাজপুর জেলা, রংপুর বিভাগ, বাংলাদেশ",Dinajpur,বাংলাদেশ,রংপুর বিভাগ,local_admin,boundaries,['educational_institution'],[],Bangladesh,Rangpur,Dinajpur,DinajpurSadar,Chehelgazi,78ff3cefbb48c4ed3ff608d5ce543dfa
5229782842.0,893c1ba2e73ffff,25.7467203,88.671995,Wheat Research Centre গম গবেষণা কেন্দ্র,,"Wheat Research Centre, Dinajpur, Dinajpur District, Rangpur Division, Bangladesh","গম গবেষণা কেন্দ্র, দিনাজপুর জেলা, রংপুর বিভাগ, বাংলাদেশ",Dinajpur,বাংলাদেশ,রংপুর বিভাগ,local_admin,boundaries,['garden_centre'],[],Bangladesh,Rangpur,Dinajpur,DinajpurSadar,Sundarban,7d2d0c53b84b294e39c85fbf731cf31a
5229786420.0,893c1ba2eabffff,25.7551527,88.673548,Five Star Hotel,,"Five Star Hotel, Kaharole, Dinajpur District, Rangpur Division, Bangladesh","পাঁচ তারকা হোটেল, দিনাজপুর জেলা, রংপুর বিভাগ, বাংলাদেশ",Kaharole,বাংলাদেশ,রংপুর বিভাগ,local_admin,boundaries,['restaurant'],[],Bangladesh,Rangpur,Dinajpur,Kaharole,Sundarpur,6ff357b620205788878d4ab93e83ea80
5229786476.0,893c1ba2eabffff,25.7548323,88.673497,10 Mile Restaurant 10 মাইল রেঁস্তোরা,,"10 Mile Restaurant 10, Kaharole, Dinajpur District, Rangpur Division, Bangladesh","মাইল রেঁস্তোরা, দিনাজপুর জেলা, রংপুর বিভাগ, বাংলাদেশ",Kaharole,বাংলাদেশ,রংপুর বিভাগ,local_admin,boundaries,['restaurant'],[],Bangladesh,Rangpur,Dinajpur,Kaharole,Sundarpur,6ff357b620205788878d4ab93e83ea80
5291955155.0,893c197b46fffff,26.015933,88.6644275,,,"Birganj, Dinajpur District, Rangpur Division, Bangladesh","দিনাজপুর জেলা, রংপুর বিভাগ, বাংলাদেশ",Birganj,বাংলাদেশ,রংপুর বিভাগ,local_admin,boundaries,['ford'],[],Bangladesh,Rangpur,Dinajpur,Birganj,Shatagram,09fbe00eaf09cad0e04ed9190d8a279a
5291955156.0,893c197b073ffff,26.0073539,88.67556569999999,,,"Birganj, Dinajpur District, Rangpur Division, Bangladesh","দিনাজপুর জেলা, রংপুর বিভাগ, বাংলাদেশ",Birganj,বাংলাদেশ,রংপুর বিভাগ,local_admin,boundaries,['ford'],[],Bangladesh,Rangpur,Dinajpur,Birganj,Shatagram,09fbe00eaf09cad0e04ed9190d8a279a
5295794426.0,893c1ba9853ffff,25.4980446,88.6374227,,,,,,,,,boundaries,['gate'],[],Bangladesh,Rangpur,Dinajpur,DinajpurSadar,Askarpur,e218fc0d54de329303a754079769f0d6
536863056.0,893c1ba4cc7ffff,25.7720066,88.87094998,Sunapukur Petrol Station,,"Sunapukur Petrol Station, Parbatipur, Dinajpur District, Rangpur Division, Bangladesh","সুনাপুকুর পেট্রোল স্টেশন, দিনাজপুর জেলা, রংপুর বিভাগ, বাংলাদেশ",Parbatipur,বাংলাদেশ,রংপুর বিভাগ,local_admin,boundaries,['fuel'],[],Bangladesh,Rangpur,Dinajpur,Parbatipur,Belaichandi,42faca26b7bcecb74e36e41610598f6a
540124450.0,893c1b371abffff,25.51209374,88.87589812,Filling station,,"Filling station, Parbatipur, Dinajpur District, Rangpur Division, Bangladesh","পেট্রল - পাস্প, দিনাজপুর জেলা, রংপুর বিভাগ, বাংলাদেশ",Parbatipur,বাংলাদেশ,রংপুর বিভাগ,local_admin,boundaries,['fuel'],[],Bangladesh,Rangpur,Dinajpur,Fulbari,Eluary,460ff76e16d021efe37c67ff8928455d
540124593.0,893c1badbabffff,25.54173856,88.83914383,M/S Fenchi Petroliam,,"M/S Fenchi Petroliam, Dinajpur District, Rangpur Division, Bangladesh","মেসার্স ফেঞ্চি পেট্রোলিয়াম, দিনাজপুর জেলা, রংপুর বিভাগ, বাংলাদেশ",,বাংলাদেশ,রংপুর বিভাগ,admin2,boundaries,['fuel'],[],Bangladesh,Rangpur,Dinajpur,Chirirbandar,Punatti,b265ced3d993e514fb1f73bcb30a00ff
540124767.0,893c1badbabffff,25.54323757,88.83873278,Ambari Eidgah Moidan,,"Ambari Eidgah Moidan, Dinajpur District, Rangpur Division, Bangladesh","আম্বারি Eid দগাহ ময়ডান, দিনাজপুর জেলা, রংপুর বিভাগ, বাংলাদেশ",,বাংলাদেশ,রংপুর বিভাগ,admin2,boundaries,['place_of_worship'],[],Bangladesh,Rangpur,Dinajpur,Chirirbandar,Punatti,b265ced3d993e514fb1f73bcb30a00ff
540124840.0,893c1badba3ffff,25.54411484,88.83882381,Ambari Degree College,,"Ambari Degree College, Parbatipur, Dinajpur District, Rangpur Division, Bangladesh","আম্বারি ডিগ্রি কলেজ, দিনাজপুর জেলা, রংপুর বিভাগ, বাংলাদেশ",Parbatipur,বাংলাদেশ,রংপুর বিভাগ,local_admin,boundaries,['college'],[],Bangladesh,Rangpur,Dinajpur,Chirirbandar,Punatti,b265ced3d993e514fb1f73bcb30a00ff
540124900.0,893c1badba3ffff,25.54440817,88.83849569,T.M.S.S,,"T.M.S.S, Parbatipur, Dinajpur District, Rangpur Division, Bangladesh","টি.এম.এস.এস, দিনাজপুর জেলা, রংপুর বিভাগ, বাংলাদেশ",Parbatipur,বাংলাদেশ,রংপুর বিভাগ,local_admin,boundaries,['bank'],[],Bangladesh,Rangpur,Dinajpur,Chirirbandar,Punatti,b265ced3d993e514fb1f73bcb30a00ff
