osm_id,h3level9,lat,lon,name,alt_names,name_en,name_bn,local_admin_name,admin0_name,admin2_name,addr_level,poi_addr_match,poi_class,poi_keywords,country,division,district,thana,union,region_hash
2332802124.0,893ce647173ffff,25.3894271,89.4689775,Shadullahpur Upazila Health Complex,,"Shadullahpur Upazila Health Complex, Sadullapur Subdistrict, Gaibandha District, Rangpur Division, Bangladesh","শাদুল্লাহপুর উপজিলা স্বাস্থ্য কমপ্লেক্স, সাদুল্লাপুর উপজেলা, গাইবান্ধা জেলা, রংপুর বিভাগ, বাংলাদেশ",সাদুল্লাপুর উপজেলা,বাংলাদেশ,রংপুর বিভাগ,local_admin,boundaries,['hospital'],[],Bangladesh,Rangpur,Gaibandha,Sadullapur,KumarPara,78491e3ff2ddfbe16f696e03d4b07dca
2571223722.0,893ce656ba7ffff,25.533746,89.4456638,বামনডাঙ্গা,['Bamandanga'],"Bamdanga, Gaibandha District, Rangpur Division, Bangladesh","বামনডাঙ্গা, গাইবান্ধা জেলা, রংপুর বিভাগ, বাংলাদেশ",,বাংলাদেশ,রংপুর বিভাগ,admin2,boundaries,['railway_station'],[],Bangladesh,Rangpur,Gaibandha,Sundarganj,Bamandanga,66446a5c0747e77e918dbbe497af6f55
2879917565.0,893ce656b77ffff,25.5232674,89.4404885,Katgora Bazar,,"Katgora Bazar, Gaibandha District, Rangpur Division, Bangladesh","ক্যাটগোরা বাজার, গাইবান্ধা জেলা, রংপুর বিভাগ, বাংলাদেশ",,বাংলাদেশ,রংপুর বিভাগ,street,boundaries,['bus_stop'],[],Bangladesh,Rangpur,Gaibandha,Sundarganj,Bamandanga,66446a5c0747e77e918dbbe497af6f55
3370070833.0,893ce654bafffff,25.4817052,89.4739586,নলডাঙ্গা,"['নলডাঙ্গা রেলওয়ে স্টেশন', 'নলডাঙ্গা', 'Naldanga Rail Station']","Naldanga, Sadullapur Subdistrict, Gaibandha District, Rangpur Division, Bangladesh","নলডাঙ্গা, সাদুল্লাপুর উপজেলা, গাইবান্ধা জেলা, রংপুর বিভাগ, বাংলাদেশ",সাদুল্লাপুর উপজেলা,বাংলাদেশ,রংপুর বিভাগ,local_admin,boundaries,['railway_station'],[],Bangladesh,Rangpur,Gaibandha,Sadullapur,Naldanga,5f3e0da01d72c7c4cf42d9e0d099281b
3370268742.0,893ce646153ffff,25.4402522,89.4958403,কামারপাড়া,"['কামারপাড়া রেলওয়ে স্টেশন', 'কামারপাড়া', 'Kamarpara Rail Station']","Kamarpara, Sadullapur Subdistrict, Gaibandha District, Rangpur Division, Bangladesh","কামারপাড়া, সাদুল্লাপুর উপজেলা, গাইবান্ধা জেলা, রংপুর বিভাগ, বাংলাদেশ",সাদুল্লাপুর উপজেলা,বাংলাদেশ,রংপুর বিভাগ,local_admin,boundaries,['railway_station'],[],Bangladesh,Rangpur,Gaibandha,Sadullapur,KumarPara,78491e3ff2ddfbe16f696e03d4b07dca
3370277852.0,893ce646153ffff,25.4405333,89.4951158,Kamarpara Bazar,['কামারপাড়া বাজার'],"Kamarpara Bazar, Sadullapur Subdistrict, Gaibandha District, Rangpur Division, Bangladesh","কামারপুর বাজর, সাদুল্লাপুর উপজেলা, গাইবান্ধা জেলা, রংপুর বিভাগ, বাংলাদেশ",সাদুল্লাপুর উপজেলা,বাংলাদেশ,রংপুর বিভাগ,local_admin,boundaries,['marketplace'],[],Bangladesh,Rangpur,Gaibandha,Sadullapur,KumarPara,78491e3ff2ddfbe16f696e03d4b07dca
3370355554.0,893ce64645bffff,25.4452808,89.4535288,Kantanagar hat,['কান্তানাগর হাট'],"Kantanagar hat, Sadullapur Subdistrict, Gaibandha District, Rangpur Division, Bangladesh","কান্তানগর টুপি, সাদুল্লাপুর উপজেলা, গাইবান্ধা জেলা, রংপুর বিভাগ, বাংলাদেশ",সাদুল্লাপুর উপজেলা,বাংলাদেশ,রংপুর বিভাগ,local_admin,boundaries,['marketplace'],[],Bangladesh,Rangpur,Gaibandha,Sadullapur,Damodarpur,2395a7ac5c04961290a44ead5c5961a6
3370367357.0,893ce646477ffff,25.448979,89.4667307,Damodorpur Hat,['দামোদরপুর হাঁট'],"Damodorpur Hat, Sadullapur Subdistrict, Gaibandha District, Rangpur Division, Bangladesh","দামোদরপুর টুপি, সাদুল্লাপুর উপজেলা, গাইবান্ধা জেলা, রংপুর বিভাগ, বাংলাদেশ",সাদুল্লাপুর উপজেলা,বাংলাদেশ,রংপুর বিভাগ,local_admin,boundaries,['marketplace'],[],Bangladesh,Rangpur,Gaibandha,Sadullapur,Damodarpur,2395a7ac5c04961290a44ead5c5961a6
5190007874.0,893cf5b33bbffff,25.0734385,89.375321,Chaprigonj Bazar চাপড়িগঞ্জ বাজার,,"Chaprigonj Bazar, Gobindaganj, Gaibandha District, Rangpur Division, Bangladesh","চাপড়িগঞ্জ বাজার, গাইবান্ধা জেলা, রংপুর বিভাগ, বাংলাদেশ",Gobindaganj,বাংলাদেশ,রংপুর বিভাগ,local_admin,boundaries,['marketplace'],[],Bangladesh,Rangpur,Gaibandha,Gobindaganj,Kamardaha,b626ac93b99cbfc1927692e0ca666625
5190038663.0,893cf5b3103ffff,25.0902843,89.3818067,Fashitola Bazar,,"Fashitola Bazar, Gobindaganj, Gaibandha District, Rangpur Division, Bangladesh","ফাশিতোলা বাজার, গাইবান্ধা জেলা, রংপুর বিভাগ, বাংলাদেশ",Gobindaganj,বাংলাদেশ,রংপুর বিভাগ,local_admin,boundaries,['marketplace'],[],Bangladesh,Rangpur,Gaibandha,Gobindaganj,Kamardaha,b626ac93b99cbfc1927692e0ca666625
5190043285.0,893cf5b3103ffff,25.0904364,89.3808822,ফাঁসিতলা বাজার,,"Market of the trap, Gobindaganj, Gaibandha District, Rangpur Division, Bangladesh","ফাঁসিতলা বাজার, গাইবান্ধা জেলা, রংপুর বিভাগ, বাংলাদেশ",Gobindaganj,বাংলাদেশ,রংপুর বিভাগ,local_admin,boundaries,['marketplace'],[],Bangladesh,Rangpur,Gaibandha,Gobindaganj,Kamardaha,b626ac93b99cbfc1927692e0ca666625
5190070982.0,893cf5b2043ffff,25.1253053,89.3864014,Gobindogonj Filling Station,,"Gobindogonj Filling Station, Gobindaganj, Gaibandha District, Rangpur Division, Bangladesh","গোবিন্ডোগঞ্জ ফিলিং স্টেশন, গাইবান্ধা জেলা, রংপুর বিভাগ, বাংলাদেশ",Gobindaganj,বাংলাদেশ,রংপুর বিভাগ,local_admin,boundaries,['fuel'],[],Bangladesh,Rangpur,Gaibandha,Gobindaganj,Paurashava,8dff4a512f697d67945d6d092cf7b58e
5190077125.0,893cf5b2043ffff,25.1271106,89.3871764,South Bus Stand,,"South Bus Stand, Gobindaganj, Gaibandha District, Rangpur Division, Bangladesh","সাউথ বাস স্ট্যান্ড, গাইবান্ধা জেলা, রংপুর বিভাগ, বাংলাদেশ",Gobindaganj,বাংলাদেশ,রংপুর বিভাগ,street,boundaries,['bus_stop'],[],Bangladesh,Rangpur,Gaibandha,Gobindaganj,Paurashava,8dff4a512f697d67945d6d092cf7b58e
5190082398.0,893cf5b2057ffff,25.1293934,89.3881287,Hazi Market,,"Hazi Market, Gobindaganj, Gaibandha District, Rangpur Division, Bangladesh","হাজী বাজার, গাইবান্ধা জেলা, রংপুর বিভাগ, বাংলাদেশ",Gobindaganj,বাংলাদেশ,রংপুর বিভাগ,local_admin,boundaries,['marketplace'],[],Bangladesh,Rangpur,Gaibandha,Gobindaganj,Paurashava,8dff4a512f697d67945d6d092cf7b58e
5190089913.0,893cf5b20cfffff,25.1318571,89.3878806,Tahani Biriyani House,,"Tahani Biriyani House, Gobindaganj, Gaibandha District, Rangpur Division, Bangladesh","তাহানী বিরিয়ানি বাড়ি, গাইবান্ধা জেলা, রংপুর বিভাগ, বাংলাদেশ",Gobindaganj,বাংলাদেশ,রংপুর বিভাগ,local_admin,boundaries,['restaurant'],[],Bangladesh,Rangpur,Gaibandha,Gobindaganj,Paurashava,8dff4a512f697d67945d6d092cf7b58e
5190274167.0,893cf5b201bffff,25.1332846,89.3884848,Rajmoti Super Market,,"Rajmoti Super Market, Gobindaganj, Gaibandha District, Rangpur Division, Bangladesh","রাজমোটি সুপার মার্কেট, গাইবান্ধা জেলা, রংপুর বিভাগ, বাংলাদেশ",Gobindaganj,বাংলাদেশ,রংপুর বিভাগ,local_admin,boundaries,['supermarket'],[],Bangladesh,Rangpur,Gaibandha,Gobindaganj,Paurashava,8dff4a512f697d67945d6d092cf7b58e
5190281805.0,893cf5b20c7ffff,25.1335416,89.3872364,Gobindogonj Bazar গবিন্দগঞ্জ বাজার,,"Gobindogonj Bazar, Gobindaganj, Gaibandha District, Rangpur Division, Bangladesh","গবিন্দগঞ্জ বাজার, গাইবান্ধা জেলা, রংপুর বিভাগ, বাংলাদেশ",Gobindaganj,বাংলাদেশ,রংপুর বিভাগ,local_admin,boundaries,['marketplace'],[],Bangladesh,Rangpur,Gaibandha,Gobindaganj,Paurashava,8dff4a512f697d67945d6d092cf7b58e
5190284914.0,893cf5b201bffff,25.1335601,89.38895049999999,Friends Kitchen,,"Friends Kitchen, Gobindaganj, Gaibandha District, Rangpur Division, Bangladesh","বন্ধুরা রান্নাঘর, গাইবান্ধা জেলা, রংপুর বিভাগ, বাংলাদেশ",Gobindaganj,বাংলাদেশ,রংপুর বিভাগ,local_admin,boundaries,['restaurant'],[],Bangladesh,Rangpur,Gaibandha,Gobindaganj,Paurashava,8dff4a512f697d67945d6d092cf7b58e
5190288268.0,893cf5b201bffff,25.1338129,89.3881805,Dhaka Bekary,,"Dhaka Bekary, Gobindaganj, Gaibandha District, Rangpur Division, Bangladesh","Dhaka াকা বেকারি, গাইবান্ধা জেলা, রংপুর বিভাগ, বাংলাদেশ",Gobindaganj,বাংলাদেশ,রংপুর বিভাগ,local_admin,boundaries,['bakery'],[],Bangladesh,Rangpur,Gaibandha,Gobindaganj,Paurashava,8dff4a512f697d67945d6d092cf7b58e
5190370265.0,893cf5b201bffff,25.1340592,89.3888652,Modina Food Corner -MFC,,"Modina Food Corner -MFC, Gobindaganj, Gaibandha District, Rangpur Division, Bangladesh","মোডিনা ফুড কর্নার -এমএফসি, গাইবান্ধা জেলা, রংপুর বিভাগ, বাংলাদেশ",Gobindaganj,বাংলাদেশ,রংপুর বিভাগ,local_admin,boundaries,['restaurant'],[],Bangladesh,Rangpur,Gaibandha,Gobindaganj,Paurashava,8dff4a512f697d67945d6d092cf7b58e
5190373849.0,893cf5b2013ffff,25.1355831,89.3887301,North Bus Stand Govindaganj উত্তর বাস স্ট্যান্ড গোবিন্দগঞ্জ,,"North Bus Stand Govindaganj, Gobindaganj, Gaibandha District, Rangpur Division, Bangladesh","উত্তর বাস স্ট্যান্ড গোবিন্দগঞ্জ, গাইবান্ধা জেলা, রংপুর বিভাগ, বাংলাদেশ",Gobindaganj,বাংলাদেশ,রংপুর বিভাগ,street,boundaries,['bus_stop'],[],Bangladesh,Rangpur,Gaibandha,Gobindaganj,Paurashava,8dff4a512f697d67945d6d092cf7b58e
5190380210.0,893cf5b20c7ffff,25.1352143,89.3879879,SIBL,,"SIBL, Gobindaganj, Gaibandha District, Rangpur Division, Bangladesh","সিবল, গাইবান্ধা জেলা, রংপুর বিভাগ, বাংলাদেশ",Gobindaganj,বাংলাদেশ,রংপুর বিভাগ,local_admin,boundaries,['bank'],[],Bangladesh,Rangpur,Gaibandha,Gobindaganj,Paurashava,8dff4a512f697d67945d6d092cf7b58e
5190380476.0,893cf5b20c7ffff,25.1350941,89.3879933,মিউচুয়াল ট্রাস্ট ব্যাংক লিমিটেড,['Mutual Trust Bank Limited'],"Mutual Trust Bank Limited, Gobindaganj, Gaibandha District, Rangpur Division, Bangladesh","মিউচুয়াল ট্রাস্ট ব্যাংক লিমিটেড, গাইবান্ধা জেলা, রংপুর বিভাগ, বাংলাদেশ",Gobindaganj,বাংলাদেশ,রংপুর বিভাগ,local_admin,boundaries,['bank'],[],Bangladesh,Rangpur,Gaibandha,Gobindaganj,Paurashava,8dff4a512f697d67945d6d092cf7b58e
5190384982.0,893cf5b20c7ffff,25.1357229,89.3872948,,,"Gobindaganj, Gaibandha District, Rangpur Division, Bangladesh","গাইবান্ধা জেলা, রংপুর বিভাগ, বাংলাদেশ",Gobindaganj,বাংলাদেশ,রংপুর বিভাগ,local_admin,boundaries,['atm'],[],Bangladesh,Rangpur,Gaibandha,Gobindaganj,Paurashava,8dff4a512f697d67945d6d092cf7b58e
5190392021.0,893cf5b20c7ffff,25.136063,89.3874096,ব্র্যাক ব্যাংক লিমিটেড,['BRAC Bank Limited'],"BRAC Bank Limited, Gobindaganj, Gaibandha District, Rangpur Division, Bangladesh","ব্র্যাক ব্যাংক লিমিটেড, গাইবান্ধা জেলা, রংপুর বিভাগ, বাংলাদেশ",Gobindaganj,বাংলাদেশ,রংপুর বিভাগ,local_admin,boundaries,['bank'],[],Bangladesh,Rangpur,Gaibandha,Gobindaganj,Paurashava,8dff4a512f697d67945d6d092cf7b58e
5190394140.0,893cf5b20c7ffff,25.1361674,89.3871722,Gobindagonj,,"Gobindagonj, Gobindaganj, Gaibandha District, Rangpur Division, Bangladesh","গোবিন্দগনজ, গাইবান্ধা জেলা, রংপুর বিভাগ, বাংলাদেশ",Gobindaganj,বাংলাদেশ,রংপুর বিভাগ,street,boundaries,['bus_stop'],[],Bangladesh,Rangpur,Gaibandha,Gobindaganj,Paurashava,8dff4a512f697d67945d6d092cf7b58e
5190399370.0,893cf5b25c3ffff,25.1552861,89.3898856,,,"Gobindaganj, Gaibandha District, Rangpur Division, Bangladesh","গাইবান্ধা জেলা, রংপুর বিভাগ, বাংলাদেশ",Gobindaganj,বাংলাদেশ,রংপুর বিভাগ,local_admin,boundaries,['communication_tower'],[],Bangladesh,Rangpur,Gaibandha,Gobindaganj,Paurashava,8dff4a512f697d67945d6d092cf7b58e
5190409725.0,893cf5b20c7ffff,25.1364295,89.3865053,Hotel AL-SADEQ Abashik,,"Hotel AL-SADEQ Abashik, Gobindaganj, Gaibandha District, Rangpur Division, Bangladesh","হোটেল আল-সাদেক আবশিক, গাইবান্ধা জেলা, রংপুর বিভাগ, বাংলাদেশ",Gobindaganj,বাংলাদেশ,রংপুর বিভাগ,local_admin,boundaries,['hotel'],[],Bangladesh,Rangpur,Gaibandha,Gobindaganj,Paurashava,8dff4a512f697d67945d6d092cf7b58e
5190410060.0,893cf5b20c7ffff,25.1364621,89.3879045,Nurzahan Complex,,"Nurzahan Complex, Gobindaganj, Gaibandha District, Rangpur Division, Bangladesh","নুরজাহান কমপ্লেক্স, গাইবান্ধা জেলা, রংপুর বিভাগ, বাংলাদেশ",Gobindaganj,বাংলাদেশ,রংপুর বিভাগ,local_admin,boundaries,['marketplace'],[],Bangladesh,Rangpur,Gaibandha,Gobindaganj,Paurashava,8dff4a512f697d67945d6d092cf7b58e
5190418252.0,893ce648b33ffff,25.1739228,89.3890391,Katakhali Br Bus stop,,"Katakhali Br Bus stop, Gobindaganj, Gaibandha District, Rangpur Division, Bangladesh","কাতখালি বিআর বাস স্টপ, গাইবান্ধা জেলা, রংপুর বিভাগ, বাংলাদেশ",Gobindaganj,বাংলাদেশ,রংপুর বিভাগ,street,boundaries,['bus_stop'],[],Bangladesh,Rangpur,Gaibandha,Gobindaganj,TalukKanupur,24e131c6c2aa4bbac24908c10500c2fb
5190419798.0,893ce64f69bffff,25.2347095,89.3663504,Komarpur Bus Stop,,"Komarpur Bus Stop, Gobindaganj, Gaibandha District, Rangpur Division, Bangladesh","কোমরপুর বাস স্টপ, গাইবান্ধা জেলা, রংপুর বিভাগ, বাংলাদেশ",Gobindaganj,বাংলাদেশ,রংপুর বিভাগ,street,boundaries,['bus_stop'],[],Bangladesh,Rangpur,Gaibandha,Gobindaganj,Darbasta,400489f9f66d2956230e96120e215b57
5190421388.0,893ce648bb7ffff,25.180284,89.3883911,কাটাখালী বাজার,,"Katakhali Bazar, Gobindaganj, Gaibandha District, Rangpur Division, Bangladesh","কাটাখালী বাজার, গাইবান্ধা জেলা, রংপুর বিভাগ, বাংলাদেশ",Gobindaganj,বাংলাদেশ,রংপুর বিভাগ,local_admin,boundaries,['marketplace'],[],Bangladesh,Rangpur,Gaibandha,Gobindaganj,TalukKanupur,24e131c6c2aa4bbac24908c10500c2fb
5190423614.0,893ce648bb7ffff,25.1806706,89.3884251,Ranju Tea Stall রঞ্জু টি স্টল,,"Ranju Tea Stall, Gobindaganj, Gaibandha District, Rangpur Division, Bangladesh","রঞ্জু টি স্টল, গাইবান্ধা জেলা, রংপুর বিভাগ, বাংলাদেশ",Gobindaganj,বাংলাদেশ,রংপুর বিভাগ,local_admin,boundaries,['tea'],[],Bangladesh,Rangpur,Gaibandha,Gobindaganj,TalukKanupur,24e131c6c2aa4bbac24908c10500c2fb
5190426262.0,893ce648dafffff,25.2140447,89.3761588,Kalitola Bazar,,"Kalitola Bazar, Gobindaganj, Gaibandha District, Rangpur Division, Bangladesh","কালিতোলা বাজার, গাইবান্ধা জেলা, রংপুর বিভাগ, বাংলাদেশ",Gobindaganj,বাংলাদেশ,রংপুর বিভাগ,local_admin,boundaries,['marketplace'],[],Bangladesh,Rangpur,Gaibandha,Gobindaganj,Darbasta,400489f9f66d2956230e96120e215b57
5190440175.0,893ce641a8bffff,25.2699423,89.3573247,Dreamland,,"Dreamland, Palasbari, Gaibandha District, Rangpur Division, Bangladesh","ড্রিমল্যান্ড, গাইবান্ধা জেলা, রংপুর বিভাগ, বাংলাদেশ",Palasbari,বাংলাদেশ,রংপুর বিভাগ,local_admin,boundaries,['park'],[],Bangladesh,Rangpur,Gaibandha,Palashbari,Palashbari,a060eeec1f89f041e248369b78a597bf
5190443075.0,893ce641e2bffff,25.2776638,89.3545221,Shilpi Hotel & Restaurant,,"Shilpi Hotel & Restaurant, Palasbari, Gaibandha District, Rangpur Division, Bangladesh","শিল্পি হোটেল ও রেস্তোঁরা, গাইবান্ধা জেলা, রংপুর বিভাগ, বাংলাদেশ",Palasbari,বাংলাদেশ,রংপুর বিভাগ,local_admin,boundaries,['restaurant'],[],Bangladesh,Rangpur,Gaibandha,Palashbari,Palashbari,a060eeec1f89f041e248369b78a597bf
5190446112.0,893ce641e23ffff,25.2800166,89.3532736,Palashbari Bus Stop,,"Palashbari Bus Stop, Palasbari, Gaibandha District, Rangpur Division, Bangladesh","পালাশবাড়ী বাস স্টপ, গাইবান্ধা জেলা, রংপুর বিভাগ, বাংলাদেশ",Palasbari,বাংলাদেশ,রংপুর বিভাগ,street,boundaries,['bus_stop'],[],Bangladesh,Rangpur,Gaibandha,Palashbari,Palashbari,a060eeec1f89f041e248369b78a597bf
5190448452.0,893ce641e23ffff,25.2807971,89.3533347,ডাচ-বাংলা ব্যাংক লিমিটেড এটিএম,['Dutch-Bangla Bank Limited ATM'],"Dutch-Bangla Bank Ltd ATM, Palasbari, Gaibandha District, Rangpur Division, Bangladesh","ডাচ-বাংলা ব্যাংক লিমিটেড এটিএম, গাইবান্ধা জেলা, রংপুর বিভাগ, বাংলাদেশ",Palasbari,বাংলাদেশ,রংপুর বিভাগ,local_admin,boundaries,['bank'],[],Bangladesh,Rangpur,Gaibandha,Palashbari,Palashbari,a060eeec1f89f041e248369b78a597bf
5190464705.0,893ce641e33ffff,25.2820558,89.3530479,Akboria Confectionery,,"Akboria Confectionery, Palasbari, Gaibandha District, Rangpur Division, Bangladesh","আকবোরিয়া মিষ্টান্ন, গাইবান্ধা জেলা, রংপুর বিভাগ, বাংলাদেশ",Palasbari,বাংলাদেশ,রংপুর বিভাগ,local_admin,boundaries,['restaurant'],[],Bangladesh,Rangpur,Gaibandha,Palashbari,Palashbari,a060eeec1f89f041e248369b78a597bf
5190467040.0,893ce641e37ffff,25.2826639,89.3542633,Gaibandha Bus Stand,,"Gaibandha Bus Stand, Palasbari, Gaibandha District, Rangpur Division, Bangladesh","গাইবন্ধা বাস স্ট্যান্ড, গাইবান্ধা জেলা, রংপুর বিভাগ, বাংলাদেশ",Palasbari,বাংলাদেশ,রংপুর বিভাগ,street,boundaries,['bus_stop'],[],Bangladesh,Rangpur,Gaibandha,Palashbari,Palashbari,a060eeec1f89f041e248369b78a597bf
5190467448.0,893ce641e37ffff,25.2827727,89.3540042,,,"Palasbari, Gaibandha District, Rangpur Division, Bangladesh","গাইবান্ধা জেলা, রংপুর বিভাগ, বাংলাদেশ",Palasbari,বাংলাদেশ,রংপুর বিভাগ,local_admin,boundaries,['atm'],[],Bangladesh,Rangpur,Gaibandha,Palashbari,Palashbari,a060eeec1f89f041e248369b78a597bf
5190479635.0,893ce641ea3ffff,25.2874005,89.3504299,"Road Division,Gaibandha,Palashbari Inspection Banglow (IB)",,"Road Division Gaibandha Palashbari Inspection Banglow IB, Palasbari, Gaibandha District, Rangpur Division, Bangladesh","রোড বিভাগ গাইবন্ধা পালাশবাড়ি পরিদর্শন বাংলো আইবি, গাইবান্ধা জেলা, রংপুর বিভাগ, বাংলাদেশ",Palasbari,বাংলাদেশ,রংপুর বিভাগ,local_admin,boundaries,['hotel'],[],Bangladesh,Rangpur,Gaibandha,Palashbari,Palashbari,a060eeec1f89f041e248369b78a597bf
5190479981.0,893ce641ea3ffff,25.2880918,89.3500392,R&H Rest House,,"R&H Rest House, Palasbari, Gaibandha District, Rangpur Division, Bangladesh","আর অ্যান্ড এইচ রেস্ট হাউস, গাইবান্ধা জেলা, রংপুর বিভাগ, বাংলাদেশ",Palasbari,বাংলাদেশ,রংপুর বিভাগ,local_admin,boundaries,['hotel'],[],Bangladesh,Rangpur,Gaibandha,Palashbari,Palashbari,a060eeec1f89f041e248369b78a597bf
5190516850.0,893ce6400abffff,25.3446725,89.342347,Jahid Library,,"Jahid Library, Pirganj Rangpur, Rangpur District, Rangpur Division, Bangladesh","জাহিদ গ্রন্থাগার, রংপুর জেলা, রংপুর বিভাগ, বাংলাদেশ",Pirganj (Rangpur),বাংলাদেশ,রংপুর বিভাগ,local_admin,boundaries,['library'],[],Bangladesh,Rangpur,Gaibandha,Sadullapur,Dhaperhat,41c9f023906bd4306399e3efdbbe730b
5190525135.0,893ce6400abffff,25.3446504,89.3417948,Dhaperhat Bazar,,"Dhaperhat Bazar, Pirganj Rangpur, Rangpur District, Rangpur Division, Bangladesh","ধাপারহাত বাজার, রংপুর জেলা, রংপুর বিভাগ, বাংলাদেশ",Pirganj (Rangpur),বাংলাদেশ,রংপুর বিভাগ,local_admin,boundaries,['marketplace'],[],Bangladesh,Rangpur,Gaibandha,Sadullapur,Dhaperhat,41c9f023906bd4306399e3efdbbe730b
5190604173.0,893ce6400abffff,25.3450389,89.3423073,Milon Library মিলন লাইব্রেরী,,"Milon Library, Pirganj Rangpur, Rangpur District, Rangpur Division, Bangladesh","মিলন লাইব্রেরী, রংপুর জেলা, রংপুর বিভাগ, বাংলাদেশ",Pirganj (Rangpur),বাংলাদেশ,রংপুর বিভাগ,local_admin,boundaries,['library'],[],Bangladesh,Rangpur,Gaibandha,Sadullapur,Dhaperhat,41c9f023906bd4306399e3efdbbe730b
5190639973.0,893ce6400a3ffff,25.346699,89.3433401,শ্রী শ্রী রাধাঁ গোবিন্দ জিউ বিগ্রহ,,"Sri Sri Radhan Govind Jiu Vigra, Pirganj Rangpur, Rangpur District, Rangpur Division, Bangladesh","শ্রী শ্রী রাধাঁ গোবিন্দ জিউ বিগ্রহ, রংপুর জেলা, রংপুর বিভাগ, বাংলাদেশ",Pirganj (Rangpur),বাংলাদেশ,রংপুর বিভাগ,local_admin,boundaries,['place_of_worship'],[],Bangladesh,Rangpur,Gaibandha,Sadullapur,Dhaperhat,41c9f023906bd4306399e3efdbbe730b
5219535919.0,893cf5b20d7ffff,25.1358894,89.384042,Prodhan Market প্রধান বাজার,,"Prodhan Market, Gobindaganj, Gaibandha District, Rangpur Division, Bangladesh","প্রধান বাজার, গাইবান্ধা জেলা, রংপুর বিভাগ, বাংলাদেশ",Gobindaganj,বাংলাদেশ,রংপুর বিভাগ,local_admin,boundaries,['marketplace'],[],Bangladesh,Rangpur,Gaibandha,Gobindaganj,Paurashava,8dff4a512f697d67945d6d092cf7b58e
5219564856.0,893cf5b2447ffff,25.1423727,89.3723367,SARKER BARI সরকার বাড়ী,,"SARKER BARI, Gobindaganj, Gaibandha District, Rangpur Division, Bangladesh","সরকার বাড়ী, গাইবান্ধা জেলা, রংপুর বিভাগ, বাংলাদেশ",Gobindaganj,বাংলাদেশ,রংপুর বিভাগ,local_admin,boundaries,['hostel'],[],Bangladesh,Rangpur,Gaibandha,Gobindaganj,Gumaniganj,991d21f8496381e9e84677936ff1a9f2
5219566236.0,893cf5b24cbffff,25.1446636,89.3641636,কায়াগঞ্জ বাজার Kayagonj Bazar,,"Kayagonj Bazar, Gobindaganj, Gaibandha District, Rangpur Division, Bangladesh","কায়াগঞ্জ বাজার, গাইবান্ধা জেলা, রংপুর বিভাগ, বাংলাদেশ",Gobindaganj,বাংলাদেশ,রংপুর বিভাগ,local_admin,boundaries,['marketplace'],[],Bangladesh,Rangpur,Gaibandha,Gobindaganj,Gumaniganj,991d21f8496381e9e84677936ff1a9f2
5219568792.0,893ce6499afffff,25.1477273,89.3575604,Kamarpara Bazar কামারপাড়া বাজার,,"Kamarpara Bazar, Gobindaganj, Gaibandha District, Rangpur Division, Bangladesh","কামারপাড়া বাজার, গাইবান্ধা জেলা, রংপুর বিভাগ, বাংলাদেশ",Gobindaganj,বাংলাদেশ,রংপুর বিভাগ,local_admin,boundaries,['supermarket'],[],Bangladesh,Rangpur,Gaibandha,Gobindaganj,Gumaniganj,991d21f8496381e9e84677936ff1a9f2
7510923835.0,893ce60b2cbffff,25.5161647,89.4686408,Sarbananda Union Parishad Complex Bhaban,,"Sarbananda Union Parishad Complex Bhaban, Gaibandha District, Rangpur Division, Bangladesh","সরবানন্দ ইউনিয়ন পরিশাদ কমপ্লেক্স ভবান, গাইবান্ধা জেলা, রংপুর বিভাগ, বাংলাদেশ",,বাংলাদেশ,রংপুর বিভাগ,admin2,boundaries,['government'],[],Bangladesh,Rangpur,Gaibandha,Sundarganj,Sarbananda,38996b86bd22daa55ec76a45f6b5a58e
7521827323.0,893cf5b0873ffff,25.0748167,89.493742,শালমারা,,"Shalmara, Gobindaganj, Gaibandha District, Rangpur Division, Bangladesh","শালমারা, গাইবান্ধা জেলা, রংপুর বিভাগ, বাংলাদেশ",Gobindaganj,বাংলাদেশ,রংপুর বিভাগ,local_admin,boundaries,['railway_station'],[],Bangladesh,Rangpur,Gaibandha,Gobindaganj,Shalmara,d0f67608358607819e36cb9785e1f54e
7521827324.0,893cf5b0d13ffff,25.1044679,89.4938063,মহিমাগঞ্জ,,"Majesty, Gobindaganj, Gaibandha District, Rangpur Division, Bangladesh","মহিমাগঞ্জ, গাইবান্ধা জেলা, রংপুর বিভাগ, বাংলাদেশ",Gobindaganj,বাংলাদেশ,রংপুর বিভাগ,local_admin,boundaries,['railway_station'],[],Bangladesh,Rangpur,Gaibandha,Gobindaganj,Mahimaganj,370f0ea95c2e4eb0e1e2ec8aba8373c7
7521827334.0,893ce656da3ffff,25.5717331,89.4299767,হাসানগঞ্জ,,"Hasanganj, Gaibandha District, Rangpur Division, Bangladesh","হাসানগঞ্জ, গাইবান্ধা জেলা, রংপুর বিভাগ, বাংলাদেশ",,বাংলাদেশ,রংপুর বিভাগ,admin2,boundaries,['railway_station'],[],Bangladesh,Rangpur,Gaibandha,Sundarganj,Bamandanga,66446a5c0747e77e918dbbe497af6f55
9530872744.0,893cf5b2a4fffff,25.1001205,89.4516197,,['তারাগোনা পূর্বপাড়া জামে মসজিদ'],"Gobindaganj, Gaibandha District, Rangpur Division, Bangladesh","গাইবান্ধা জেলা, রংপুর বিভাগ, বাংলাদেশ",Gobindaganj,বাংলাদেশ,রংপুর বিভাগ,local_admin,boundaries,['place_of_worship_muslim'],[],Bangladesh,Rangpur,Gaibandha,Gobindaganj,Mahimaganj,370f0ea95c2e4eb0e1e2ec8aba8373c7
9530872747.0,893cf5a2493ffff,25.0525462,89.4956374,,['হিয়াতপুর দক্ষিণপাড়া পুরাতন বাইতুল জামে মসজিদ'],"Gobindaganj, Gaibandha District, Rangpur Division, Bangladesh","গাইবান্ধা জেলা, রংপুর বিভাগ, বাংলাদেশ",Gobindaganj,বাংলাদেশ,রংপুর বিভাগ,local_admin,boundaries,['place_of_worship_muslim'],[],Bangladesh,Rangpur,Gaibandha,Gobindaganj,Shalmara,d0f67608358607819e36cb9785e1f54e
7521827332.0,893ce67a22fffff,25.3100491,89.6145703,বালাসী ঘাট,,"Balasi Ghat, Gaibandha District, Rangpur Division, Bangladesh","বালাসী ঘাট, গাইবান্ধা জেলা, রংপুর বিভাগ, বাংলাদেশ",,বাংলাদেশ,রংপুর বিভাগ,admin2,boundaries,['railway_station'],[],Bangladesh,Rangpur,Gaibandha,Fulchhari,KanchiPara,c3be07dddb29c4de295bde2e12fe6b19
2332792027.0,893ce60a273ffff,25.564414,89.5189417,Sundarganj Upazila Health Complex,,"Sundarganj Upazila Health Complex, Gaibandha District, Rangpur Division, Bangladesh","সুন্দরগঞ্জ উপজিলা স্বাস্থ্য কমপ্লেক্স, গাইবান্ধা জেলা, রংপুর বিভাগ, বাংলাদেশ",,বাংলাদেশ,রংপুর বিভাগ,admin2,boundaries,['hospital'],[],Bangladesh,Rangpur,Gaibandha,Sundarganj,SundarganjPaurashava,77576604f3329b174f43378a1dce5317
2332802122.0,893ce64584fffff,25.3272548,89.5376381,Gaibandha General Hospital,,"Gaibandha General Hospital, Gaibandha District, Rangpur Division, Bangladesh","গাইবন্ধা জেনারেল হাসপাতাল, গাইবান্ধা জেলা, রংপুর বিভাগ, বাংলাদেশ",,বাংলাদেশ,রংপুর বিভাগ,admin2,boundaries,['hospital'],[],Bangladesh,Rangpur,Gaibandha,GaibandhaSadar,Paurashava,5a30b208feabf629c8b64f14591931de
2332856918.0,893cf5b428bffff,25.1130044,89.581814,Saghatta Upazila Health Complex,,"Saghatta Upazila Health Complex, Saghata Upazila, Gaibandha District, Rangpur Division, Bangladesh","সাঘত্ত উপজিলা স্বাস্থ্য কমপ্লেক্স, সাঘাটা উপজেলা, গাইবান্ধা জেলা, রংপুর বিভাগ, বাংলাদেশ",সাঘাটা উপজেলা,বাংলাদেশ,রংপুর বিভাগ,local_admin,boundaries,['hospital'],[],Bangladesh,Rangpur,Gaibandha,Saghatta,Sughatta,b7efd8f3e3bf7182d85a266a4db294cd
2543913699.0,893ce64db2bffff,25.1643944,89.5233369,বোনারপাড়া জংশন,['Bonarpara'],"Bonarpara junction, Saghata Upazila, Gaibandha District, Rangpur Division, Bangladesh","বোনারপাড়া জংশন, সাঘাটা উপজেলা, গাইবান্ধা জেলা, রংপুর বিভাগ, বাংলাদেশ",সাঘাটা উপজেলা,বাংলাদেশ,রংপুর বিভাগ,local_admin,boundaries,['railway_station'],[],Bangladesh,Rangpur,Gaibandha,Saghatta,BonarPara,e6c538adbcdef166f438cd4f73c6e8cd
2544976621.0,893ce64580fffff,25.3323091,89.542466,গাইবান্ধা,"['গাইবান্ধা রেলওয়ে স্টেশন', 'গাইবান্ধা', 'Gaibandha']","Gaibandha, Gaibandha District, Rangpur Division, Bangladesh","গাইবান্ধা, গাইবান্ধা জেলা, রংপুর বিভাগ, বাংলাদেশ",,বাংলাদেশ,রংপুর বিভাগ,admin2,boundaries,['railway_station'],[],Bangladesh,Rangpur,Gaibandha,GaibandhaSadar,Paurashava,5a30b208feabf629c8b64f14591931de
2878364715.0,893ce645863ffff,25.3295613,89.5444704,Gaibandha Government Womens College,,"Gaibandha Government Womens College, Gaibandha District, Rangpur Division, Bangladesh","গাইবন্ধা সরকারী মহিলা কলেজ, গাইবান্ধা জেলা, রংপুর বিভাগ, বাংলাদেশ",,বাংলাদেশ,রংপুর বিভাগ,admin2,boundaries,['college'],[],Bangladesh,Rangpur,Gaibandha,GaibandhaSadar,Paurashava,5a30b208feabf629c8b64f14591931de
2878369447.0,893ce645863ffff,25.328025,89.5445741,Gaibandha Zilla School,,"Gaibandha Zilla School, Gaibandha District, Rangpur Division, Bangladesh","গাইবন্ধ জিলা স্কুল, গাইবান্ধা জেলা, রংপুর বিভাগ, বাংলাদেশ",,বাংলাদেশ,রংপুর বিভাগ,admin2,boundaries,['school'],[],Bangladesh,Rangpur,Gaibandha,GaibandhaSadar,Paurashava,5a30b208feabf629c8b64f14591931de
2878370307.0,893ce645863ffff,25.3275144,89.5459628,Islamia High School,,"Islamia High School, Gaibandha District, Rangpur Division, Bangladesh","ইসলামিয়া উচ্চ বিদ্যালয়, গাইবান্ধা জেলা, রংপুর বিভাগ, বাংলাদেশ",,বাংলাদেশ,রংপুর বিভাগ,admin2,boundaries,['school'],[],Bangladesh,Rangpur,Gaibandha,GaibandhaSadar,Paurashava,5a30b208feabf629c8b64f14591931de
2878372441.0,893ce645bdbffff,25.3202406,89.5438645,Gaibandha Adarsha College,,"Gaibandha Adarsha College, Gaibandha District, Rangpur Division, Bangladesh","গাইবন্ধা আদারশা কলেজ, গাইবান্ধা জেলা, রংপুর বিভাগ, বাংলাদেশ",,বাংলাদেশ,রংপুর বিভাগ,admin2,boundaries,['college'],[],Bangladesh,Rangpur,Gaibandha,GaibandhaSadar,Paurashava,5a30b208feabf629c8b64f14591931de
2878373947.0,893ce645bcbffff,25.3187218,89.547604,Gaibandha Model School,,"Gaibandha Model School, Gaibandha District, Rangpur Division, Bangladesh","গাইবন্ধা মডেল স্কুল, গাইবান্ধা জেলা, রংপুর বিভাগ, বাংলাদেশ",,বাংলাদেশ,রংপুর বিভাগ,admin2,boundaries,['school'],[],Bangladesh,Rangpur,Gaibandha,GaibandhaSadar,Boali,06866bff5fa9300b342ddece8418bdbd
2879896997.0,893ce645a8fffff,25.3202089,89.5323864,West Gobindopur Primary School,,"West Gobindopur Primary School, Gaibandha District, Rangpur Division, Bangladesh","পশ্চিম গোবিন্দোপুর প্রাথমিক বিদ্যালয়, গাইবান্ধা জেলা, রংপুর বিভাগ, বাংলাদেশ",,বাংলাদেশ,রংপুর বিভাগ,admin2,boundaries,['school'],[],Bangladesh,Rangpur,Gaibandha,GaibandhaSadar,Boali,06866bff5fa9300b342ddece8418bdbd
2879900898.0,893ce6448d7ffff,25.3895433,89.5692077,Dariapur,,"Dariapur, Gaibandha District, Rangpur Division, Bangladesh","দারিয়াপুর, গাইবান্ধা জেলা, রংপুর বিভাগ, বাংলাদেশ",,বাংলাদেশ,রংপুর বিভাগ,street,boundaries,['bus_stop'],[],Bangladesh,Rangpur,Gaibandha,GaibandhaSadar,Kholahati,76b336f59c73184006733c491336570e
2879903152.0,893ce6448d7ffff,25.3889707,89.5693632,Amanulla High School Field,,"Amanulla High School Field, Gaibandha District, Rangpur Division, Bangladesh","আমানুল্লা উচ্চ বিদ্যালয়ের মাঠ, গাইবান্ধা জেলা, রংপুর বিভাগ, বাংলাদেশ",,বাংলাদেশ,রংপুর বিভাগ,admin2,boundaries,['playground'],[],Bangladesh,Rangpur,Gaibandha,GaibandhaSadar,Kholahati,76b336f59c73184006733c491336570e
2879903153.0,893ce609a2bffff,25.4619129,89.5842965,Dharmapur,,"Dharmapur, Gaibandha District, Rangpur Division, Bangladesh","ধর্মপুর, গাইবান্ধা জেলা, রংপুর বিভাগ, বাংলাদেশ",,বাংলাদেশ,রংপুর বিভাগ,street,boundaries,['bus_stop'],[],Bangladesh,Rangpur,Gaibandha,Sundarganj,Sreepur,a5e9d7c0bb01d03f1414a81c90f99932
2879904552.0,893ce64692bffff,25.4418907,89.5797295,Mathher Hat,,"Mathher Hat, Gaibandha District, Rangpur Division, Bangladesh","ম্যাথারের টুপি, গাইবান্ধা জেলা, রংপুর বিভাগ, বাংলাদেশ",,বাংলাদেশ,রংপুর বিভাগ,street,boundaries,['bus_stop'],[],Bangladesh,Rangpur,Gaibandha,Sundarganj,Sreepur,a5e9d7c0bb01d03f1414a81c90f99932
2879905143.0,893ce609a67ffff,25.4609205,89.5845129,Dharmapur Abdul Jalil Degrees College,,"Dharmapur Abdul Jalil Degrees College, Gaibandha District, Rangpur Division, Bangladesh","ধর্মপুর আবদুল জলিল ডিগ্রি কলেজ, গাইবান্ধা জেলা, রংপুর বিভাগ, বাংলাদেশ",,বাংলাদেশ,রংপুর বিভাগ,admin2,boundaries,['college'],[],Bangladesh,Rangpur,Gaibandha,Sundarganj,Sreepur,a5e9d7c0bb01d03f1414a81c90f99932
2879909236.0,893ce609aa7ffff,25.4753534,89.5861809,Folkhawa Government Primary School,,"Folkhawa Government Primary School, Gaibandha District, Rangpur Division, Bangladesh","ফোক্কাওয়া সরকারী প্রাথমিক বিদ্যালয়, গাইবান্ধা জেলা, রংপুর বিভাগ, বাংলাদেশ",,বাংলাদেশ,রংপুর বিভাগ,admin2,boundaries,['school'],[],Bangladesh,Rangpur,Gaibandha,Sundarganj,Sreepur,a5e9d7c0bb01d03f1414a81c90f99932
2879915239.0,893ce6098a7ffff,25.4971881,89.5928717,Dhubni More,,"Dhubni More, Gaibandha District, Rangpur Division, Bangladesh","ধুবনি আরও, গাইবান্ধা জেলা, রংপুর বিভাগ, বাংলাদেশ",,বাংলাদেশ,রংপুর বিভাগ,street,boundaries,['bus_stop'],[],Bangladesh,Rangpur,Gaibandha,Sundarganj,Kanchibari,17b860a387fa5ee76dbaad6e3a993a19
2879915715.0,893ce609d6fffff,25.498898,89.5955574,Dhubni Bazar,,"Dhubni Bazar, Gaibandha District, Rangpur Division, Bangladesh","ধুবনি বাজার, গাইবান্ধা জেলা, রংপুর বিভাগ, বাংলাদেশ",,বাংলাদেশ,রংপুর বিভাগ,admin2,boundaries,['marketplace'],[],Bangladesh,Rangpur,Gaibandha,Sundarganj,Kanchibari,17b860a387fa5ee76dbaad6e3a993a19
2879915746.0,893ce608337ffff,25.5270323,89.5797459,Belka Old Bazar,,"Belka Old Bazar, Gaibandha District, Rangpur Division, Bangladesh","বেলকা ওল্ড বাজার, গাইবান্ধা জেলা, রংপুর বিভাগ, বাংলাদেশ",,বাংলাদেশ,রংপুর বিভাগ,admin2,boundaries,['marketplace'],[],Bangladesh,Rangpur,Gaibandha,Sundarganj,Belka,cde30948203eda6f97f64a4f4249f9b0
2879917009.0,893ce60805bffff,25.5316994,89.5442639,Jhinia MA High School,,"Jhinia MA High School, Gaibandha District, Rangpur Division, Bangladesh","ঝিনিয়া এমএ উচ্চ বিদ্যালয়, গাইবান্ধা জেলা, রংপুর বিভাগ, বাংলাদেশ",,বাংলাদেশ,রংপুর বিভাগ,admin2,boundaries,['school'],[],Bangladesh,Rangpur,Gaibandha,Sundarganj,Dahabanda,ce18005f966dca41cc27a651b1198150
6726830690.0,893ce6481cfffff,25.1927433,89.312732,,['Bagda bazar'],"Gobindaganj, Gaibandha District, Rangpur Division, Bangladesh","গাইবান্ধা জেলা, রংপুর বিভাগ, বাংলাদেশ",Gobindaganj,বাংলাদেশ,রংপুর বিভাগ,local_admin,boundaries,['bus_stop'],[],Bangladesh,Rangpur,Gaibandha,Gobindaganj,Katabari,23f41b19f9c9e089c3401110009eb63f
646702825.0,893cf5b2033ffff,25.13565598,89.40007041,Gobindaganj Govt. College,,"Gobindaganj Govt. College, Gobindaganj, Gaibandha District, Rangpur Division, Bangladesh","গোবিন্দাগঞ্জ সরকারকলেজ, গাইবান্ধা জেলা, রংপুর বিভাগ, বাংলাদেশ",Gobindaganj,বাংলাদেশ,রংপুর বিভাগ,local_admin,boundaries,['college'],[],Bangladesh,Rangpur,Gaibandha,Gobindaganj,Paurashava,8dff4a512f697d67945d6d092cf7b58e
245927606.0,893ce67acb7ffff,25.35813807,89.66094103,,,"Gaibandha District, Rangpur Division, Bangladesh","গাইবান্ধা জেলা, রংপুর বিভাগ, বাংলাদেশ",,বাংলাদেশ,রংপুর বিভাগ,admin2,boundaries,['island'],[],Bangladesh,Rangpur,Gaibandha,GaibandhaSadar,Kamarjani,c90fd5ca28a67832f744c241058e2a65
4639444089.0,893ce645e07ffff,25.3301862,89.5184983,,,"Gaibandha District, Rangpur Division, Bangladesh","গাইবান্ধা জেলা, রংপুর বিভাগ, বাংলাদেশ",,বাংলাদেশ,রংপুর বিভাগ,admin2,boundaries,['guest_house'],[],Bangladesh,Rangpur,Gaibandha,GaibandhaSadar,Ballamjhar,76ad96bb08d87be9579788a299b83e10
4641742000.0,893ce645863ffff,25.3285181,89.5426428,,,"Gaibandha District, Rangpur Division, Bangladesh","গাইবান্ধা জেলা, রংপুর বিভাগ, বাংলাদেশ",,বাংলাদেশ,রংপুর বিভাগ,admin2,boundaries,['atm'],[],Bangladesh,Rangpur,Gaibandha,GaibandhaSadar,Paurashava,5a30b208feabf629c8b64f14591931de
274219645.0,893ce6419cfffff,25.29144212746514,89.38547042061167,Dhaka - Gaibandha Hwy,,"Dhaka - Gaibandha Hwy, Palasbari, Gaibandha District, Rangpur Division, Bangladesh","Dhaka াকা - গাইবন্ধা হুই, গাইবান্ধা জেলা, রংপুর বিভাগ, বাংলাদেশ",Palasbari,বাংলাদেশ,রংপুর বিভাগ,street,,,,Bangladesh,Rangpur,Gaibandha,Palashbari,Mohadipur,13db37ce97915fecb284adf0e25296e9
284048233.0,893ce645227ffff,25.314264543023054,89.47942996259528,Dhaka - Gaibandha Hwy,,"Dhaka - Gaibandha Hwy, Palasbari, Gaibandha District, Rangpur Division, Bangladesh","Dhaka াকা - গাইবন্ধা হুই, গাইবান্ধা জেলা, রংপুর বিভাগ, বাংলাদেশ",Palasbari,বাংলাদেশ,রংপুর বিভাগ,street,,,,Bangladesh,Rangpur,Gaibandha,GaibandhaSadar,SahaPara,695eb49058cc2580bddc6b4338017bfd
330065497.0,893ce65498bffff,25.501283051670764,89.4686160202493,Bamandangha-Naldanga Road,,"Bamandangha-Naldanga Road, Sadullapur Subdistrict, Gaibandha District, Rangpur Division, Bangladesh","বামান্ডাঘা-নালদঙ্গা রোড, সাদুল্লাপুর উপজেলা, গাইবান্ধা জেলা, রংপুর বিভাগ, বাংলাদেশ",সাদুল্লাপুর উপজেলা,বাংলাদেশ,রংপুর বিভাগ,street,,,,Bangladesh,Rangpur,Gaibandha,Sundarganj,Sarbananda,38996b86bd22daa55ec76a45f6b5a58e
240835433.0,893ce64630fffff,25.42078718047884,89.4991612124091,কুপতলা-সাদুল্লাপুর সড়ক,['Kuptala sadullapur Road'],"Koptala-Sadullapur Road, Kuptala sadullapur Road, Sadullapur Subdistrict, Gaibandha District, Rangpur Division, Bangladesh","কুপতলা-সাদুল্লাপুর সড়ক, সাদুল্লাপুর উপজেলা, গাইবান্ধা জেলা, রংপুর বিভাগ, বাংলাদেশ",সাদুল্লাপুর উপজেলা,বাংলাদেশ,রংপুর বিভাগ,street,,,,Bangladesh,Rangpur,Gaibandha,Sadullapur,KumarPara,78491e3ff2ddfbe16f696e03d4b07dca
1011164555.0,893ce647193ffff,25.40581025,89.458721,Sadullapur-Naldanga Road,,"Sadullapur-Naldanga Road, Sadullapur Subdistrict, Gaibandha District, Rangpur Division, Bangladesh","সাদুল্লাপুর-নালদঙ্গা রোড, সাদুল্লাপুর উপজেলা, গাইবান্ধা জেলা, রংপুর বিভাগ, বাংলাদেশ",সাদুল্লাপুর উপজেলা,বাংলাদেশ,রংপুর বিভাগ,street,,,,Bangladesh,Rangpur,Gaibandha,Sadullapur,Jamalpur,d8da91e26ceb718fd7918df357f4953a
667572933.0,893ce654ba3ffff,25.484298533581867,89.47181846696256,Sadullapur-Naldanga Road,,"Sadullapur-Naldanga Road, Sadullapur Subdistrict, Gaibandha District, Rangpur Division, Bangladesh","সাদুল্লাপুর-নালদঙ্গা রোড, সাদুল্লাপুর উপজেলা, গাইবান্ধা জেলা, রংপুর বিভাগ, বাংলাদেশ",সাদুল্লাপুর উপজেলা,বাংলাদেশ,রংপুর বিভাগ,street,,,,Bangladesh,Rangpur,Gaibandha,Sadullapur,Naldanga,5f3e0da01d72c7c4cf42d9e0d099281b
5495695443.0,893ce608cdbffff,25.552681,89.58666529999999,,,"Gaibandha District, Rangpur Division, Bangladesh","গাইবান্ধা জেলা, রংপুর বিভাগ, বাংলাদেশ",,বাংলাদেশ,রংপুর বিভাগ,admin2,boundaries,['ford'],[],Bangladesh,Rangpur,Gaibandha,Sundarganj,Belka,cde30948203eda6f97f64a4f4249f9b0
5588838369.0,893ce6441cfffff,25.392301,89.5251076,Kuptala Bazar,,"Kuptala Bazar, Gaibandha District, Rangpur Division, Bangladesh","কুপাল বাজর, গাইবান্ধা জেলা, রংপুর বিভাগ, বাংলাদেশ",,বাংলাদেশ,রংপুর বিভাগ,admin2,boundaries,['variety_store'],[],Bangladesh,Rangpur,Gaibandha,GaibandhaSadar,Kuptala,bc8e3adabf453baef8c561a9c0d151ba
5588843876.0,893ce6441cbffff,25.3914286,89.5247428,Krishi Bank,,"Krishi Bank, Gaibandha District, Rangpur Division, Bangladesh","কৃষ্ণ ব্যাংক, গাইবান্ধা জেলা, রংপুর বিভাগ, বাংলাদেশ",,বাংলাদেশ,রংপুর বিভাগ,admin2,boundaries,['bank'],[],Bangladesh,Rangpur,Gaibandha,GaibandhaSadar,Kuptala,bc8e3adabf453baef8c561a9c0d151ba
5897046314.0,893ce6736c3ffff,25.428359,89.5779007,Chourasta Bazar,,"Chourasta Bazar, Gaibandha District, Rangpur Division, Bangladesh","চৌরাস্তা বাজার, গাইবান্ধা জেলা, রংপুর বিভাগ, বাংলাদেশ",,বাংলাদেশ,রংপুর বিভাগ,admin2,boundaries,['marketplace'],[],Bangladesh,Rangpur,Gaibandha,GaibandhaSadar,Malibari,bd80fc4d5658b43bb658b74ff7cc461e
5897046315.0,893ce6448d7ffff,25.3899701,89.5688295,Dariapur Bazar,,"Dariapur Bazar, Gaibandha District, Rangpur Division, Bangladesh","দরিয়াপুর বাজার, গাইবান্ধা জেলা, রংপুর বিভাগ, বাংলাদেশ",,বাংলাদেশ,রংপুর বিভাগ,admin2,boundaries,['marketplace'],[],Bangladesh,Rangpur,Gaibandha,GaibandhaSadar,Kholahati,76b336f59c73184006733c491336570e
1011164554.0,893ce64719bffff,25.402013223935526,89.45964340298384,Sadullapur-Naldanga Road,,"Sadullapur-Naldanga Road, Sadullapur Subdistrict, Gaibandha District, Rangpur Division, Bangladesh","সাদুল্লাপুর-নালদঙ্গা রোড, সাদুল্লাপুর উপজেলা, গাইবান্ধা জেলা, রংপুর বিভাগ, বাংলাদেশ",সাদুল্লাপুর উপজেলা,বাংলাদেশ,রংপুর বিভাগ,street,,,,Bangladesh,Rangpur,Gaibandha,Sadullapur,Jamalpur,d8da91e26ceb718fd7918df357f4953a
444832346.0,893ce6706b7ffff,25.4378474,89.66090111,,,"Gaibandha District, Rangpur Division, Bangladesh","গাইবান্ধা জেলা, রংপুর বিভাগ, বাংলাদেশ",,বাংলাদেশ,রংপুর বিভাগ,admin2,boundaries,['island'],[],Bangladesh,Rangpur,Gaibandha,Sundarganj,Kapasia,f5f44c2af808de69b36ecdaf3a7b9183
444832347.0,893cf5b5d93ffff,25.10811196,89.62226228,,,"Gaibandha District, Rangpur Division, Bangladesh","গাইবান্ধা জেলা, রংপুর বিভাগ, বাংলাদেশ",,বাংলাদেশ,রংপুর বিভাগ,admin2,boundaries,['island'],[],Bangladesh,Rangpur,Gaibandha,Saghatta,Haldia,5e687dffa8717b2d40387d9a76a37e6e
444832348.0,893ce67aa77ffff,25.30679028,89.6726611,,,"Gaibandha District, Rangpur Division, Bangladesh","গাইবান্ধা জেলা, রংপুর বিভাগ, বাংলাদেশ",,বাংলাদেশ,রংপুর বিভাগ,admin2,boundaries,['island'],[],Bangladesh,Rangpur,Gaibandha,Fulchhari,Fazlupur,167d9607ae22ffb97704eb2320a1b127
444832350.0,893cf5b68a7ffff,25.18839891,89.64002238,,,"Gaibandha District, Rangpur Division, Bangladesh","গাইবান্ধা জেলা, রংপুর বিভাগ, বাংলাদেশ",,বাংলাদেশ,রংপুর বিভাগ,admin2,boundaries,['island'],[],Bangladesh,Rangpur,Gaibandha,Fulchhari,Fulchhari,54dbe458937905edd17c8dd3b0c8dacd
284048151.0,893ce64427bffff,25.358279700873894,89.50375639883958,Gaibandha - Sadullapur Rd,,"Gaibandha - Sadullapur Rd, Sadullapur Subdistrict, Gaibandha District, Rangpur Division, Bangladesh","গাইবন্ধ - সাদুল্লাপুর আরডি, সাদুল্লাপুর উপজেলা, গাইবান্ধা জেলা, রংপুর বিভাগ, বাংলাদেশ",সাদুল্লাপুর উপজেলা,বাংলাদেশ,রংপুর বিভাগ,street,,,,Bangladesh,Rangpur,Gaibandha,GaibandhaSadar,Ballamjhar,76ad96bb08d87be9579788a299b83e10
330047351.0,893ce646453ffff,25.44774513671485,89.4540539480947,Sadullapur-Naldanga Road,,"Sadullapur-Naldanga Road, Sadullapur Subdistrict, Gaibandha District, Rangpur Division, Bangladesh","সাদুল্লাপুর-নালদঙ্গা রোড, সাদুল্লাপুর উপজেলা, গাইবান্ধা জেলা, রংপুর বিভাগ, বাংলাদেশ",সাদুল্লাপুর উপজেলা,বাংলাদেশ,রংপুর বিভাগ,street,,,,Bangladesh,Rangpur,Gaibandha,Sadullapur,Damodarpur,2395a7ac5c04961290a44ead5c5961a6
354100535.0,893ce641e77ffff,25.27721112,89.34992451,Palashbari,,"Palashbari, Palasbari, Gaibandha District, Rangpur Division, Bangladesh","পালাশবারি, গাইবান্ধা জেলা, রংপুর বিভাগ, বাংলাদেশ",Palasbari,বাংলাদেশ,রংপুর বিভাগ,local_admin,boundaries,['substation'],[],Bangladesh,Rangpur,Gaibandha,Palashbari,Palashbari,a060eeec1f89f041e248369b78a597bf
3370070834.0,893ce654bb3ffff,25.4847385,89.4710442,নলডাঙ্গা,['Naldanga'],"Naldanga, Sadullapur Subdistrict, Gaibandha District, Rangpur Division, Bangladesh","নলডাঙ্গা, সাদুল্লাপুর উপজেলা, গাইবান্ধা জেলা, রংপুর বিভাগ, বাংলাদেশ",সাদুল্লাপুর উপজেলা,বাংলাদেশ,রংপুর বিভাগ,locality,,,,Bangladesh,Rangpur,Gaibandha,Sadullapur,Naldanga,5f3e0da01d72c7c4cf42d9e0d099281b
2481961866.0,893ce647103ffff,25.3942692,89.4668905,সাদুল্লাপুর,"['সাদুল্লাপুর', 'Shadullahpur']","Sadullapur, Shadullahpur, Sadullapur Subdistrict, Gaibandha District, Rangpur Division, Bangladesh","সাদুল্লাপুর, সাদুল্লাপুর উপজেলা, গাইবান্ধা জেলা, রংপুর বিভাগ, বাংলাদেশ",সাদুল্লাপুর উপজেলা,বাংলাদেশ,রংপুর বিভাগ,locality,,,,Bangladesh,Rangpur,Gaibandha,Sadullapur,Banagram,f2bdd80ceb453f6cb2eff35ed18c219c
7425631813.0,893ce645aa3ffff,25.3199172,89.5392612,আসাদ ছাত্রাবাস,,"Assad hostel, ","আসাদ ছাত্রাবাস, ",,বাংলাদেশ,রংপুর বিভাগ,housenumber,sameSource,['hostel'],[],Bangladesh,Rangpur,Gaibandha,GaibandhaSadar,Boali,06866bff5fa9300b342ddece8418bdbd
7521827326.0,893cf5b61c7ffff,25.1894855,89.5806628,ভরতখালী,,"Bharatkhali, Saghata Upazila, Gaibandha District, Rangpur Division, Bangladesh","ভরতখালী, সাঘাটা উপজেলা, গাইবান্ধা জেলা, রংপুর বিভাগ, বাংলাদেশ",সাঘাটা উপজেলা,বাংলাদেশ,রংপুর বিভাগ,local_admin,boundaries,['railway_station'],[],Bangladesh,Rangpur,Gaibandha,Saghatta,Bhartkhali,1bc5d677538182af461adf4a1f2a6ad0
7521827327.0,893cf5b6133ffff,25.1901223,89.5938323,ফুলছড়ি,,"Flower, Gaibandha District, Rangpur Division, Bangladesh","ফুলছড়ি, গাইবান্ধা জেলা, রংপুর বিভাগ, বাংলাদেশ",,বাংলাদেশ,রংপুর বিভাগ,admin2,boundaries,['railway_station'],[],Bangladesh,Rangpur,Gaibandha,Fulchhari,Gazaria,7343d323c0a0746c02d226c4aa663df8
7521827328.0,893ce64c837ffff,25.2362937,89.542822,বাদিয়াখালী রোড,,"Badiakhali Road, Gaibandha District, Rangpur Division, Bangladesh","বাদিয়াখালী রোড, গাইবান্ধা জেলা, রংপুর বিভাগ, বাংলাদেশ",,বাংলাদেশ,রংপুর বিভাগ,admin2,boundaries,['railway_station'],[],Bangladesh,Rangpur,Gaibandha,GaibandhaSadar,Badiakhali,d92ae737a79484c4450e8fb610963c3d
7521827329.0,893ce67b68fffff,25.281975,89.5432056,ত্রিমোহনী জংশন,,"Trimohani Junction, Gaibandha District, Rangpur Division, Bangladesh","ত্রিমোহনী জংশন, গাইবান্ধা জেলা, রংপুর বিভাগ, বাংলাদেশ",,বাংলাদেশ,রংপুর বিভাগ,admin2,boundaries,['railway_station'],[],Bangladesh,Rangpur,Gaibandha,GaibandhaSadar,Boali,06866bff5fa9300b342ddece8418bdbd
7521827330.0,893ce67b563ffff,25.29923,89.5799692,কাঞ্চিপাড়া,,"Kanchipara, Gaibandha District, Rangpur Division, Bangladesh","কাঞ্চিপাড়া, গাইবান্ধা জেলা, রংপুর বিভাগ, বাংলাদেশ",,বাংলাদেশ,রংপুর বিভাগ,admin2,boundaries,['railway_station'],[],Bangladesh,Rangpur,Gaibandha,Fulchhari,Udakhali,7d30f977c2e16c52b7d4199da0915033
7521827331.0,893ce67b477ffff,25.2934347,89.5568284,আনন্দ বাজার,,"Anand Bazar, Gaibandha District, Rangpur Division, Bangladesh","আনন্দ বাজার, গাইবান্ধা জেলা, রংপুর বিভাগ, বাংলাদেশ",,বাংলাদেশ,রংপুর বিভাগ,admin2,boundaries,['railway_station'],[],Bangladesh,Rangpur,Gaibandha,GaibandhaSadar,Boali,06866bff5fa9300b342ddece8418bdbd
7726859074.0,893ce608ccfffff,25.5518841,89.594555,,,"Gaibandha District, Rangpur Division, Bangladesh","গাইবান্ধা জেলা, রংপুর বিভাগ, বাংলাদেশ",,বাংলাদেশ,রংপুর বিভাগ,admin2,boundaries,['ford'],[],Bangladesh,Rangpur,Gaibandha,Sundarganj,Haripur,04e86509ae3659f692925e638272b524
7727813677.0,893ce6081a7ffff,25.5550327,89.5848728,,,"Gaibandha District, Rangpur Division, Bangladesh","গাইবান্ধা জেলা, রংপুর বিভাগ, বাংলাদেশ",,বাংলাদেশ,রংপুর বিভাগ,admin2,boundaries,['ford'],[],Bangladesh,Rangpur,Gaibandha,Sundarganj,Belka,cde30948203eda6f97f64a4f4249f9b0
7727836906.0,893ce608cc3ffff,25.5538912,89.5912597,,,"Gaibandha District, Rangpur Division, Bangladesh","গাইবান্ধা জেলা, রংপুর বিভাগ, বাংলাদেশ",,বাংলাদেশ,রংপুর বিভাগ,admin2,boundaries,['ford'],[],Bangladesh,Rangpur,Gaibandha,Sundarganj,Haripur,04e86509ae3659f692925e638272b524
7727970297.0,893ce60852fffff,25.5578123,89.5707153,,,"Gaibandha District, Rangpur Division, Bangladesh","গাইবান্ধা জেলা, রংপুর বিভাগ, বাংলাদেশ",,বাংলাদেশ,রংপুর বিভাগ,admin2,boundaries,['ford'],[],Bangladesh,Rangpur,Gaibandha,Sundarganj,Belka,cde30948203eda6f97f64a4f4249f9b0
7727970298.0,893ce60852fffff,25.5576683,89.5719975,,,"Gaibandha District, Rangpur Division, Bangladesh","গাইবান্ধা জেলা, রংপুর বিভাগ, বাংলাদেশ",,বাংলাদেশ,রংপুর বিভাগ,admin2,boundaries,['ford'],[],Bangladesh,Rangpur,Gaibandha,Sundarganj,Belka,cde30948203eda6f97f64a4f4249f9b0
7727970301.0,893ce608567ffff,25.5535442,89.5673007,,,"Gaibandha District, Rangpur Division, Bangladesh","গাইবান্ধা জেলা, রংপুর বিভাগ, বাংলাদেশ",,বাংলাদেশ,রংপুর বিভাগ,admin2,boundaries,['ford'],[],Bangladesh,Rangpur,Gaibandha,Sundarganj,Belka,cde30948203eda6f97f64a4f4249f9b0
7727970302.0,893ce608567ffff,25.5539841,89.5671986,,,"Gaibandha District, Rangpur Division, Bangladesh","গাইবান্ধা জেলা, রংপুর বিভাগ, বাংলাদেশ",,বাংলাদেশ,রংপুর বিভাগ,admin2,boundaries,['ford'],[],Bangladesh,Rangpur,Gaibandha,Sundarganj,Belka,cde30948203eda6f97f64a4f4249f9b0
9530872745.0,893cf5b507bffff,25.0705064,89.5574468,,['আমদির পাড়া কেন্দ্রীয় জামে মসজিদ'],"Saghata Upazila, Gaibandha District, Rangpur Division, Bangladesh","সাঘাটা উপজেলা, গাইবান্ধা জেলা, রংপুর বিভাগ, বাংলাদেশ",সাঘাটা উপজেলা,বাংলাদেশ,রংপুর বিভাগ,local_admin,boundaries,['place_of_worship_muslim'],[],Bangladesh,Rangpur,Gaibandha,Saghatta,Jummerbari,e279734598d76d80abf23968e9727efc
9530872746.0,893cf5a24a7ffff,25.0516895,89.5109084,,['উত্তরপাড়া জামে মসজিদ'],"Gobindaganj, Gaibandha District, Rangpur Division, Bangladesh","গাইবান্ধা জেলা, রংপুর বিভাগ, বাংলাদেশ",Gobindaganj,বাংলাদেশ,রংপুর বিভাগ,local_admin,boundaries,['place_of_worship_muslim'],[],Bangladesh,Rangpur,Gaibandha,Gobindaganj,Shalmara,d0f67608358607819e36cb9785e1f54e
910449726.0,893ce67a113ffff,25.34275959,89.6288584,,,"Gaibandha District, Rangpur Division, Bangladesh","গাইবান্ধা জেলা, রংপুর বিভাগ, বাংলাদেশ",,বাংলাদেশ,রংপুর বিভাগ,admin2,boundaries,['island'],[],Bangladesh,Rangpur,Gaibandha,GaibandhaSadar,Kamarjani,c90fd5ca28a67832f744c241058e2a65
910675293.0,893ce678017ffff,25.28593791,89.63842991,,,"Gaibandha District, Rangpur Division, Bangladesh","গাইবান্ধা জেলা, রংপুর বিভাগ, বাংলাদেশ",,বাংলাদেশ,রংপুর বিভাগ,admin2,boundaries,['island'],[],Bangladesh,Rangpur,Gaibandha,Fulchhari,Uria,426e0351097d02d2c20bb4c591be6a0e
910763272.0,893ce6792a7ffff,25.21731789,89.60395877,,,"Gaibandha District, Rangpur Division, Bangladesh","গাইবান্ধা জেলা, রংপুর বিভাগ, বাংলাদেশ",,বাংলাদেশ,রংপুর বিভাগ,admin2,boundaries,['island'],[],Bangladesh,Rangpur,Gaibandha,Fulchhari,Gazaria,7343d323c0a0746c02d226c4aa663df8
910769447.0,893ce678393ffff,25.27666432,89.64990166,,,"Gaibandha District, Rangpur Division, Bangladesh","গাইবান্ধা জেলা, রংপুর বিভাগ, বাংলাদেশ",,বাংলাদেশ,রংপুর বিভাগ,admin2,boundaries,['island'],[],Bangladesh,Rangpur,Gaibandha,Fulchhari,Fazlupur,167d9607ae22ffb97704eb2320a1b127
910769448.0,893ce6791b3ffff,25.24789286,89.62918022,,,"Gaibandha District, Rangpur Division, Bangladesh","গাইবান্ধা জেলা, রংপুর বিভাগ, বাংলাদেশ",,বাংলাদেশ,রংপুর বিভাগ,admin2,boundaries,['island'],[],Bangladesh,Rangpur,Gaibandha,Fulchhari,Uria,426e0351097d02d2c20bb4c591be6a0e
910774271.0,893ce6798bbffff,25.23563182,89.66988816,,,"Gaibandha District, Rangpur Division, Bangladesh","গাইবান্ধা জেলা, রংপুর বিভাগ, বাংলাদেশ",,বাংলাদেশ,রংপুর বিভাগ,admin2,boundaries,['island'],[],Bangladesh,Rangpur,Gaibandha,Fulchhari,Erendabari,31d9e771323a447d6fba04f1eb84cae2
910774272.0,893ce679dafffff,25.25614805,89.68195052,,,"Gaibandha District, Rangpur Division, Bangladesh","গাইবান্ধা জেলা, রংপুর বিভাগ, বাংলাদেশ",,বাংলাদেশ,রংপুর বিভাগ,admin2,boundaries,['island'],[],Bangladesh,Rangpur,Gaibandha,Fulchhari,Erendabari,31d9e771323a447d6fba04f1eb84cae2
910800594.0,893ce678673ffff,25.27169474,89.61431525,,,"Gaibandha District, Rangpur Division, Bangladesh","গাইবান্ধা জেলা, রংপুর বিভাগ, বাংলাদেশ",,বাংলাদেশ,রংপুর বিভাগ,admin2,boundaries,['island'],[],Bangladesh,Rangpur,Gaibandha,Fulchhari,Uria,426e0351097d02d2c20bb4c591be6a0e
912312284.0,893ce6715d3ffff,25.40704387,89.63796484,,,"Gaibandha District, Rangpur Division, Bangladesh","গাইবান্ধা জেলা, রংপুর বিভাগ, বাংলাদেশ",,বাংলাদেশ,রংপুর বিভাগ,admin2,boundaries,['island'],[],Bangladesh,Rangpur,Gaibandha,Sundarganj,Kapasia,f5f44c2af808de69b36ecdaf3a7b9183
912355447.0,893ce67006bffff,25.42275319,89.68349169,,,"Gaibandha District, Rangpur Division, Bangladesh","গাইবান্ধা জেলা, রংপুর বিভাগ, বাংলাদেশ",,বাংলাদেশ,রংপুর বিভাগ,admin2,boundaries,['island'],[],Bangladesh,Rangpur,Gaibandha,Sundarganj,Kapasia,f5f44c2af808de69b36ecdaf3a7b9183
913380042.0,893cf5b5d7bffff,25.09073434,89.62976266,,,"Saghata Upazila, Gaibandha District, Rangpur Division, Bangladesh","সাঘাটা উপজেলা, গাইবান্ধা জেলা, রংপুর বিভাগ, বাংলাদেশ",সাঘাটা উপজেলা,বাংলাদেশ,রংপুর বিভাগ,local_admin,boundaries,['island'],[],Bangladesh,Rangpur,Gaibandha,Saghatta,Haldia,5e687dffa8717b2d40387d9a76a37e6e
914900143.0,893cf5a7413ffff,25.04387597,89.63548182,,,"Saghata Upazila, Gaibandha District, Rangpur Division, Bangladesh","সাঘাটা উপজেলা, গাইবান্ধা জেলা, রংপুর বিভাগ, বাংলাদেশ",সাঘাটা উপজেলা,বাংলাদেশ,রংপুর বিভাগ,local_admin,boundaries,['island'],[],Bangladesh,Rangpur,Gaibandha,Saghatta,Haldia,5e687dffa8717b2d40387d9a76a37e6e
9841157353.0,893ce6458cfffff,25.3344155,89.5343117,Khankah Sarif Jam-E-Masjid,,"Khankah Sarif Jam-E-Masjid, Gaibandha District, Rangpur Division, Bangladesh","খঙ্কা সরিফ জাম-ই-মাসজিড, গাইবান্ধা জেলা, রংপুর বিভাগ, বাংলাদেশ",,বাংলাদেশ,রংপুর বিভাগ,admin2,boundaries,['place_of_worship_muslim'],[],Bangladesh,Rangpur,Gaibandha,GaibandhaSadar,Kholahati,76b336f59c73184006733c491336570e
9841162127.0,893ce64581bffff,25.3337807,89.5363622,"Ahammad Uddin Shah Shishu Niketon School & College, Gaibandha","['আহম্মদ উদ্দিন শাহ্ শিশু নিকেতন স্কুল ও কলেজ, গাইবান্ধা']","Ahammad Uddin Shah Shishu Niketon School & College Gaibandha, ","আহমদ উদ্দিন শাহ শিশু নিকেটন স্কুল ও কলেজ গাইবন্ধ, ",,বাংলাদেশ,রংপুর বিভাগ,housenumber,sameSource,['educational_institution'],[],Bangladesh,Rangpur,Gaibandha,GaibandhaSadar,Kholahati,76b336f59c73184006733c491336570e
535455755.0,893cf5b310bffff,25.08763228,89.38027844,সোনালী ব্যাংক লিমিটেড,['Sonali Bank Limited'],"Sonali Bank Limited, Gobindaganj, Gaibandha District, Rangpur Division, Bangladesh","সোনালী ব্যাংক লিমিটেড, গাইবান্ধা জেলা, রংপুর বিভাগ, বাংলাদেশ",Gobindaganj,বাংলাদেশ,রংপুর বিভাগ,local_admin,boundaries,['bank'],[],Bangladesh,Rangpur,Gaibandha,Gobindaganj,Kamardaha,b626ac93b99cbfc1927692e0ca666625
535455826.0,893cf5b310bffff,25.08803642,89.38040081,গ্রামীণ ব্যাংক,['Grameen Bank'],"Grameen Bank, Gobindaganj, Gaibandha District, Rangpur Division, Bangladesh","গ্রামীণ ব্যাংক, গাইবান্ধা জেলা, রংপুর বিভাগ, বাংলাদেশ",Gobindaganj,বাংলাদেশ,রংপুর বিভাগ,local_admin,boundaries,['bank'],[],Bangladesh,Rangpur,Gaibandha,Gobindaganj,Kamardaha,b626ac93b99cbfc1927692e0ca666625
535458834.0,893cf5b3103ffff,25.09052895,89.38115726,Fashitola Jame Mosjid জামে মসজিদ,,"Fashitola Jame Mosjid, Gobindaganj, Gaibandha District, Rangpur Division, Bangladesh","জামে মসজিদ, গাইবান্ধা জেলা, রংপুর বিভাগ, বাংলাদেশ",Gobindaganj,বাংলাদেশ,রংপুর বিভাগ,local_admin,boundaries,['place_of_worship_muslim'],[],Bangladesh,Rangpur,Gaibandha,Gobindaganj,Kamardaha,b626ac93b99cbfc1927692e0ca666625
535458938.0,893cf5b3103ffff,25.09091738,89.3809314,High School,,"High School, Gobindaganj, Gaibandha District, Rangpur Division, Bangladesh","উচ্চ বিদ্যালয, গাইবান্ধা জেলা, রংপুর বিভাগ, বাংলাদেশ",Gobindaganj,বাংলাদেশ,রংপুর বিভাগ,local_admin,boundaries,['college'],[],Bangladesh,Rangpur,Gaibandha,Gobindaganj,Kamardaha,b626ac93b99cbfc1927692e0ca666625
535465077.0,893cf5b2057ffff,25.12973761,89.38806074,ai Vai Abashik Hotel,,"ai Vai Abashik Hotel, Gobindaganj, Gaibandha District, Rangpur Division, Bangladesh","এআই ভাই আবাশিক হোটেল, গাইবান্ধা জেলা, রংপুর বিভাগ, বাংলাদেশ",Gobindaganj,বাংলাদেশ,রংপুর বিভাগ,local_admin,boundaries,['hotel'],[],Bangladesh,Rangpur,Gaibandha,Gobindaganj,Paurashava,8dff4a512f697d67945d6d092cf7b58e
535465088.0,893cf5b2057ffff,25.13007924,89.38810978,গ্রামীণ ব্যাংক,['Garmeen Bank'],"Grameen Bank, Gobindaganj, Gaibandha District, Rangpur Division, Bangladesh","গ্রামীণ ব্যাংক, গাইবান্ধা জেলা, রংপুর বিভাগ, বাংলাদেশ",Gobindaganj,বাংলাদেশ,রংপুর বিভাগ,local_admin,boundaries,['bank'],[],Bangladesh,Rangpur,Gaibandha,Gobindaganj,Paurashava,8dff4a512f697d67945d6d092cf7b58e
535465234.0,893cf5b2057ffff,25.1312534,89.38792879,সোনালী ব্যাংক লিমিটেড,['Sonali Bank Ltd'],"Sonali Bank Limited, Gobindaganj, Gaibandha District, Rangpur Division, Bangladesh","সোনালী ব্যাংক লিমিটেড, গাইবান্ধা জেলা, রংপুর বিভাগ, বাংলাদেশ",Gobindaganj,বাংলাদেশ,রংপুর বিভাগ,local_admin,boundaries,['bank'],[],Bangladesh,Rangpur,Gaibandha,Gobindaganj,Paurashava,8dff4a512f697d67945d6d092cf7b58e
535495374.0,893cf5b201bffff,25.13198408,89.38844119,Mercantile Bank Limited,,"Mercantile Bank Limited, Gobindaganj, Gaibandha District, Rangpur Division, Bangladesh","মার্কেন্টাইল ব্যাংক লিমিটেড, গাইবান্ধা জেলা, রংপুর বিভাগ, বাংলাদেশ",Gobindaganj,বাংলাদেশ,রংপুর বিভাগ,local_admin,boundaries,['bank'],[],Bangladesh,Rangpur,Gaibandha,Gobindaganj,Paurashava,8dff4a512f697d67945d6d092cf7b58e
535496936.0,893cf5b201bffff,25.13326277,89.38853496,জনতা ব্যাংক,['Janata Bank'],"Janata Bank, Gobindaganj, Gaibandha District, Rangpur Division, Bangladesh","জনতা ব্যাংক, গাইবান্ধা জেলা, রংপুর বিভাগ, বাংলাদেশ",Gobindaganj,বাংলাদেশ,রংপুর বিভাগ,local_admin,boundaries,['bank'],[],Bangladesh,Rangpur,Gaibandha,Gobindaganj,Paurashava,8dff4a512f697d67945d6d092cf7b58e
535497075.0,893cf5b201bffff,25.13328272,89.38809216,ডাচ-বাংলা ব্যাংক লিমিটেড,['Dutch-Bangla Bank Limited'],"Dutch-Bangla Bank Limited, Gobindaganj, Gaibandha District, Rangpur Division, Bangladesh","ডাচ-বাংলা ব্যাংক লিমিটেড, গাইবান্ধা জেলা, রংপুর বিভাগ, বাংলাদেশ",Gobindaganj,বাংলাদেশ,রংপুর বিভাগ,local_admin,boundaries,['bank'],[],Bangladesh,Rangpur,Gaibandha,Gobindaganj,Paurashava,8dff4a512f697d67945d6d092cf7b58e
535511359.0,893cf5b20c7ffff,25.13391299,89.38768687,Gobindogonj Puja Mondir,,"Gobindogonj Puja Mondir, Gobindaganj, Gaibandha District, Rangpur Division, Bangladesh","গোবিন্দোগঞ্জ পূজা মন্ডির, গাইবান্ধা জেলা, রংপুর বিভাগ, বাংলাদেশ",Gobindaganj,বাংলাদেশ,রংপুর বিভাগ,local_admin,boundaries,['place_of_worship'],[],Bangladesh,Rangpur,Gaibandha,Gobindaganj,Paurashava,8dff4a512f697d67945d6d092cf7b58e
535511659.0,893cf5b20c7ffff,25.13432177,89.38835339,"Pubali Bank Limited,Gobindagonj branch.",,"Pubali Bank Limited Gobindagonj branch., Gobindaganj, Gaibandha District, Rangpur Division, Bangladesh","পাবালি ব্যাংক লিমিটেড গোবিন্দাগনজ শাখা।, গাইবান্ধা জেলা, রংপুর বিভাগ, বাংলাদেশ",Gobindaganj,বাংলাদেশ,রংপুর বিভাগ,local_admin,boundaries,['bank'],[],Bangladesh,Rangpur,Gaibandha,Gobindaganj,Paurashava,8dff4a512f697d67945d6d092cf7b58e
535511726.0,893cf5b20c7ffff,25.13430096,89.38801265,High School Market,,"High School Market, Gobindaganj, Gaibandha District, Rangpur Division, Bangladesh","উচ্চ বিদ্যালয়ের বাজার, গাইবান্ধা জেলা, রংপুর বিভাগ, বাংলাদেশ",Gobindaganj,বাংলাদেশ,রংপুর বিভাগ,local_admin,boundaries,['marketplace'],[],Bangladesh,Rangpur,Gaibandha,Gobindaganj,Paurashava,8dff4a512f697d67945d6d092cf7b58e
535511755.0,893cf5b20c7ffff,25.13451287,89.38758652,Gobindaganj ML High School Gobindaganj ML Model High School,,"Gobindaganj ML High School Gobindaganj ML Model High School, Gobindaganj, Gaibandha District, Rangpur Division, Bangladesh","গোবিন্দাগঞ্জ এমএল হাই স্কুল গোবিন্দাগঞ্জ এমএল মডেল হাই স্কুল, গাইবান্ধা জেলা, রংপুর বিভাগ, বাংলাদেশ",Gobindaganj,বাংলাদেশ,রংপুর বিভাগ,local_admin,boundaries,['college'],[],Bangladesh,Rangpur,Gaibandha,Gobindaganj,Paurashava,8dff4a512f697d67945d6d092cf7b58e
535512727.0,893cf5b20c7ffff,25.13563775,89.38844805,Jama Masjid Bait-ul-Mamun বাইতুল মামুর জামে মসজিদ,,"Jama Masjid Bait-ul-Mamun, Gobindaganj, Gaibandha District, Rangpur Division, Bangladesh","বাইতুল মামুর জামে মসজিদ, গাইবান্ধা জেলা, রংপুর বিভাগ, বাংলাদেশ",Gobindaganj,বাংলাদেশ,রংপুর বিভাগ,local_admin,boundaries,['place_of_worship_muslim'],[],Bangladesh,Rangpur,Gaibandha,Gobindaganj,Paurashava,8dff4a512f697d67945d6d092cf7b58e
535517142.0,893cf5b20c7ffff,25.13643616,89.38750273,Mayamoni Restaurant মায়ামনি হোটেল অ্যান্ড রেস্টুরেন্ট,,"Mayamoni Restaurant, Gobindaganj, Gaibandha District, Rangpur Division, Bangladesh","মায়ামনি হোটেল অ্যান্ড রেস্টুরেন্ট, গাইবান্ধা জেলা, রংপুর বিভাগ, বাংলাদেশ",Gobindaganj,বাংলাদেশ,রংপুর বিভাগ,local_admin,boundaries,['restaurant'],[],Bangladesh,Rangpur,Gaibandha,Gobindaganj,Paurashava,8dff4a512f697d67945d6d092cf7b58e
535517212.0,893cf5b20c7ffff,25.13653042,89.38712977,বনফুল হোটেল এন্ড রেস্টুরেন্ট,,"Banful Hotel & Restaurant, Gobindaganj, Gaibandha District, Rangpur Division, Bangladesh","বনফুল হোটেল এন্ড রেস্টুরেন্ট, গাইবান্ধা জেলা, রংপুর বিভাগ, বাংলাদেশ",Gobindaganj,বাংলাদেশ,রংপুর বিভাগ,local_admin,boundaries,['restaurant'],[],Bangladesh,Rangpur,Gaibandha,Gobindaganj,Paurashava,8dff4a512f697d67945d6d092cf7b58e
535517944.0,893cf5b2083ffff,25.14026334,89.38734177,Filling station,,"Filling station, Gobindaganj, Gaibandha District, Rangpur Division, Bangladesh","পেট্রল - পাস্প, গাইবান্ধা জেলা, রংপুর বিভাগ, বাংলাদেশ",Gobindaganj,বাংলাদেশ,রংপুর বিভাগ,local_admin,boundaries,['fuel'],[],Bangladesh,Rangpur,Gaibandha,Gobindaganj,Paurashava,8dff4a512f697d67945d6d092cf7b58e
535518132.0,893cf5b2083ffff,25.14029813,89.38824437,Hirok Cinema Hall হীরক সিনেমা হল,,"Hirok Cinema Hall, Gobindaganj, Gaibandha District, Rangpur Division, Bangladesh","হীরক সিনেমা হল, গাইবান্ধা জেলা, রংপুর বিভাগ, বাংলাদেশ",Gobindaganj,বাংলাদেশ,রংপুর বিভাগ,local_admin,boundaries,['cinema'],[],Bangladesh,Rangpur,Gaibandha,Gobindaganj,Paurashava,8dff4a512f697d67945d6d092cf7b58e
535518187.0,893cf5b2093ffff,25.14251337,89.38630393,Gobindaganj Upazila Health Complex গোবিন্দগঞ্জ উপজেলা স্বাস্থ্য কমপ্লেক্সের,,"Gobindaganj Upazila Health Complex, Gobindaganj, Gaibandha District, Rangpur Division, Bangladesh","গোবিন্দগঞ্জ উপজেলা স্বাস্থ্য কমপ্লেক্সের, গাইবান্ধা জেলা, রংপুর বিভাগ, বাংলাদেশ",Gobindaganj,বাংলাদেশ,রংপুর বিভাগ,local_admin,boundaries,['hospital'],[],Bangladesh,Rangpur,Gaibandha,Gobindaganj,Paurashava,8dff4a512f697d67945d6d092cf7b58e
535518253.0,893cf5b2093ffff,25.14327559,89.38726321,Gobindogonj Girls Degree College,,"Gobindogonj Girls Degree College, Gobindaganj, Gaibandha District, Rangpur Division, Bangladesh","গোবিন্ডোগনজ গার্লস ডিগ্রি কলেজ, গাইবান্ধা জেলা, রংপুর বিভাগ, বাংলাদেশ",Gobindaganj,বাংলাদেশ,রংপুর বিভাগ,local_admin,boundaries,['college'],[],Bangladesh,Rangpur,Gaibandha,Gobindaganj,Paurashava,8dff4a512f697d67945d6d092cf7b58e
535518363.0,893cf5b242fffff,25.14620105,89.38901315,Eye hospital,,"Eye hospital, Gobindaganj, Gaibandha District, Rangpur Division, Bangladesh","চক্ষু হাসপাতাল, গাইবান্ধা জেলা, রংপুর বিভাগ, বাংলাদেশ",Gobindaganj,বাংলাদেশ,রংপুর বিভাগ,local_admin,boundaries,['hospital'],[],Bangladesh,Rangpur,Gaibandha,Gobindaganj,Paurashava,8dff4a512f697d67945d6d092cf7b58e
535520166.0,893ce64f24bffff,25.20264291,89.38594457,জামে মসজিদ,,"Jame Mosque, Gobindaganj, Gaibandha District, Rangpur Division, Bangladesh","জামে মসজিদ, গাইবান্ধা জেলা, রংপুর বিভাগ, বাংলাদেশ",Gobindaganj,বাংলাদেশ,রংপুর বিভাগ,local_admin,boundaries,['place_of_worship_muslim'],[],Bangladesh,Rangpur,Gaibandha,Gobindaganj,TalukKanupur,24e131c6c2aa4bbac24908c10500c2fb
535521073.0,893ce64a967ffff,25.23663127,89.36542765,Athena Filling Station গ্রীক পুরাণের দেবী ফিলিং স্টেশনে,,"Athena Filling Station, Gobindaganj, Gaibandha District, Rangpur Division, Bangladesh","গ্রীক পুরাণের দেবী ফিলিং স্টেশনে, গাইবান্ধা জেলা, রংপুর বিভাগ, বাংলাদেশ",Gobindaganj,বাংলাদেশ,রংপুর বিভাগ,local_admin,boundaries,['fuel'],[],Bangladesh,Rangpur,Gaibandha,Gobindaganj,Darbasta,400489f9f66d2956230e96120e215b57
535522851.0,893ce641a9bffff,25.27357394,89.35570837,Petrol Staion,,"Petrol Staion, Palasbari, Gaibandha District, Rangpur Division, Bangladesh","পেট্রোল স্টেশন, গাইবান্ধা জেলা, রংপুর বিভাগ, বাংলাদেশ",Palasbari,বাংলাদেশ,রংপুর বিভাগ,local_admin,boundaries,['fuel'],[],Bangladesh,Rangpur,Gaibandha,Palashbari,Palashbari,a060eeec1f89f041e248369b78a597bf
535523697.0,893ce641e23ffff,25.2807363,89.35401885,Palashbari Police Station,,"Palashbari Police Station, Palasbari, Gaibandha District, Rangpur Division, Bangladesh","পালাশবাড়ী থানা, গাইবান্ধা জেলা, রংপুর বিভাগ, বাংলাদেশ",Palasbari,বাংলাদেশ,রংপুর বিভাগ,local_admin,boundaries,['police'],[],Bangladesh,Rangpur,Gaibandha,Palashbari,Palashbari,a060eeec1f89f041e248369b78a597bf
535523789.0,893ce641e23ffff,25.28086602,89.35311508,Shahadat Madical Hall -Pharmecy,,"Shahadat Madical Hall -Pharmecy, Palasbari, Gaibandha District, Rangpur Division, Bangladesh","শাহাদাত মেডিকেল হল -ফার্মেসি, গাইবান্ধা জেলা, রংপুর বিভাগ, বাংলাদেশ",Palasbari,বাংলাদেশ,রংপুর বিভাগ,local_admin,boundaries,['pharmacy'],[],Bangladesh,Rangpur,Gaibandha,Palashbari,Palashbari,a060eeec1f89f041e248369b78a597bf
535524126.0,893ce641e23ffff,25.28095933,89.35333874,Palashbari Central Mosque,,"Palashbari Central Mosque, Palasbari, Gaibandha District, Rangpur Division, Bangladesh","পালাশবাড়ী কেন্দ্রীয় মসজিদ, গাইবান্ধা জেলা, রংপুর বিভাগ, বাংলাদেশ",Palasbari,বাংলাদেশ,রংপুর বিভাগ,local_admin,boundaries,['place_of_worship_muslim'],[],Bangladesh,Rangpur,Gaibandha,Palashbari,Palashbari,a060eeec1f89f041e248369b78a597bf
535524453.0,893ce641e23ffff,25.28126156,89.35360862,Palashbari Piyari Pilot Girls High School,,"Palashbari Piyari Pilot Girls High School, Palasbari, Gaibandha District, Rangpur Division, Bangladesh","পালাশবারি পিয়ারি পাইলট গার্লস হাই স্কুল, গাইবান্ধা জেলা, রংপুর বিভাগ, বাংলাদেশ",Palasbari,বাংলাদেশ,রংপুর বিভাগ,local_admin,boundaries,['college'],[],Bangladesh,Rangpur,Gaibandha,Palashbari,Palashbari,a060eeec1f89f041e248369b78a597bf
535524939.0,893ce641e23ffff,25.28167936,89.35438953,Shaheed Minar Chattor,,"Shaheed Minar Chattor, Palasbari, Gaibandha District, Rangpur Division, Bangladesh","শহীদ মিনার চ্যাটর, গাইবান্ধা জেলা, রংপুর বিভাগ, বাংলাদেশ",Palasbari,বাংলাদেশ,রংপুর বিভাগ,local_admin,boundaries,['monument'],[],Bangladesh,Rangpur,Gaibandha,Palashbari,Palashbari,a060eeec1f89f041e248369b78a597bf
535525431.0,893ce641e23ffff,25.28116968,89.35300282,Dak Banglo Market,,"Dak Banglo Market, Palasbari, Gaibandha District, Rangpur Division, Bangladesh","ডাক বাংলো মার্কেট, গাইবান্ধা জেলা, রংপুর বিভাগ, বাংলাদেশ",Palasbari,বাংলাদেশ,রংপুর বিভাগ,local_admin,boundaries,['marketplace'],[],Bangladesh,Rangpur,Gaibandha,Palashbari,Palashbari,a060eeec1f89f041e248369b78a597bf
535525453.0,893ce641e33ffff,25.28163817,89.35187793,Palashbari S.M. Pilot Model High School,,"Palashbari S.M. Pilot Model High School, Palasbari, Gaibandha District, Rangpur Division, Bangladesh","পালাশবারি এস.এম.পাইলট মডেল উচ্চ বিদ্যালয়, গাইবান্ধা জেলা, রংপুর বিভাগ, বাংলাদেশ",Palasbari,বাংলাদেশ,রংপুর বিভাগ,local_admin,boundaries,['college'],[],Bangladesh,Rangpur,Gaibandha,Palashbari,Palashbari,a060eeec1f89f041e248369b78a597bf
535525804.0,893ce641e23ffff,25.28153026,89.35331004,Shuvo Confectionary,,"Shuvo Confectionary, Palasbari, Gaibandha District, Rangpur Division, Bangladesh","শুভো মিষ্টান্ন, গাইবান্ধা জেলা, রংপুর বিভাগ, বাংলাদেশ",Palasbari,বাংলাদেশ,রংপুর বিভাগ,local_admin,boundaries,['restaurant'],[],Bangladesh,Rangpur,Gaibandha,Palashbari,Palashbari,a060eeec1f89f041e248369b78a597bf
535526884.0,893ce641e33ffff,25.28201385,89.3529749,সোনালী ব্যাংক লিমিটেড,['Sonali Bank Limited'],"Sonali Bank Limited, Palasbari, Gaibandha District, Rangpur Division, Bangladesh","সোনালী ব্যাংক লিমিটেড, গাইবান্ধা জেলা, রংপুর বিভাগ, বাংলাদেশ",Palasbari,বাংলাদেশ,রংপুর বিভাগ,local_admin,boundaries,['bank'],[],Bangladesh,Rangpur,Gaibandha,Palashbari,Palashbari,a060eeec1f89f041e248369b78a597bf
535527110.0,893ce641e33ffff,25.2827545,89.3531379,S.M New Market,,"S.M New Market, Palasbari, Gaibandha District, Rangpur Division, Bangladesh","এসএম নতুন বাজার, গাইবান্ধা জেলা, রংপুর বিভাগ, বাংলাদেশ",Palasbari,বাংলাদেশ,রংপুর বিভাগ,local_admin,boundaries,['marketplace'],[],Bangladesh,Rangpur,Gaibandha,Palashbari,Palashbari,a060eeec1f89f041e248369b78a597bf
535527131.0,893ce641e33ffff,25.28258619,89.35273143,আল-আরাফাহ্ ইসলামী ব্যাংক লিমিটেড,['Al-Arafah Islami Bank Limited'],"Al-Arafah Islami Bank Limited, Palasbari, Gaibandha District, Rangpur Division, Bangladesh","আল-আরাফাহ্ ইসলামী ব্যাংক লিমিটেড, গাইবান্ধা জেলা, রংপুর বিভাগ, বাংলাদেশ",Palasbari,বাংলাদেশ,রংপুর বিভাগ,local_admin,boundaries,['bank'],[],Bangladesh,Rangpur,Gaibandha,Palashbari,Palashbari,a060eeec1f89f041e248369b78a597bf
535527812.0,893ce641e33ffff,25.28361169,89.35208648,জনতা ব্যাংক লিমিটেড,['Janata Bank Limited'],"Janata Bank Limited, Palasbari, Gaibandha District, Rangpur Division, Bangladesh","জনতা ব্যাংক লিমিটেড, গাইবান্ধা জেলা, রংপুর বিভাগ, বাংলাদেশ",Palasbari,বাংলাদেশ,রংপুর বিভাগ,local_admin,boundaries,['bank'],[],Bangladesh,Rangpur,Gaibandha,Palashbari,Palashbari,a060eeec1f89f041e248369b78a597bf
535527925.0,893ce641e33ffff,25.28425181,89.35219028,Sathi Cinema,,"Sathi Cinema, Palasbari, Gaibandha District, Rangpur Division, Bangladesh","সাথি সিনেমা, গাইবান্ধা জেলা, রংপুর বিভাগ, বাংলাদেশ",Palasbari,বাংলাদেশ,রংপুর বিভাগ,local_admin,boundaries,['cinema'],[],Bangladesh,Rangpur,Gaibandha,Palashbari,Palashbari,a060eeec1f89f041e248369b78a597bf
535528639.0,893ce641ea3ffff,25.28691561,89.35032893,Miya Bari Mosque মিয়া বারী মসজিদ,,"Miya Bari Mosque, Palasbari, Gaibandha District, Rangpur Division, Bangladesh","মিয়া বারী মসজিদ, গাইবান্ধা জেলা, রংপুর বিভাগ, বাংলাদেশ",Palasbari,বাংলাদেশ,রংপুর বিভাগ,local_admin,boundaries,['place_of_worship_muslim'],[],Bangladesh,Rangpur,Gaibandha,Palashbari,Palashbari,a060eeec1f89f041e248369b78a597bf
535528954.0,893ce641c4fffff,25.29258239,89.34881604,Palashbari Filling Station,,"Palashbari Filling Station, Palasbari, Gaibandha District, Rangpur Division, Bangladesh","পালাশবাড়ী ফিলিং স্টেশন, গাইবান্ধা জেলা, রংপুর বিভাগ, বাংলাদেশ",Palasbari,বাংলাদেশ,রংপুর বিভাগ,local_admin,boundaries,['fuel'],[],Bangladesh,Rangpur,Gaibandha,Palashbari,Palashbari,a060eeec1f89f041e248369b78a597bf
539402626.0,893cf5b20d7ffff,25.13714471,89.38597351,Gobindaganj Police Station,,"Gobindaganj Police Station, Gobindaganj, Gaibandha District, Rangpur Division, Bangladesh","গোবিন্দাগঞ্জ থানা, গাইবান্ধা জেলা, রংপুর বিভাগ, বাংলাদেশ",Gobindaganj,বাংলাদেশ,রংপুর বিভাগ,local_admin,boundaries,['police'],[],Bangladesh,Rangpur,Gaibandha,Gobindaganj,Paurashava,8dff4a512f697d67945d6d092cf7b58e
539402664.0,893cf5b20d7ffff,25.13708787,89.38564296,Gobindoganj Thana Mosjid,,"Gobindoganj Thana Mosjid, Gobindaganj, Gaibandha District, Rangpur Division, Bangladesh","গোবিন্দাঞ্জা থানা মোসজিড, গাইবান্ধা জেলা, রংপুর বিভাগ, বাংলাদেশ",Gobindaganj,বাংলাদেশ,রংপুর বিভাগ,local_admin,boundaries,['place_of_worship_muslim'],[],Bangladesh,Rangpur,Gaibandha,Gobindaganj,Paurashava,8dff4a512f697d67945d6d092cf7b58e
539402902.0,893cf5b20d7ffff,25.13634411,89.38382345,Gobindaganj BM Girls High School গোবিন্দগঞ্জ বিএম বালিকা উচ্চ বিদ্যালয়,,"Gobindaganj BM Girls High School, Gobindaganj, Gaibandha District, Rangpur Division, Bangladesh","গোবিন্দগঞ্জ বিএম বালিকা উচ্চ বিদ্যালয়, গাইবান্ধা জেলা, রংপুর বিভাগ, বাংলাদেশ",Gobindaganj,বাংলাদেশ,রংপুর বিভাগ,local_admin,boundaries,['college'],[],Bangladesh,Rangpur,Gaibandha,Gobindaganj,Paurashava,8dff4a512f697d67945d6d092cf7b58e
539402993.0,893cf5b20d7ffff,25.13698068,89.38369309,Baitul Aman Jame Mosjid বায়তুল আমান জামে মসজিদ,,"Baitul Aman Jame Mosjid, Gobindaganj, Gaibandha District, Rangpur Division, Bangladesh","বায়তুল আমান জামে মসজিদ, গাইবান্ধা জেলা, রংপুর বিভাগ, বাংলাদেশ",Gobindaganj,বাংলাদেশ,রংপুর বিভাগ,local_admin,boundaries,['place_of_worship_muslim'],[],Bangladesh,Rangpur,Gaibandha,Gobindaganj,Paurashava,8dff4a512f697d67945d6d092cf7b58e
539406285.0,893cf5b246fffff,25.13929213,89.38020604,Chalk-Gobindo Masjid & Eidgah খড়ি-গোবিন্দ মসজিদ ও ঈদগাহ,,"Chalk-Gobindo Masjid & Eidgah, Gobindaganj, Gaibandha District, Rangpur Division, Bangladesh","খড়ি-গোবিন্দ মসজিদ ও ঈদগাহ, গাইবান্ধা জেলা, রংপুর বিভাগ, বাংলাদেশ",Gobindaganj,বাংলাদেশ,রংপুর বিভাগ,local_admin,boundaries,['place_of_worship_muslim'],[],Bangladesh,Rangpur,Gaibandha,Gobindaganj,Paurashava,8dff4a512f697d67945d6d092cf7b58e
539406511.0,893cf5b2463ffff,25.14000371,89.3784469,Gobindogonj Filling Station,,"Gobindogonj Filling Station, Gobindaganj, Gaibandha District, Rangpur Division, Bangladesh","গোবিন্ডোগঞ্জ ফিলিং স্টেশন, গাইবান্ধা জেলা, রংপুর বিভাগ, বাংলাদেশ",Gobindaganj,বাংলাদেশ,রংপুর বিভাগ,local_admin,boundaries,['fuel'],[],Bangladesh,Rangpur,Gaibandha,Gobindaganj,Paurashava,8dff4a512f697d67945d6d092cf7b58e
539407193.0,893cf5b247bffff,25.14122984,89.37445572,Mousumi Filing station মৌসুমী ফাইলিং স্টেশান,,"Mousumi Filing station, Gobindaganj, Gaibandha District, Rangpur Division, Bangladesh","মৌসুমী ফাইলিং স্টেশান, গাইবান্ধা জেলা, রংপুর বিভাগ, বাংলাদেশ",Gobindaganj,বাংলাদেশ,রংপুর বিভাগ,local_admin,boundaries,['fuel'],[],Bangladesh,Rangpur,Gaibandha,Gobindaganj,Paurashava,8dff4a512f697d67945d6d092cf7b58e
539407591.0,893cf5b24cbffff,25.14440523,89.36435751,Kayagonj Khalshi Eidgah Math,,"Kayagonj Khalshi Eidgah Math, Gobindaganj, Gaibandha District, Rangpur Division, Bangladesh","কায়াগনজ খলশি ইডগাহ গণিত, গাইবান্ধা জেলা, রংপুর বিভাগ, বাংলাদেশ",Gobindaganj,বাংলাদেশ,রংপুর বিভাগ,local_admin,boundaries,['place_of_worship'],[],Bangladesh,Rangpur,Gaibandha,Gobindaganj,Gumaniganj,991d21f8496381e9e84677936ff1a9f2
539411161.0,893ce6481cfffff,25.19215188,89.31293901,রাজশাহী কৃষি উন্নয়ন ব্যাংক,['Rajshahi Krishi Unnayan Bank'],"Rajshahi Agricultural Development Bank, Gobindaganj, Gaibandha District, Rangpur Division, Bangladesh","রাজশাহী কৃষি উন্নয়ন ব্যাংক, গাইবান্ধা জেলা, রংপুর বিভাগ, বাংলাদেশ",Gobindaganj,বাংলাদেশ,রংপুর বিভাগ,local_admin,boundaries,['bank'],[],Bangladesh,Rangpur,Gaibandha,Gobindaganj,Katabari,23f41b19f9c9e089c3401110009eb63f
539411288.0,893ce6481c3ffff,25.19413012,89.31127145,Kata Jame Mosjid,,"Kata Jame Mosjid, Gobindaganj, Gaibandha District, Rangpur Division, Bangladesh","কাটা জামে মোসজিড, গাইবান্ধা জেলা, রংপুর বিভাগ, বাংলাদেশ",Gobindaganj,বাংলাদেশ,রংপুর বিভাগ,local_admin,boundaries,['place_of_worship_muslim'],[],Bangladesh,Rangpur,Gaibandha,Gobindaganj,Katabari,23f41b19f9c9e089c3401110009eb63f
539770471.0,893ce6481c3ffff,25.19508715,89.31120615,গ্রামীন ব্যাংক গ্রামীণ ব্যাংকের গ্রামীন ব্যাংক,['Grameen Bank'],"Grameen Bank Grameen Bank Grameen Bank, Gobindaganj, Gaibandha District, Rangpur Division, Bangladesh","গ্রামীন ব্যাংক গ্রামীণ ব্যাংকের গ্রামীন ব্যাংক, গাইবান্ধা জেলা, রংপুর বিভাগ, বাংলাদেশ",Gobindaganj,বাংলাদেশ,রংপুর বিভাগ,local_admin,boundaries,['bank'],[],Bangladesh,Rangpur,Gaibandha,Gobindaganj,Katabari,23f41b19f9c9e089c3401110009eb63f
406608399.0,893ce64586bffff,25.32459754,89.54419478,Gaibandha Stadium,,"Gaibandha Stadium, Gaibandha District, Rangpur Division, Bangladesh","গাইবন্ধ স্টেডিয়াম, গাইবান্ধা জেলা, রংপুর বিভাগ, বাংলাদেশ",,বাংলাদেশ,রংপুর বিভাগ,admin2,boundaries,['stadium'],[],Bangladesh,Rangpur,Gaibandha,GaibandhaSadar,Paurashava,5a30b208feabf629c8b64f14591931de
284249858.0,893ce67a667ffff,25.32212568084478,89.590311611324,বালাসী সড়ক,['Balashi Rd'],"Balasi road, Balashi Rd, Gaibandha District, Rangpur Division, Bangladesh","বালাসী সড়ক, গাইবান্ধা জেলা, রংপুর বিভাগ, বাংলাদেশ",,বাংলাদেশ,রংপুর বিভাগ,street,,,,Bangladesh,Rangpur,Gaibandha,Fulchhari,KanchiPara,c3be07dddb29c4de295bde2e12fe6b19
467768827.0,893cf5b30afffff,25.087992294160795,89.3633127722408,Daridaha Fashitola,,"Daridaha Fashitola, Gobindaganj, Gaibandha District, Rangpur Division, Bangladesh","দারিদাহা ফাশিতোলা, গাইবান্ধা জেলা, রংপুর বিভাগ, বাংলাদেশ",Gobindaganj,বাংলাদেশ,রংপুর বিভাগ,street,,,,Bangladesh,Rangpur,Gaibandha,Gobindaganj,Kamardaha,b626ac93b99cbfc1927692e0ca666625
467768827.0,893cf5b30afffff,25.087992294160795,89.3633127722408,Daridaha Fashitola,,"Daridaha Fashitola, Shibganj Upazila (Bogura), Bogura District, Bangladesh","দারিদাহা ফাশিতোলা, শিবগঞ্জ উপজেলা বগুড়া, বগুড়া জেলা, বাংলাদেশ",শিবগঞ্জ উপজেলা (বগুড়া),বাংলাদেশ,,street,,,,Bangladesh,Rangpur,Gaibandha,Gobindaganj,Kamardaha,b626ac93b99cbfc1927692e0ca666625
467768827.0,893cf5b30afffff,25.087992294160795,89.3633127722408,Daridaha Fashitola,,"Daridaha Fashitola, Shibganj Upazila (Bogura), Gaibandha District, Rangpur Division, Bangladesh","দারিদাহা ফাশিতোলা, শিবগঞ্জ উপজেলা বগুড়া, গাইবান্ধা জেলা, রংপুর বিভাগ, বাংলাদেশ",শিবগঞ্জ উপজেলা (বগুড়া),বাংলাদেশ,রংপুর বিভাগ,street,,,,Bangladesh,Rangpur,Gaibandha,Gobindaganj,Kamardaha,b626ac93b99cbfc1927692e0ca666625
467768827.0,893cf5b30afffff,25.087992294160795,89.3633127722408,Daridaha Fashitola,,"Daridaha Fashitola, Gobindaganj, Gaibandha District, Rajshahi Division, Bangladesh","দারিদাহা ফাশিতোলা, গাইবান্ধা জেলা, রাজশাহী বিভাগ, বাংলাদেশ",Gobindaganj,বাংলাদেশ,রাজশাহী বিভাগ,street,,,,Bangladesh,Rangpur,Gaibandha,Gobindaganj,Kamardaha,b626ac93b99cbfc1927692e0ca666625
646703694.0,893cf5b203bffff,25.13280221834224,89.39886135691279,College Road,,"College Road, Gobindaganj, Gaibandha District, Rangpur Division, Bangladesh","কলেজ রোড, গাইবান্ধা জেলা, রংপুর বিভাগ, বাংলাদেশ",Gobindaganj,বাংলাদেশ,রংপুর বিভাগ,street,,,,Bangladesh,Rangpur,Gaibandha,Gobindaganj,Paurashava,8dff4a512f697d67945d6d092cf7b58e
581268808.0,893ce6440bbffff,25.3937148,89.5109524,Kuptala Union Porishad,,"Kuptala Union Porishad, Gaibandha District, Rangpur Division, Bangladesh","কুপালা ইউনিয়ন পোরিশাদ, গাইবান্ধা জেলা, রংপুর বিভাগ, বাংলাদেশ",,বাংলাদেশ,রংপুর বিভাগ,admin2,boundaries,['government'],[],Bangladesh,Rangpur,Gaibandha,GaibandhaSadar,Kuptala,bc8e3adabf453baef8c561a9c0d151ba
584732261.0,893ce6441dbffff,25.39453312,89.51996615,কুপতলা রেলওয়ে স্টেশন,['Kuptala Railway Station'],"Koptala Railway Station, Gaibandha District, Rangpur Division, Bangladesh","কুপতলা রেলওয়ে স্টেশন, গাইবান্ধা জেলা, রংপুর বিভাগ, বাংলাদেশ",,বাংলাদেশ,রংপুর বিভাগ,admin2,boundaries,['railway_station'],[],Bangladesh,Rangpur,Gaibandha,GaibandhaSadar,Kuptala,bc8e3adabf453baef8c561a9c0d151ba
618651340.0,893ce648d37ffff,25.209982760578143,89.37932855336626,Dhaka - Rangpur Hwy,,"Dhaka - Rangpur Hwy, Gobindaganj, Gaibandha District, Rangpur Division, Bangladesh","Dhaka াকা - রাংপুর হুই, গাইবান্ধা জেলা, রংপুর বিভাগ, বাংলাদেশ",Gobindaganj,বাংলাদেশ,রংপুর বিভাগ,street,,,,Bangladesh,Rangpur,Gaibandha,Gobindaganj,Darbasta,400489f9f66d2956230e96120e215b57
646703697.0,893cf5b200fffff,25.1314211650308,89.3965042141219,College Road,,"College Road, Gobindaganj, Gaibandha District, Rangpur Division, Bangladesh","কলেজ রোড, গাইবান্ধা জেলা, রংপুর বিভাগ, বাংলাদেশ",Gobindaganj,বাংলাদেশ,রংপুর বিভাগ,street,,,,Bangladesh,Rangpur,Gaibandha,Gobindaganj,Paurashava,8dff4a512f697d67945d6d092cf7b58e
910763274.0,893ce679253ffff,25.20389496,89.58759376,,,"Gaibandha District, Rangpur Division, Bangladesh","গাইবান্ধা জেলা, রংপুর বিভাগ, বাংলাদেশ",,বাংলাদেশ,রংপুর বিভাগ,admin2,boundaries,['island'],[],Bangladesh,Rangpur,Gaibandha,Fulchhari,Gazaria,7343d323c0a0746c02d226c4aa663df8
913400818.0,893cf5b4267ffff,25.10181095,89.59716956,,,"Saghata Upazila, Gaibandha District, Rangpur Division, Bangladesh","সাঘাটা উপজেলা, গাইবান্ধা জেলা, রংপুর বিভাগ, বাংলাদেশ",সাঘাটা উপজেলা,বাংলাদেশ,রংপুর বিভাগ,local_admin,boundaries,['island'],[],Bangladesh,Rangpur,Gaibandha,Saghatta,Ghuridaha,7cfe876fba85a358e5f83497cf228a43
914900145.0,893cf5b5e4fffff,25.0623375,89.59684656,,,"Saghata Upazila, Gaibandha District, Rangpur Division, Bangladesh","সাঘাটা উপজেলা, গাইবান্ধা জেলা, রংপুর বিভাগ, বাংলাদেশ",সাঘাটা উপজেলা,বাংলাদেশ,রংপুর বিভাগ,local_admin,boundaries,['island'],[],Bangladesh,Rangpur,Gaibandha,Saghatta,Haldia,5e687dffa8717b2d40387d9a76a37e6e
284252129.0,893ce64a93bffff,25.244320166857243,89.36312648727431,Dhaka - Rangpur Hwy,,"Dhaka - Rangpur Hwy, Palasbari, Gaibandha District, Rangpur Division, Bangladesh","Dhaka াকা - রাংপুর হুই, গাইবান্ধা জেলা, রংপুর বিভাগ, বাংলাদেশ",Palasbari,বাংলাদেশ,রংপুর বিভাগ,street,,,,Bangladesh,Rangpur,Gaibandha,Gobindaganj,Darbasta,400489f9f66d2956230e96120e215b57
284252129.0,893ce64a93bffff,25.244320166857243,89.36312648727431,Dhaka - Rangpur Hwy,,"Dhaka - Rangpur Hwy, Gobindaganj, Gaibandha District, Rangpur Division, Bangladesh","Dhaka াকা - রাংপুর হুই, গাইবান্ধা জেলা, রংপুর বিভাগ, বাংলাদেশ",Gobindaganj,বাংলাদেশ,রংপুর বিভাগ,street,,,,Bangladesh,Rangpur,Gaibandha,Gobindaganj,Darbasta,400489f9f66d2956230e96120e215b57
401229711.0,893ce649e77ffff,25.124453207562567,89.30814762648576,Panitola Gobindhaganj Road,,"Panitola Gobindhaganj Road, Gobindaganj, Gaibandha District, Rangpur Division, Bangladesh","পানিটোলা গোবিন্দাগঞ্জ রোড, গাইবান্ধা জেলা, রংপুর বিভাগ, বাংলাদেশ",Gobindaganj,বাংলাদেশ,রংপুর বিভাগ,street,,,,Bangladesh,Rangpur,Gaibandha,Gobindaganj,Gumaniganj,991d21f8496381e9e84677936ff1a9f2
401229711.0,893ce649e77ffff,25.124453207562567,89.30814762648576,Panitola Gobindhaganj Road,,"Panitola Gobindhaganj Road, Shibganj Upazila (Bogura), Bogura District, Bangladesh","পানিটোলা গোবিন্দাগঞ্জ রোড, শিবগঞ্জ উপজেলা বগুড়া, বগুড়া জেলা, বাংলাদেশ",শিবগঞ্জ উপজেলা (বগুড়া),বাংলাদেশ,,street,,,,Bangladesh,Rangpur,Gaibandha,Gobindaganj,Gumaniganj,991d21f8496381e9e84677936ff1a9f2
1072625230.0,893ce64581bffff,25.33372287,89.5364054,Ahammad Uddin Shah Shishu Niketon School & College play ground.,,"Ahammad Uddin Shah Shishu Niketon School & College play ground., ","আহমদ উদ্দিন শাহ শিশু নিকেটন স্কুল ও কলেজ প্লে গ্রাউন্ড।, ",,বাংলাদেশ,রংপুর বিভাগ,housenumber,contains,['playground'],[],Bangladesh,Rangpur,Gaibandha,GaibandhaSadar,Kholahati,76b336f59c73184006733c491336570e
401229711.0,893ce649e77ffff,25.124453207562567,89.30814762648576,Panitola Gobindhaganj Road,,"Panitola Gobindhaganj Road, Shibganj Upazila (Bogura), Gaibandha District, Rangpur Division, Bangladesh","পানিটোলা গোবিন্দাগঞ্জ রোড, শিবগঞ্জ উপজেলা বগুড়া, গাইবান্ধা জেলা, রংপুর বিভাগ, বাংলাদেশ",শিবগঞ্জ উপজেলা (বগুড়া),বাংলাদেশ,রংপুর বিভাগ,street,,,,Bangladesh,Rangpur,Gaibandha,Gobindaganj,Gumaniganj,991d21f8496381e9e84677936ff1a9f2
401229711.0,893ce649e77ffff,25.124453207562567,89.30814762648576,Panitola Gobindhaganj Road,,"Panitola Gobindhaganj Road, Gobindaganj, Gaibandha District, Rajshahi Division, Bangladesh","পানিটোলা গোবিন্দাগঞ্জ রোড, গাইবান্ধা জেলা, রাজশাহী বিভাগ, বাংলাদেশ",Gobindaganj,বাংলাদেশ,রাজশাহী বিভাগ,street,,,,Bangladesh,Rangpur,Gaibandha,Gobindaganj,Gumaniganj,991d21f8496381e9e84677936ff1a9f2
618651339.0,893ce648997ffff,25.20434743314891,89.38472310265887,Dhaka - Rangpur Hwy,,"Dhaka - Rangpur Hwy, Gobindaganj, Gaibandha District, Rangpur Division, Bangladesh","Dhaka াকা - রাংপুর হুই, গাইবান্ধা জেলা, রংপুর বিভাগ, বাংলাদেশ",Gobindaganj,বাংলাদেশ,রংপুর বিভাগ,street,,,,Bangladesh,Rangpur,Gaibandha,Gobindaganj,TalukKanupur,24e131c6c2aa4bbac24908c10500c2fb
7425631813.0,893ce645aa3ffff,25.3199172,89.5392612,আসাদ ছাত্রাবাস,,"Assad hostel, ","আসাদ ছাত্রাবাস, ",,বাংলাদেশ,রংপুর বিভাগ,housenumber,,,,Bangladesh,Rangpur,Gaibandha,GaibandhaSadar,Boali,06866bff5fa9300b342ddece8418bdbd
9841162127.0,893ce64581bffff,25.3337807,89.5363622,"Ahammad Uddin Shah Shishu Niketon School & College, Gaibandha",,"Ahammad Uddin Shah Shishu Niketon School & College Gaibandha, ","আহমদ উদ্দিন শাহ শিশু নিকেটন স্কুল ও কলেজ গাইবন্ধ, ",,বাংলাদেশ,রংপুর বিভাগ,housenumber,,,,Bangladesh,Rangpur,Gaibandha,GaibandhaSadar,Kholahati,76b336f59c73184006733c491336570e
274219643.0,893ce648b33ffff,25.17308075,89.3891469,সেতু,['Bridge'],"Bridge, Gobindaganj, Gaibandha District, Rangpur Division, Bangladesh","সেতু, গাইবান্ধা জেলা, রংপুর বিভাগ, বাংলাদেশ",Gobindaganj,বাংলাদেশ,রংপুর বিভাগ,street,,,,Bangladesh,Rangpur,Gaibandha,Gobindaganj,TalukKanupur,24e131c6c2aa4bbac24908c10500c2fb
284048233.0,893ce645227ffff,25.314264543023054,89.47942996259528,Dhaka - Gaibandha Hwy,,"Dhaka - Gaibandha Hwy, Gaibandha District, Rangpur Division, Bangladesh","Dhaka াকা - গাইবন্ধা হুই, গাইবান্ধা জেলা, রংপুর বিভাগ, বাংলাদেশ",,বাংলাদেশ,রংপুর বিভাগ,street,,,,Bangladesh,Rangpur,Gaibandha,GaibandhaSadar,SahaPara,695eb49058cc2580bddc6b4338017bfd
2481986729.0,893cf5b20c7ffff,25.1339117,89.3857832,গোবিন্দগঞ্জ,"['গোবিন্দগঞ্জ', 'Gobindaganj']","Govindganj, Gobindaganj, Gaibandha District, Rangpur Division, Bangladesh","গোবিন্দগঞ্জ, গাইবান্ধা জেলা, রংপুর বিভাগ, বাংলাদেশ",Gobindaganj,বাংলাদেশ,রংপুর বিভাগ,locality,,,,Bangladesh,Rangpur,Gaibandha,Gobindaganj,Paurashava,8dff4a512f697d67945d6d092cf7b58e
758210863.0,893ce645b87ffff,25.32890206477771,89.55665696835484,বালাসী সড়ক,['Balashi Rd'],"Balasi road, Balashi Rd, Gaibandha District, Rangpur Division, Bangladesh","বালাসী সড়ক, গাইবান্ধা জেলা, রংপুর বিভাগ, বাংলাদেশ",,বাংলাদেশ,রংপুর বিভাগ,street,,,,Bangladesh,Rangpur,Gaibandha,GaibandhaSadar,Paurashava,5a30b208feabf629c8b64f14591931de
184480941.0,893ce644dcfffff,25.4059937300806,89.57514973336183,Gaibandha - Sundeganj Rd,,"Gaibandha - Sundeganj Rd, Gaibandha District, Rangpur Division, Bangladesh","গাইবন্ধ - সুন্দরগঞ্জ রোড, গাইবান্ধা জেলা, রংপুর বিভাগ, বাংলাদেশ",,বাংলাদেশ,রংপুর বিভাগ,street,,,,Bangladesh,Rangpur,Gaibandha,GaibandhaSadar,Malibari,bd80fc4d5658b43bb658b74ff7cc461e
9137640346.0,893ce641e67ffff,25.275702,89.3538529,পলাশবাড়ী,"['পলাশবাড়ী', 'Polashbari']","Palashbari, Polashbari, Palasbari, Gaibandha District, Rangpur Division, Bangladesh","পলাশবাড়ী, গাইবান্ধা জেলা, রংপুর বিভাগ, বাংলাদেশ",Palasbari,বাংলাদেশ,রংপুর বিভাগ,locality,,,,Bangladesh,Rangpur,Gaibandha,Palashbari,Palashbari,a060eeec1f89f041e248369b78a597bf
284251422.0,893cf5b648fffff,25.202750861081107,89.54268943883243,Gaibandha - Banarpara Rd,,"Gaibandha - Banarpara Rd, Saghata Upazila, Gaibandha District, Rangpur Division, Bangladesh","গাইবন্ধা - বোনারপেরা রোড, সাঘাটা উপজেলা, গাইবান্ধা জেলা, রংপুর বিভাগ, বাংলাদেশ",সাঘাটা উপজেলা,বাংলাদেশ,রংপুর বিভাগ,street,,,,Bangladesh,Rangpur,Gaibandha,Saghatta,Padumsahar,77f008fbcd5768d3e5bb15b2315c47a2
1014363635.0,893ce6493d7ffff,25.12469699862471,89.26890224214485,Panitola Gobindhaganj Road,,"Panitola Gobindhaganj Road, Gobindaganj, Gaibandha District, Rangpur Division, Bangladesh","পানিটোলা গোবিন্দাগঞ্জ রোড, গাইবান্ধা জেলা, রংপুর বিভাগ, বাংলাদেশ",Gobindaganj,বাংলাদেশ,রংপুর বিভাগ,street,,,,Bangladesh,Rangpur,Gaibandha,Gobindaganj,Rajahar,60d1015607447980a8d1e6ee95455a15
284048151.0,893ce64427bffff,25.358279700873894,89.50375639883958,Gaibandha - Sadullapur Rd,,"Gaibandha - Sadullapur Rd, Gaibandha District, Rangpur Division, Bangladesh","গাইবন্ধ - সাদুল্লাপুর আরডি, গাইবান্ধা জেলা, রংপুর বিভাগ, বাংলাদেশ",,বাংলাদেশ,রংপুর বিভাগ,street,,,,Bangladesh,Rangpur,Gaibandha,GaibandhaSadar,Ballamjhar,76ad96bb08d87be9579788a299b83e10
417113835.0,893ce645b93ffff,25.33080535,89.55028075,Gaibandha - Sundeganj Rd,,"Gaibandha - Sundeganj Rd, Gaibandha District, Rangpur Division, Bangladesh","গাইবন্ধ - সুন্দরগঞ্জ রোড, গাইবান্ধা জেলা, রংপুর বিভাগ, বাংলাদেশ",,বাংলাদেশ,রংপুর বিভাগ,street,,,,Bangladesh,Rangpur,Gaibandha,GaibandhaSadar,Paurashava,5a30b208feabf629c8b64f14591931de
284251054.0,893ce67b687ffff,25.28550357779512,89.5453524385426,Gaibandha - Banarpara Rd,,"Gaibandha - Banarpara Rd, Gaibandha District, Rangpur Division, Bangladesh","গাইবন্ধা - বোনারপেরা রোড, গাইবান্ধা জেলা, রংপুর বিভাগ, বাংলাদেশ",,বাংলাদেশ,রংপুর বিভাগ,street,,,,Bangladesh,Rangpur,Gaibandha,GaibandhaSadar,Boali,06866bff5fa9300b342ddece8418bdbd
406607311.0,893ce645837ffff,25.3391164,89.5509119,Gaibandha - Sundeganj Rd,,"Gaibandha - Sundeganj Rd, Gaibandha District, Rangpur Division, Bangladesh","গাইবন্ধ - সুন্দরগঞ্জ রোড, গাইবান্ধা জেলা, রংপুর বিভাগ, বাংলাদেশ",,বাংলাদেশ,রংপুর বিভাগ,street,,,,Bangladesh,Rangpur,Gaibandha,GaibandhaSadar,Paurashava,5a30b208feabf629c8b64f14591931de
406607309.0,893ce645823ffff,25.335807240583897,89.55026636601953,Gaibandha - Sundeganj Rd,,"Gaibandha - Sundeganj Rd, Gaibandha District, Rangpur Division, Bangladesh","গাইবন্ধ - সুন্দরগঞ্জ রোড, গাইবান্ধা জেলা, রংপুর বিভাগ, বাংলাদেশ",,বাংলাদেশ,রংপুর বিভাগ,street,,,,Bangladesh,Rangpur,Gaibandha,GaibandhaSadar,Paurashava,5a30b208feabf629c8b64f14591931de
284249656.0,893ce645877ffff,25.331465136094213,89.54529556991949,স্টেশন রোড,['স্টেশন রোড'],"Station Road, Gaibandha District, Rangpur Division, Bangladesh","স্টেশন রোড, গাইবান্ধা জেলা, রংপুর বিভাগ, বাংলাদেশ",,বাংলাদেশ,রংপুর বিভাগ,street,,,,Bangladesh,Rangpur,Gaibandha,GaibandhaSadar,Paurashava,5a30b208feabf629c8b64f14591931de
1014363636.0,893cf586dcbffff,25.10332975,89.283991,Panitola Gobindhaganj Road,,"Panitola Gobindhaganj Road, Gobindaganj, Gaibandha District, Rangpur Division, Bangladesh","পানিটোলা গোবিন্দাগঞ্জ রোড, গাইবান্ধা জেলা, রংপুর বিভাগ, বাংলাদেশ",Gobindaganj,বাংলাদেশ,রংপুর বিভাগ,street,,,,Bangladesh,Rangpur,Gaibandha,Gobindaganj,Rajahar,60d1015607447980a8d1e6ee95455a15
758210864.0,893ce645ba3ffff,25.32717215,89.5632477,বালাসী সড়ক,['Balashi Rd'],"Balasi road, Balashi Rd, Gaibandha District, Rangpur Division, Bangladesh","বালাসী সড়ক, গাইবান্ধা জেলা, রংপুর বিভাগ, বাংলাদেশ",,বাংলাদেশ,রংপুর বিভাগ,street,,,,Bangladesh,Rangpur,Gaibandha,GaibandhaSadar,Paurashava,5a30b208feabf629c8b64f14591931de
754808443.0,893ce64c917ffff,25.24281195,89.55832035,Gaibandha - Banarpara Rd,,"Gaibandha - Banarpara Rd, Gaibandha District, Rangpur Division, Bangladesh","গাইবন্ধা - বোনারপেরা রোড, গাইবান্ধা জেলা, রংপুর বিভাগ, বাংলাদেশ",,বাংলাদেশ,রংপুর বিভাগ,street,,,,Bangladesh,Rangpur,Gaibandha,GaibandhaSadar,Badiakhali,d92ae737a79484c4450e8fb610963c3d
417113838.0,893ce64582bffff,25.331454514594192,89.55005802906271,Gaibandha - Sundeganj Rd,,"Gaibandha - Sundeganj Rd, Gaibandha District, Rangpur Division, Bangladesh","গাইবন্ধ - সুন্দরগঞ্জ রোড, গাইবান্ধা জেলা, রংপুর বিভাগ, বাংলাদেশ",,বাংলাদেশ,রংপুর বিভাগ,street,,,,Bangladesh,Rangpur,Gaibandha,GaibandhaSadar,Paurashava,5a30b208feabf629c8b64f14591931de
754808444.0,893ce64c917ffff,25.2424625,89.55825045,Gaibandha - Banarpara Rd,,"Gaibandha - Banarpara Rd, Gaibandha District, Rangpur Division, Bangladesh","গাইবন্ধা - বোনারপেরা রোড, গাইবান্ধা জেলা, রংপুর বিভাগ, বাংলাদেশ",,বাংলাদেশ,রংপুর বিভাগ,street,,,,Bangladesh,Rangpur,Gaibandha,GaibandhaSadar,Badiakhali,d92ae737a79484c4450e8fb610963c3d
559721594.0,893cf5b5017ffff,25.081863345027667,89.5578124409607,Saroddigate-Barokona Road,,"Saroddigate-Barokona Road, Saghata Upazila, Gaibandha District, Rangpur Division, Bangladesh","সরোডিগেট-বারোকোনা রোড, সাঘাটা উপজেলা, গাইবান্ধা জেলা, রংপুর বিভাগ, বাংলাদেশ",সাঘাটা উপজেলা,বাংলাদেশ,রংপুর বিভাগ,street,,,,Bangladesh,Rangpur,Gaibandha,Saghatta,Jummerbari,e279734598d76d80abf23968e9727efc
417113836.0,893ce64582bffff,25.33245615,89.55008839999999,Gaibandha - Sundeganj Rd,,"Gaibandha - Sundeganj Rd, Gaibandha District, Rangpur Division, Bangladesh","গাইবন্ধ - সুন্দরগঞ্জ রোড, গাইবান্ধা জেলা, রংপুর বিভাগ, বাংলাদেশ",,বাংলাদেশ,রংপুর বিভাগ,street,,,,Bangladesh,Rangpur,Gaibandha,GaibandhaSadar,Paurashava,5a30b208feabf629c8b64f14591931de
2481986738.0,893cf5b4677ffff,25.1173555,89.5739152,সাঘাটা,['Saghatta'],"Saghata, Saghatta, Saghata Upazila, Gaibandha District, Rangpur Division, Bangladesh","সাঘাটা, সাঘাটা উপজেলা, গাইবান্ধা জেলা, রংপুর বিভাগ, বাংলাদেশ",সাঘাটা উপজেলা,বাংলাদেশ,রংপুর বিভাগ,locality,,,,Bangladesh,Rangpur,Gaibandha,Saghatta,Ghuridaha,7cfe876fba85a358e5f83497cf228a43
2481961867.0,893ce60a23bffff,25.5669663,89.5227662,সুন্দরগঞ্জ,"['সুন্দরগঞ্জ', 'Sundarganj']","Sundarganj, Gaibandha District, Rangpur Division, Bangladesh","সুন্দরগঞ্জ, গাইবান্ধা জেলা, রংপুর বিভাগ, বাংলাদেশ",,বাংলাদেশ,রংপুর বিভাগ,locality,,,,Bangladesh,Rangpur,Gaibandha,Sundarganj,SundarganjPaurashava,77576604f3329b174f43378a1dce5317
2481986728.0,893ce64582bffff,25.331295,89.5479718,গাইবান্ধা,"['Ґайбандга', 'গাইবান্ধা', 'Gaibanda', '卡伊班达', 'Gaibandha']","Gaibandha, Gaibandha District, Rangpur Division, Bangladesh","গাইবান্ধা, গাইবান্ধা জেলা, রংপুর বিভাগ, বাংলাদেশ",,বাংলাদেশ,রংপুর বিভাগ,locality,,,,Bangladesh,Rangpur,Gaibandha,GaibandhaSadar,Paurashava,5a30b208feabf629c8b64f14591931de
9697917574.0,893ce6630d3ffff,25.3329606,89.7274445,JIGA BARI HIGH SCHOOL,,"JIGA BARI HIGH SCHOOL, Gaibandha District, Rangpur Division, Bangladesh","জিগা বারী উচ্চ বিদ্যালয়, গাইবান্ধা জেলা, রংপুর বিভাগ, বাংলাদেশ",,বাংলাদেশ,রংপুর বিভাগ,admin2,boundaries,"['educational_institution', 'school']",[],Bangladesh,Rangpur,Gaibandha,Fulchhari,Erendabari,31d9e771323a447d6fba04f1eb84cae2
9697917575.0,893ce663287ffff,25.3180818,89.7354911,ALGAR CHAR JUNIOR GIRL'S SCHOOL,,"ALGAR CHAR JUNIOR GIRL'S SCHOOL, Gaibandha District, Rangpur Division, Bangladesh","অ্যালগার চর জুনিয়র গার্লস স্কুল, গাইবান্ধা জেলা, রংপুর বিভাগ, বাংলাদেশ",,বাংলাদেশ,রংপুর বিভাগ,admin2,boundaries,"['educational_institution', 'school']",[],Bangladesh,Rangpur,Gaibandha,Fulchhari,Erendabari,31d9e771323a447d6fba04f1eb84cae2
9698417380.0,893ce66a5a3ffff,25.2595416,89.7455844,HORICHANDI HIGH SCHOOL,,"HORICHANDI HIGH SCHOOL, Gaibandha District, Rangpur Division, Bangladesh","হরিচান্দি উচ্চ বিদ্যালয়, গাইবান্ধা জেলা, রংপুর বিভাগ, বাংলাদেশ",,বাংলাদেশ,রংপুর বিভাগ,admin2,boundaries,"['educational_institution', 'school']",[],Bangladesh,Rangpur,Gaibandha,Fulchhari,Erendabari,31d9e771323a447d6fba04f1eb84cae2
245929515.0,893ce67a96fffff,25.32862001,89.705127,,,"Gaibandha District, Rangpur Division, Bangladesh","গাইবান্ধা জেলা, রংপুর বিভাগ, বাংলাদেশ",,বাংলাদেশ,রংপুর বিভাগ,admin2,boundaries,['islet'],[],Bangladesh,Rangpur,Gaibandha,Fulchhari,Erendabari,31d9e771323a447d6fba04f1eb84cae2
910682795.0,893ce671a17ffff,25.36449973,89.70672747,,,"Gaibandha District, Rangpur Division, Bangladesh","গাইবান্ধা জেলা, রংপুর বিভাগ, বাংলাদেশ",,বাংলাদেশ,রংপুর বিভাগ,admin2,boundaries,['island'],[],Bangladesh,Rangpur,Gaibandha,Fulchhari,Erendabari,31d9e771323a447d6fba04f1eb84cae2
910682798.0,893ce6634cfffff,25.34421048,89.7167886,,,"Gaibandha District, Rangpur Division, Bangladesh","গাইবান্ধা জেলা, রংপুর বিভাগ, বাংলাদেশ",,বাংলাদেশ,রংপুর বিভাগ,admin2,boundaries,['island'],[],Bangladesh,Rangpur,Gaibandha,Fulchhari,Erendabari,31d9e771323a447d6fba04f1eb84cae2
912381080.0,893ce6718afffff,25.38783226,89.72006351,,,"Gaibandha District, Rangpur Division, Bangladesh","গাইবান্ধা জেলা, রংপুর বিভাগ, বাংলাদেশ",,বাংলাদেশ,রংপুর বিভাগ,admin2,boundaries,['islet'],[],Bangladesh,Rangpur,Gaibandha,GaibandhaSadar,MollarChar,81ef98c2d5c4c1aa08817ef59b71c065
912381081.0,893ce67198bffff,25.39395364,89.72878534,,,"Gaibandha District, Rangpur Division, Bangladesh","গাইবান্ধা জেলা, রংপুর বিভাগ, বাংলাদেশ",,বাংলাদেশ,রংপুর বিভাগ,admin2,boundaries,['island'],[],Bangladesh,Rangpur,Gaibandha,GaibandhaSadar,MollarChar,81ef98c2d5c4c1aa08817ef59b71c065
3992043594.0,893ce6789d3ffff,25.2902938,89.7162164,Erendabari,,"Erendabari, Gaibandha District, Rangpur Division, Bangladesh","এরেন্দাবারি, গাইবান্ধা জেলা, রংপুর বিভাগ, বাংলাদেশ",,বাংলাদেশ,রংপুর বিভাগ,locality,,,,Bangladesh,Rangpur,Gaibandha,Fulchhari,Erendabari,31d9e771323a447d6fba04f1eb84cae2
3992043601.0,893ce663477ffff,25.3412071,89.7290761,মোল্লার চর,['Mollar Char'],"Mollar chars, Mollar Char, Gaibandha District, Rangpur Division, Bangladesh","মোল্লার চর, গাইবান্ধা জেলা, রংপুর বিভাগ, বাংলাদেশ",,বাংলাদেশ,রংপুর বিভাগ,locality,,,,Bangladesh,Rangpur,Gaibandha,GaibandhaSadar,MollarChar,81ef98c2d5c4c1aa08817ef59b71c065
9463907.0,893ce64ed7bffff,25.29813313,89.50892252,গাইবানধা জেলা,"['Ò�Ð°Ð¹Ð±Ð°Ð½Ð´Ð³Ð°', 'à¦—à¦¾à¦‡à¦¬à¦¾à¦¨à§�à¦§à¦¾ à¦œà§‡à¦²à¦¾', 'Gaibandha District']","Gaibanadha District, Gaibandha District, Rangpur Division, Bangladesh","গাইবানধা জেলা, রংপর বিভাগ, বাংলাদেশ",,বাংলাদেশ,রংপর বিভাগ,admin2,,,,Bangladesh,Rangpur,Gaibandha,GaibandhaSadar,Ramchandrapur,5ae835b4a5b3c20322fb114705be7b37
14326827.0,893cf5b2497ffff,25.15819882,89.37053166,Gobindaganj,,"Gobindaganj, Gaibandha District, Rangpur Division, Bangladesh","গোবিন্দাগঞ্জ, গাইবানধা জেলা, রংপর বিভাগ, বাংলাদেশ",Gobindaganj,বাংলাদেশ,রংপর বিভাগ,local_admin,,,,Bangladesh,Rangpur,Gaibandha,Gobindaganj,Fulbari,2c4fefb900ebe7f6d6a1a13384e0c040
14326755.0,893cf5b461bffff,25.12139689,89.56668548,সাঘাটা উপজেলা,['Saghata Upazila'],"Saghata Upazila, Gaibandha District, Rangpur Division, Bangladesh","সাঘাটা উপজেলা, গাইবানধা জেলা, রংপর বিভাগ, বাংলাদেশ",সাঘাটা উপজেলা,বাংলাদেশ,রংপর বিভাগ,local_admin,,,,Bangladesh,Rangpur,Gaibandha,Saghatta,Ghuridaha,7cfe876fba85a358e5f83497cf228a43
14326834.0,893ce64f59bffff,25.26402503,89.39706799,Palasbari,,"Palasbari, Gaibandha District, Rangpur Division, Bangladesh","পালসবারি, গাইবানধা জেলা, রংপর বিভাগ, বাংলাদেশ",Palasbari,বাংলাদেশ,রংপর বিভাগ,local_admin,,,,Bangladesh,Rangpur,Gaibandha,Palashbari,Barisal,21d6e7c9ebfc3fca5871f55b905163bb
4657014.0,893ce647463ffff,25.39565391,89.42728342,সাদললাপর উপজেলা,['Sadullapur Subdistrict'],"Sadallapar Upazila, Sadullapur Subdistrict, Gaibandha District, Rangpur Division, Bangladesh","সাদললাপর উপজেলা, গাইবানধা জেলা, রংপর বিভাগ, বাংলাদেশ",সাদললাপর উপজেলা,বাংলাদেশ,রংপর বিভাগ,local_admin,,,,Bangladesh,Rangpur,Gaibandha,Sadullapur,Jamalpur,d8da91e26ceb718fd7918df357f4953a
4625178.0,893ce654bbbffff,25.4805847,89.46897548,নলডাঙগা ইউনিয়ন,['Naldanga Union'],"Noldanga Union, Sadullapur Subdistrict, Gaibandha District, Rangpur Division, Bangladesh","নলডাঙগা ইউনিয়ন, সাদললাপর উপজেলা, গাইবানধা জেলা, রংপর বিভাগ, বাংলাদেশ",সাদললাপর উপজেলা,বাংলাদেশ,রংপর বিভাগ,local_admin,,,,Bangladesh,Rangpur,Gaibandha,Sadullapur,Naldanga,5f3e0da01d72c7c4cf42d9e0d099281b
4626323.0,893ce641db3ffff,25.3190318,89.37635205,ইদিলপর ইউনিয়ন,['Idilpur Union'],"Idilpur Union, Sadullapur Subdistrict, Gaibandha District, Rangpur Division, Bangladesh","ইদিলপর ইউনিয়ন, সাদললাপর উপজেলা, গাইবানধা জেলা, রংপর বিভাগ, বাংলাদেশ",সাদললাপর উপজেলা,বাংলাদেশ,রংপর বিভাগ,local_admin,,,,Bangladesh,Rangpur,Gaibandha,Sadullapur,Idilpur,b9e957f0a946093f71f7cf8679315179
4626324.0,893ce640b8bffff,25.3291373,89.4181042,খোদকোমরপর ইউনিয়ন,['Khodkomorpur Union'],"Obstacle Union, Sadullapur Subdistrict, Gaibandha District, Rangpur Division, Bangladesh","খোদকোমরপর ইউনিয়ন, সাদললাপর উপজেলা, গাইবানধা জেলা, রংপর বিভাগ, বাংলাদেশ",সাদললাপর উপজেলা,বাংলাদেশ,রংপর বিভাগ,local_admin,,,,Bangladesh,Rangpur,Gaibandha,Sadullapur,KhurdaKamarpur,21acb0015101436f4c5dac776b4fbb95
4625176.0,893ce6466abffff,25.43620913,89.46029556,দামোদরপর ইউনিয়ন,['Damodorpur Union'],"Damodarpur Union, Sadullapur Subdistrict, Gaibandha District, Rangpur Division, Bangladesh","দামোদরপর ইউনিয়ন, সাদললাপর উপজেলা, গাইবানধা জেলা, রংপর বিভাগ, বাংলাদেশ",সাদললাপর উপজেলা,বাংলাদেশ,রংপর বিভাগ,local_admin,,,,Bangladesh,Rangpur,Gaibandha,Sadullapur,Damodarpur,2395a7ac5c04961290a44ead5c5961a6
4625177.0,893ce6463c7ffff,25.42422964,89.49093885,কামারপাড়া ইউনিয়ন,['Kamarpara Union'],"Kamarpara Union, Sadullapur Subdistrict, Gaibandha District, Rangpur Division, Bangladesh","কামারপাড়া ইউনিয়ন, সাদললাপর উপজেলা, গাইবানধা জেলা, রংপর বিভাগ, বাংলাদেশ",সাদললাপর উপজেলা,বাংলাদেশ,রংপর বিভাগ,local_admin,,,,Bangladesh,Rangpur,Gaibandha,Sadullapur,KumarPara,78491e3ff2ddfbe16f696e03d4b07dca
4626322.0,893ce6401b7ffff,25.35782499,89.3687483,ধাপেরহাট ইউনিয়ন,['Dhaperhat Union'],"Steparhat Union, Sadullapur Subdistrict, Gaibandha District, Rangpur Division, Bangladesh","ধাপেরহাট ইউনিয়ন, সাদললাপর উপজেলা, গাইবানধা জেলা, রংপর বিভাগ, বাংলাদেশ",সাদললাপর উপজেলা,বাংলাদেশ,রংপর বিভাগ,local_admin,,,,Bangladesh,Rangpur,Gaibandha,Sadullapur,Dhaperhat,41c9f023906bd4306399e3efdbbe730b
467768827.0,893cf5b30afffff,25.087992294160795,89.3633127722408,Daridaha Fashitola,,"Daridaha Fashitola, Shibganj Upazila (Bogura), Gaibandha District, Rangpur Division, Bangladesh","দারিদাহা ফাশিতোলা, শিবগঞজ উপজেলা বগড়া, গাইবানধা জেলা, রংপর বিভাগ, বাংলাদেশ",শিবগঞজ উপজেলা (বগড়া),বাংলাদেশ,রংপর বিভাগ,street,,,,Bangladesh,Rangpur,Gaibandha,Gobindaganj,Kamardaha,b626ac93b99cbfc1927692e0ca666625
401229711.0,893ce649e77ffff,25.124453207562567,89.30814762648576,Panitola Gobindhaganj Road,,"Panitola Gobindhaganj Road, Shibganj Upazila (Bogura), Gaibandha District, Rangpur Division, Bangladesh","পানিটোলা গোবিন্দাগঞ্জ রোড, শিবগঞজ উপজেলা বগড়া, গাইবানধা জেলা, রংপর বিভাগ, বাংলাদেশ",শিবগঞজ উপজেলা (বগড়া),বাংলাদেশ,রংপর বিভাগ,street,,,,Bangladesh,Rangpur,Gaibandha,Gobindaganj,Gumaniganj,991d21f8496381e9e84677936ff1a9f2
467768827.0,893cf5b30afffff,25.087992294160795,89.3633127722408,Daridaha Fashitola,,"Daridaha Fashitola, Gobindaganj, Gaibandha District, Rangpur Division, Bangladesh","দারিদাহা ফাশিতোলা, গাইবানধা জেলা, রংপর বিভাগ, বাংলাদেশ",Gobindaganj,বাংলাদেশ,রংপর বিভাগ,street,,,,Bangladesh,Rangpur,Gaibandha,Gobindaganj,Kamardaha,b626ac93b99cbfc1927692e0ca666625
646703697.0,893cf5b200fffff,25.1314211650308,89.3965042141219,College Road,,"College Road, Gobindaganj, Gaibandha District, Rangpur Division, Bangladesh","কলেজ রোড, গাইবানধা জেলা, রংপর বিভাগ, বাংলাদেশ",Gobindaganj,বাংলাদেশ,রংপর বিভাগ,street,,,,Bangladesh,Rangpur,Gaibandha,Gobindaganj,Paurashava,8dff4a512f697d67945d6d092cf7b58e
274219643.0,893ce648b33ffff,25.17308075,89.3891469,সেত,['Bridge'],"Sideline, Bridge, Gobindaganj, Gaibandha District, Rangpur Division, Bangladesh","সেত, গাইবানধা জেলা, রংপর বিভাগ, বাংলাদেশ",Gobindaganj,বাংলাদেশ,রংপর বিভাগ,street,,,,Bangladesh,Rangpur,Gaibandha,Gobindaganj,TalukKanupur,24e131c6c2aa4bbac24908c10500c2fb
401229711.0,893ce649e77ffff,25.124453207562567,89.30814762648576,Panitola Gobindhaganj Road,,"Panitola Gobindhaganj Road, Gobindaganj, Gaibandha District, Rangpur Division, Bangladesh","পানিটোলা গোবিন্দাগঞ্জ রোড, গাইবানধা জেলা, রংপর বিভাগ, বাংলাদেশ",Gobindaganj,বাংলাদেশ,রংপর বিভাগ,street,,,,Bangladesh,Rangpur,Gaibandha,Gobindaganj,Gumaniganj,991d21f8496381e9e84677936ff1a9f2
284252129.0,893ce64a93bffff,25.244320166857243,89.36312648727431,Dhaka - Rangpur Hwy,,"Dhaka - Rangpur Hwy, Gobindaganj, Gaibandha District, Rangpur Division, Bangladesh","Dhaka াকা - রাংপুর হুই, গাইবানধা জেলা, রংপর বিভাগ, বাংলাদেশ",Gobindaganj,বাংলাদেশ,রংপর বিভাগ,street,,,,Bangladesh,Rangpur,Gaibandha,Gobindaganj,Darbasta,400489f9f66d2956230e96120e215b57
467768827.0,893cf5b30afffff,25.087992294160795,89.3633127722408,Daridaha Fashitola,,"Daridaha Fashitola, Shibganj Upazila (Bogura), Bogura District, Bangladesh","দারিদাহা ফাশিতোলা, শিবগঞজ উপজেলা বগড়া, বগড়া জেলা, বাংলাদেশ",শিবগঞজ উপজেলা (বগড়া),বাংলাদেশ,,street,,,,Bangladesh,Rangpur,Gaibandha,Gobindaganj,Kamardaha,b626ac93b99cbfc1927692e0ca666625
401229711.0,893ce649e77ffff,25.124453207562567,89.30814762648576,Panitola Gobindhaganj Road,,"Panitola Gobindhaganj Road, Shibganj Upazila (Bogura), Bogura District, Bangladesh","পানিটোলা গোবিন্দাগঞ্জ রোড, শিবগঞজ উপজেলা বগড়া, বগড়া জেলা, বাংলাদেশ",শিবগঞজ উপজেলা (বগড়া),বাংলাদেশ,,street,,,,Bangladesh,Rangpur,Gaibandha,Gobindaganj,Gumaniganj,991d21f8496381e9e84677936ff1a9f2
274219645.0,893ce6419cfffff,25.29144212746514,89.38547042061167,Dhaka - Gaibandha Hwy,,"Dhaka - Gaibandha Hwy, Palasbari, Gaibandha District, Rangpur Division, Bangladesh","Dhaka াকা - গাইবন্ধা হুই, গাইবানধা জেলা, রংপর বিভাগ, বাংলাদেশ",Palasbari,বাংলাদেশ,রংপর বিভাগ,street,,,,Bangladesh,Rangpur,Gaibandha,Palashbari,Mohadipur,13db37ce97915fecb284adf0e25296e9
284252129.0,893ce64a93bffff,25.244320166857243,89.36312648727431,Dhaka - Rangpur Hwy,,"Dhaka - Rangpur Hwy, Palasbari, Gaibandha District, Rangpur Division, Bangladesh","Dhaka াকা - রাংপুর হুই, গাইবানধা জেলা, রংপর বিভাগ, বাংলাদেশ",Palasbari,বাংলাদেশ,রংপর বিভাগ,street,,,,Bangladesh,Rangpur,Gaibandha,Gobindaganj,Darbasta,400489f9f66d2956230e96120e215b57
559721594.0,893cf5b5017ffff,25.081863345027667,89.5578124409607,Saroddigate-Barokona Road,,"Saroddigate-Barokona Road, Saghata Upazila, Gaibandha District, Rangpur Division, Bangladesh","সরোডিগেট-বারোকোনা রোড, সাঘাটা উপজেলা, গাইবানধা জেলা, রংপর বিভাগ, বাংলাদেশ",সাঘাটা উপজেলা,বাংলাদেশ,রংপর বিভাগ,street,,,,Bangladesh,Rangpur,Gaibandha,Saghatta,Jummerbari,e279734598d76d80abf23968e9727efc
1011164555.0,893ce647193ffff,25.40581025,89.458721,Sadullapur-Naldanga Road,,"Sadullapur-Naldanga Road, Sadullapur Subdistrict, Gaibandha District, Rangpur Division, Bangladesh","সাদুল্লাপুর-নালদঙ্গা রোড, সাদললাপর উপজেলা, গাইবানধা জেলা, রংপর বিভাগ, বাংলাদেশ",সাদললাপর উপজেলা,বাংলাদেশ,রংপর বিভাগ,street,,,,Bangladesh,Rangpur,Gaibandha,Sadullapur,Jamalpur,d8da91e26ceb718fd7918df357f4953a
240835433.0,893ce64630fffff,25.42078718047884,89.4991612124091,কপতলা-সাদললাপর সড়ক,['Kuptala sadullapur Road'],"Koptala-Sadullapur Road, Kuptala sadullapur Road, Sadullapur Subdistrict, Gaibandha District, Rangpur Division, Bangladesh","কপতলা-সাদললাপর সড়ক, সাদললাপর উপজেলা, গাইবানধা জেলা, রংপর বিভাগ, বাংলাদেশ",সাদললাপর উপজেলা,বাংলাদেশ,রংপর বিভাগ,street,,,,Bangladesh,Rangpur,Gaibandha,Sadullapur,KumarPara,78491e3ff2ddfbe16f696e03d4b07dca
330065497.0,893ce65498bffff,25.501283051670764,89.4686160202493,Bamandangha-Naldanga Road,,"Bamandangha-Naldanga Road, Sadullapur Subdistrict, Gaibandha District, Rangpur Division, Bangladesh","বামান্ডাঘা-নালদঙ্গা রোড, সাদললাপর উপজেলা, গাইবানধা জেলা, রংপর বিভাগ, বাংলাদেশ",সাদললাপর উপজেলা,বাংলাদেশ,রংপর বিভাগ,street,,,,Bangladesh,Rangpur,Gaibandha,Sundarganj,Sarbananda,38996b86bd22daa55ec76a45f6b5a58e
284048151.0,893ce64427bffff,25.358279700873894,89.50375639883958,Gaibandha - Sadullapur Rd,,"Gaibandha - Sadullapur Rd, Sadullapur Subdistrict, Gaibandha District, Rangpur Division, Bangladesh","গাইবন্ধ - সাদুল্লাপুর আরডি, সাদললাপর উপজেলা, গাইবানধা জেলা, রংপর বিভাগ, বাংলাদেশ",সাদললাপর উপজেলা,বাংলাদেশ,রংপর বিভাগ,street,,,,Bangladesh,Rangpur,Gaibandha,GaibandhaSadar,Ballamjhar,76ad96bb08d87be9579788a299b83e10
284249656.0,893ce645877ffff,25.331465136094213,89.54529556991949,সটেশন রোড,['à¦¸à§�à¦Ÿà§‡à¦¶à¦¨ à¦°à§‹à¦¡'],"Sotation road, Gaibandha District, Rangpur Division, Bangladesh","সটেশন রোড, গাইবানধা জেলা, রংপর বিভাগ, বাংলাদেশ",,বাংলাদেশ,রংপর বিভাগ,street,,,,Bangladesh,Rangpur,Gaibandha,GaibandhaSadar,Paurashava,5a30b208feabf629c8b64f14591931de
406607309.0,893ce645823ffff,25.335807240583897,89.55026636601953,Gaibandha - Sundeganj Rd,,"Gaibandha - Sundeganj Rd, Gaibandha District, Rangpur Division, Bangladesh","গাইবন্ধ - সুন্দরগঞ্জ রোড, গাইবানধা জেলা, রংপর বিভাগ, বাংলাদেশ",,বাংলাদেশ,রংপর বিভাগ,street,,,,Bangladesh,Rangpur,Gaibandha,GaibandhaSadar,Paurashava,5a30b208feabf629c8b64f14591931de
284048233.0,893ce645227ffff,25.314264543023054,89.47942996259528,Dhaka - Gaibandha Hwy,,"Dhaka - Gaibandha Hwy, Gaibandha District, Rangpur Division, Bangladesh","Dhaka াকা - গাইবন্ধা হুই, গাইবানধা জেলা, রংপর বিভাগ, বাংলাদেশ",,বাংলাদেশ,রংপর বিভাগ,street,,,,Bangladesh,Rangpur,Gaibandha,GaibandhaSadar,SahaPara,695eb49058cc2580bddc6b4338017bfd
284048151.0,893ce64427bffff,25.358279700873894,89.50375639883958,Gaibandha - Sadullapur Rd,,"Gaibandha - Sadullapur Rd, Gaibandha District, Rangpur Division, Bangladesh","গাইবন্ধ - সাদুল্লাপুর আরডি, গাইবানধা জেলা, রংপর বিভাগ, বাংলাদেশ",,বাংলাদেশ,রংপর বিভাগ,street,,,,Bangladesh,Rangpur,Gaibandha,GaibandhaSadar,Ballamjhar,76ad96bb08d87be9579788a299b83e10
