osm_id,h3level9,lat,lon,name,alt_names,name_en,name_bn,local_admin_name,admin0_name,admin2_name,addr_level,poi_addr_match,poi_class,poi_keywords,country,division,district,thana,union,region_hash
262299853.0,893cc401043ffff,24.145354,91.3395131,,,"Madhabpur, Habiganj District, Sylhet Division, Bangladesh","হবিগঞ্জ জেলা, সিলেট বিভাগ, বাংলাদেশ",Madhabpur,বাংলাদেশ,সিলেট বিভাগ,local_admin,boundaries,['fuel'],[],Bangladesh,Sylhet,Habiganj,Madhabpur,Jagadishpur,c10a9877236a626684fd53fde0fa9fe2
399602847.0,893cc40850bffff,24.0685724,91.344457,মনতলা,['Mantala'],"Mind, Madhabpur, Habiganj District, Sylhet Division, Bangladesh","মনতলা, হবিগঞ্জ জেলা, সিলেট বিভাগ, বাংলাদেশ",Madhabpur,বাংলাদেশ,সিলেট বিভাগ,local_admin,boundaries,['railway_station'],[],Bangladesh,Sylhet,Habiganj,Madhabpur,Bahara,d0e7b7e437c3341aa62ef5986ced7126
399602849.0,893cc40950fffff,24.0166274,91.3098775,হরষপুর,['Harashpur'],"Harspur, Madhabpur, Habiganj District, Sylhet Division, Bangladesh","হরষপুর, হবিগঞ্জ জেলা, সিলেট বিভাগ, বাংলাদেশ",Madhabpur,বাংলাদেশ,সিলেট বিভাগ,local_admin,boundaries,['railway_station'],[],Bangladesh,Sylhet,Habiganj,Madhabpur,Dharmaghar,fbadc62572e6a427060bd1b45cb14cd2
2332892995.0,893cc48ebafffff,24.5043956,91.363971,বানিয়াচং ঊপজেলা স্বাস্থ্য কমপ্লেক্স,['Baniachang Upazila Health Complex'],"Baniachong Epazella Health Complex, Baniachong Upazila, Habiganj District, Sylhet Division, Bangladesh","বানিয়াচং ঊপজেলা স্বাস্থ্য কমপ্লেক্স, বানিয়াচং উপজেলা, হবিগঞ্জ জেলা, সিলেট বিভাগ, বাংলাদেশ",বানিয়াচং উপজেলা,বাংলাদেশ,সিলেট বিভাগ,local_admin,boundaries,['hospital'],[],Bangladesh,Sylhet,Habiganj,Baniachong,DakshinPurbaBaniyachang,ad82841f89bf4c8ebae051f0670aced9
2571998660.0,893cc40216bffff,24.2527846,91.3819186,শাহজি বাজার,['Shahaji Bazar'],"Shahji Bazar, Habiganj, Habiganj District, Sylhet Division, Bangladesh","শাহজি বাজার, হবিগঞ্জ জেলা, সিলেট বিভাগ, বাংলাদেশ",Habiganj,বাংলাদেশ,সিলেট বিভাগ,local_admin,boundaries,['railway_station'],[],Bangladesh,Sylhet,Habiganj,Chunarughat,Sankhola,d5634f2df0bff51203871ab16f6c7912
2571998660.0,893cc40216bffff,24.2527846,91.3819186,শাহজি বাজার,['Shahaji Bazar'],"Shahji Bazar, Habiganj, Habiganj District, Sylhet Division, Bangladesh","শাহজি বাজার, হবিগঞ্জ জেলা, সিলেট বিভাগ, বাংলাদেশ",Habiganj,বাংলাদেশ,সিলেট বিভাগ,local_admin,boundaries,['railway_station'],[],Bangladesh,Sylhet,Habiganj,Madhabpur,Bagasura,47c3bbcfe3be6d62a6b66977bb765c08
4009557506.0,893cc48ebd7ffff,24.5040359,91.3459536,Baniachong Shahi Eidgah,,"Baniachong Shahi Eidgah, Baniachong Upazila, Habiganj District, Sylhet Division, Bangladesh","বানিয়াচং শাহি ইডগাহ, বানিয়াচং উপজেলা, হবিগঞ্জ জেলা, সিলেট বিভাগ, বাংলাদেশ",বানিয়াচং উপজেলা,বাংলাদেশ,সিলেট বিভাগ,local_admin,boundaries,['place_of_worship_muslim'],[],Bangladesh,Sylhet,Habiganj,Baniachong,DakshinPaschimBaniyachang,49aea7b15c00f7fd206bb64b4b4d38d7
4009560129.0,893cc48e9abffff,24.5248147,91.368326,Bibir Muqam Masjid,,"Bibir Muqam Masjid, Baniachong Upazila, Habiganj District, Sylhet Division, Bangladesh","বিবির মুকাম মসজিদ, বানিয়াচং উপজেলা, হবিগঞ্জ জেলা, সিলেট বিভাগ, বাংলাদেশ",বানিয়াচং উপজেলা,বাংলাদেশ,সিলেট বিভাগ,local_admin,boundaries,['place_of_worship_muslim'],[],Bangladesh,Sylhet,Habiganj,Baniachong,UttarPurbaBaniachang,869d787c4ce792973a2f72d9e884fc4e
4547001589.0,893cc400453ffff,24.2113065,91.3577367,,['Shahjibazar Power Company Residential Area'],"Madhabpur, Habiganj District, Sylhet Division, Bangladesh","হবিগঞ্জ জেলা, সিলেট বিভাগ, বাংলাদেশ",Madhabpur,বাংলাদেশ,সিলেট বিভাগ,local_admin,boundaries,['guest_house'],[],Bangladesh,Sylhet,Habiganj,Madhabpur,Noapara,c1294ee7242abafc638b6fcf9f9f0a93
2332892994.0,893cc480a17ffff,24.5515794,91.2355889,Ajmiriganj Upazila Health Complex,,"Ajmiriganj Upazila Health Complex, Ajmiriganj Upazila, Habiganj District, Sylhet Division, Bangladesh","আজমিরিগঞ্জ উপজিলা স্বাস্থ্য কমপ্লেক্স, আজমিরীগঞ্জ উপজেলা, হবিগঞ্জ জেলা, সিলেট বিভাগ, বাংলাদেশ",আজমিরীগঞ্জ উপজেলা,বাংলাদেশ,সিলেট বিভাগ,local_admin,boundaries,['hospital'],[],Bangladesh,Sylhet,Habiganj,Ajmiriganj,AjmiriganjPaurashava,003122ff653cc2a083956c1cfb7fa831
2333151684.0,893cc40a607ffff,24.0971494,91.2875089,Madhabpur Upazila Health Complex,,"Madhabpur Upazila Health Complex, Madhabpur, Habiganj District, Sylhet Division, Bangladesh","মাধাবপুর উপজিলা স্বাস্থ্য কমপ্লেক্স, হবিগঞ্জ জেলা, সিলেট বিভাগ, বাংলাদেশ",Madhabpur,বাংলাদেশ,সিলেট বিভাগ,local_admin,boundaries,['hospital'],[],Bangladesh,Sylhet,Habiganj,Madhabpur,MadhabpurPaurashava,129ead5c89bd8b1dadee581772c98697
5172371140.0,893cc4021b7ffff,24.2706936,91.3840687,ডাচ-বাংলা ব্যাংক লিমিটেড এটিএম,['Dutch-Bangla Bank Limited ATM'],"Dutch-Bangla Bank Ltd ATM, Habiganj, Habiganj District, Sylhet Division, Bangladesh","ডাচ-বাংলা ব্যাংক লিমিটেড এটিএম, হবিগঞ্জ জেলা, সিলেট বিভাগ, বাংলাদেশ",Habiganj,বাংলাদেশ,সিলেট বিভাগ,local_admin,boundaries,['bank'],[],Bangladesh,Sylhet,Habiganj,HabiganjSadar,Nurpur,e172b842a1fa274c649c2bbb4e3296a3
5172371769.0,893cc402103ffff,24.2623653,91.3794684,Pubali Bank Limited,,"Pubali Bank Limited, Habiganj, Habiganj District, Sylhet Division, Bangladesh","পাবালি ব্যাংক লিমিটেড, হবিগঞ্জ জেলা, সিলেট বিভাগ, বাংলাদেশ",Habiganj,বাংলাদেশ,সিলেট বিভাগ,local_admin,boundaries,['bank'],[],Bangladesh,Sylhet,Habiganj,HabiganjSadar,Nurpur,e172b842a1fa274c649c2bbb4e3296a3
5172378019.0,893cc40214bffff,24.25146,91.3734887,M/s Foteh Gazi Filling Station,,"M/s Foteh Gazi Filling Station, Madhabpur, Habiganj District, Sylhet Division, Bangladesh","মেসার্স ফোটেহ গাজী ফিলিং স্টেশন, হবিগঞ্জ জেলা, সিলেট বিভাগ, বাংলাদেশ",Madhabpur,বাংলাদেশ,সিলেট বিভাগ,local_admin,boundaries,['fuel'],[],Bangladesh,Sylhet,Habiganj,Madhabpur,Bagasura,47c3bbcfe3be6d62a6b66977bb765c08
5172378258.0,893cc402147ffff,24.2545898,91.3757104,Farid tea stall,,"Farid tea stall, Madhabpur, Habiganj District, Sylhet Division, Bangladesh","ফরিদ চা স্টল, হবিগঞ্জ জেলা, সিলেট বিভাগ, বাংলাদেশ",Madhabpur,বাংলাদেশ,সিলেট বিভাগ,local_admin,boundaries,['cafe'],[],Bangladesh,Sylhet,Habiganj,Madhabpur,Bagasura,47c3bbcfe3be6d62a6b66977bb765c08
5172379896.0,893cc402307ffff,24.241936,91.3737171,Bikash Hair Style,,"Bikash Hair Style, Madhabpur, Habiganj District, Sylhet Division, Bangladesh","বিকশ চুলের স্টাইল, হবিগঞ্জ জেলা, সিলেট বিভাগ, বাংলাদেশ",Madhabpur,বাংলাদেশ,সিলেট বিভাগ,local_admin,boundaries,['hairdresser'],[],Bangladesh,Sylhet,Habiganj,Madhabpur,Bagasura,47c3bbcfe3be6d62a6b66977bb765c08
5172383425.0,893cc400487ffff,24.2251504,91.3654282,এম আর অনু মোবাইল শপ,,"MO MOBILE SOP, Madhabpur, Habiganj District, Sylhet Division, Bangladesh","এম আর অনু মোবাইল শপ, হবিগঞ্জ জেলা, সিলেট বিভাগ, বাংলাদেশ",Madhabpur,বাংলাদেশ,সিলেট বিভাগ,local_admin,boundaries,['clothes'],[],Bangladesh,Sylhet,Habiganj,Madhabpur,Bagasura,47c3bbcfe3be6d62a6b66977bb765c08
5172389714.0,893cc400453ffff,24.2142952,91.3586824,Sahpur Bus Stop,,"Sahpur Bus Stop, Madhabpur, Habiganj District, Sylhet Division, Bangladesh","সাহপুর বাস স্টপ, হবিগঞ্জ জেলা, সিলেট বিভাগ, বাংলাদেশ",Madhabpur,বাংলাদেশ,সিলেট বিভাগ,street,boundaries,['bus_stop'],[],Bangladesh,Sylhet,Habiganj,Madhabpur,Noapara,c1294ee7242abafc638b6fcf9f9f0a93
5172392814.0,893cc4006d7ffff,24.1983636,91.3511575,Ratanpur Bus Stand,,"Ratanpur Bus Stand, Madhabpur, Habiganj District, Sylhet Division, Bangladesh","রতানপুর বাস স্ট্যান্ড, হবিগঞ্জ জেলা, সিলেট বিভাগ, বাংলাদেশ",Madhabpur,বাংলাদেশ,সিলেট বিভাগ,local_admin,boundaries,['bus_station'],[],Bangladesh,Sylhet,Habiganj,Madhabpur,Noapara,c1294ee7242abafc638b6fcf9f9f0a93
5172393867.0,893cc401587ffff,24.1832589,91.3511146,Noapara Union Parishad Complex,,"Noapara Union Parishad Complex, Madhabpur, Habiganj District, Sylhet Division, Bangladesh","নওপুর ইউনিয়ন পরিশাদ কমপ্লেক্স, হবিগঞ্জ জেলা, সিলেট বিভাগ, বাংলাদেশ",Madhabpur,বাংলাদেশ,সিলেট বিভাগ,local_admin,boundaries,['government'],[],Bangladesh,Sylhet,Habiganj,Madhabpur,Noapara,c1294ee7242abafc638b6fcf9f9f0a93
5172396659.0,893cc40065bffff,24.1880075,91.3508541,ডাচ-বাংলা ব্যাংক লিমিটেড এটিএম,['Dutch-Bangla Bank Limited ATM'],"Dutch-Bangla Bank Ltd ATM, Madhabpur, Habiganj District, Sylhet Division, Bangladesh","ডাচ-বাংলা ব্যাংক লিমিটেড এটিএম, হবিগঞ্জ জেলা, সিলেট বিভাগ, বাংলাদেশ",Madhabpur,বাংলাদেশ,সিলেট বিভাগ,local_admin,boundaries,['atm'],[],Bangladesh,Sylhet,Habiganj,Madhabpur,Noapara,c1294ee7242abafc638b6fcf9f9f0a93
5172398736.0,893cc40151bffff,24.1745085,91.3492596,Saheb bari sp,,"Saheb bari sp, Madhabpur, Habiganj District, Sylhet Division, Bangladesh","সাহেব বারী এসপি, হবিগঞ্জ জেলা, সিলেট বিভাগ, বাংলাদেশ",Madhabpur,বাংলাদেশ,সিলেট বিভাগ,local_admin,boundaries,['cafe'],[],Bangladesh,Sylhet,Habiganj,Madhabpur,Noapara,c1294ee7242abafc638b6fcf9f9f0a93
5172404957.0,893cc40a5abffff,24.1282872,91.3198317,Andiura Union Parishad Complex,,"Andiura Union Parishad Complex, Madhabpur, Habiganj District, Sylhet Division, Bangladesh","অ্যান্ডিউরা ইউনিয়ন পরিশাদ কমপ্লেক্স, হবিগঞ্জ জেলা, সিলেট বিভাগ, বাংলাদেশ",Madhabpur,বাংলাদেশ,সিলেট বিভাগ,local_admin,boundaries,['government'],[],Bangladesh,Sylhet,Habiganj,Madhabpur,Andiurauk,69c4d6639def19e8103c7d7a417bc630
5172407067.0,893cc40100bffff,24.1485942,91.3470593,Hotel Kismat,,"Hotel Kismat, Madhabpur, Habiganj District, Sylhet Division, Bangladesh","হোটেল কিসম্যাট, হবিগঞ্জ জেলা, সিলেট বিভাগ, বাংলাদেশ",Madhabpur,বাংলাদেশ,সিলেট বিভাগ,local_admin,boundaries,['restaurant'],[],Bangladesh,Sylhet,Habiganj,Madhabpur,Jagadishpur,c10a9877236a626684fd53fde0fa9fe2
5172407929.0,893cc401047ffff,24.1470425,91.34407,Pansi Restaurant,,"Pansi Restaurant, Madhabpur, Habiganj District, Sylhet Division, Bangladesh","পানসি রেস্তোঁরা, হবিগঞ্জ জেলা, সিলেট বিভাগ, বাংলাদেশ",Madhabpur,বাংলাদেশ,সিলেট বিভাগ,local_admin,boundaries,['restaurant'],[],Bangladesh,Sylhet,Habiganj,Madhabpur,Jagadishpur,c10a9877236a626684fd53fde0fa9fe2
5172409543.0,893cc401667ffff,24.1389878,91.3310765,"Milon Mondir, Bejura",,"Milon Mondir Bejura, Madhabpur, Habiganj District, Sylhet Division, Bangladesh","মিলন মন্ডির বেজুরা, হবিগঞ্জ জেলা, সিলেট বিভাগ, বাংলাদেশ",Madhabpur,বাংলাদেশ,সিলেট বিভাগ,local_admin,boundaries,['place_of_worship'],[],Bangladesh,Sylhet,Habiganj,Madhabpur,Jagadishpur,c10a9877236a626684fd53fde0fa9fe2
5172411119.0,893cc40a5b7ffff,24.1341008,91.3232438,"Andiura, Madhobpur, Habigonj",,"Andiura Madhobpur Habigonj, Madhabpur, Habiganj District, Sylhet Division, Bangladesh","অ্যান্ডিউরা মাধবপুর হবিগঞ্জ, হবিগঞ্জ জেলা, সিলেট বিভাগ, বাংলাদেশ",Madhabpur,বাংলাদেশ,সিলেট বিভাগ,local_admin,boundaries,['fuel'],[],Bangladesh,Sylhet,Habiganj,Madhabpur,Jagadishpur,c10a9877236a626684fd53fde0fa9fe2
5172413991.0,893cc40a5abffff,24.1278313,91.3198517,High School Masjid,,"High School Masjid, Madhabpur, Habiganj District, Sylhet Division, Bangladesh","উচ্চ বিদ্যালয়ের মসজিদ, হবিগঞ্জ জেলা, সিলেট বিভাগ, বাংলাদেশ",Madhabpur,বাংলাদেশ,সিলেট বিভাগ,local_admin,boundaries,['place_of_worship_muslim'],[],Bangladesh,Sylhet,Habiganj,Madhabpur,Andiurauk,69c4d6639def19e8103c7d7a417bc630
5172414441.0,893cc40a503ffff,24.1227976,91.3152337,Baksair Bus Stand,,"Baksair Bus Stand, Madhabpur, Habiganj District, Sylhet Division, Bangladesh","বাকসায়ার বাস স্ট্যান্ড, হবিগঞ্জ জেলা, সিলেট বিভাগ, বাংলাদেশ",Madhabpur,বাংলাদেশ,সিলেট বিভাগ,local_admin,boundaries,['bus_station'],[],Bangladesh,Sylhet,Habiganj,Madhabpur,Andiurauk,69c4d6639def19e8103c7d7a417bc630
5172417927.0,893cc40a503ffff,24.1226641,91.3141389,Hotel Highway Inn,,"Hotel Highway Inn, Madhabpur, Habiganj District, Sylhet Division, Bangladesh","হোটেল হাইওয়ে ইন, হবিগঞ্জ জেলা, সিলেট বিভাগ, বাংলাদেশ",Madhabpur,বাংলাদেশ,সিলেট বিভাগ,local_admin,boundaries,['restaurant'],[],Bangladesh,Sylhet,Habiganj,Madhabpur,Andiurauk,69c4d6639def19e8103c7d7a417bc630
5172418925.0,893cc40a093ffff,24.1106634,91.3026818,College Masjid,,"College Masjid, Madhabpur, Habiganj District, Sylhet Division, Bangladesh","কলেজ মসজিদ, হবিগঞ্জ জেলা, সিলেট বিভাগ, বাংলাদেশ",Madhabpur,বাংলাদেশ,সিলেট বিভাগ,local_admin,boundaries,['place_of_worship_muslim'],[],Bangladesh,Sylhet,Habiganj,Madhabpur,MadhabpurPaurashava,129ead5c89bd8b1dadee581772c98697
4770915329.0,893cc40a633ffff,24.0965789,91.2904649,Madhabpur Bus Stand,,"Madhabpur Bus Stand, Madhabpur, Habiganj District, Sylhet Division, Bangladesh","মাধাবপুর বাস স্ট্যান্ড, হবিগঞ্জ জেলা, সিলেট বিভাগ, বাংলাদেশ",Madhabpur,বাংলাদেশ,সিলেট বিভাগ,street,boundaries,['bus_stop'],[],Bangladesh,Sylhet,Habiganj,Madhabpur,MadhabpurPaurashava,129ead5c89bd8b1dadee581772c98697
5730090442.0,893cc4021b3ffff,24.2718981,91.3799022,,,"Habiganj, Habiganj District, Sylhet Division, Bangladesh","হবিগঞ্জ জেলা, সিলেট বিভাগ, বাংলাদেশ",Habiganj,বাংলাদেশ,সিলেট বিভাগ,local_admin,boundaries,['hospital'],[],Bangladesh,Sylhet,Habiganj,HabiganjSadar,Nurpur,e172b842a1fa274c649c2bbb4e3296a3
5876122517.0,893cc4015a3ffff,24.1807988,91.3567044,নোয়াপাড়া,['Noapara Train Station'],"Noapara, Madhabpur, Habiganj District, Sylhet Division, Bangladesh","নোয়াপাড়া, হবিগঞ্জ জেলা, সিলেট বিভাগ, বাংলাদেশ",Madhabpur,বাংলাদেশ,সিলেট বিভাগ,local_admin,boundaries,['railway_station'],[],Bangladesh,Sylhet,Habiganj,Madhabpur,Noapara,c1294ee7242abafc638b6fcf9f9f0a93
5876288566.0,893cc4015abffff,24.1788446,91.3560557,Noapara Bazar,,"Noapara Bazar, Madhabpur, Habiganj District, Sylhet Division, Bangladesh","নওপুর বাজার, হবিগঞ্জ জেলা, সিলেট বিভাগ, বাংলাদেশ",Madhabpur,বাংলাদেশ,সিলেট বিভাগ,local_admin,boundaries,['marketplace'],[],Bangladesh,Sylhet,Habiganj,Madhabpur,Noapara,c1294ee7242abafc638b6fcf9f9f0a93
5114603823.0,893cc40a633ffff,24.096493,91.291244,,['Molla Market 2'],"Madhabpur, Habiganj District, Sylhet Division, Bangladesh","হবিগঞ্জ জেলা, সিলেট বিভাগ, বাংলাদেশ",Madhabpur,বাংলাদেশ,সিলেট বিভাগ,local_admin,boundaries,['supermarket'],[],Bangladesh,Sylhet,Habiganj,Madhabpur,MadhabpurPaurashava,129ead5c89bd8b1dadee581772c98697
5114646221.0,893cc40a633ffff,24.0963347,91.2905865,,['Molla fast food & confectionery'],"Madhabpur, Habiganj District, Sylhet Division, Bangladesh","হবিগঞ্জ জেলা, সিলেট বিভাগ, বাংলাদেশ",Madhabpur,বাংলাদেশ,সিলেট বিভাগ,local_admin,boundaries,['cafe'],[],Bangladesh,Sylhet,Habiganj,Madhabpur,MadhabpurPaurashava,129ead5c89bd8b1dadee581772c98697
5114681121.0,893cc40a6afffff,24.0996707,91.2922636,,['Krisnonog'],"Madhabpur, Habiganj District, Sylhet Division, Bangladesh","হবিগঞ্জ জেলা, সিলেট বিভাগ, বাংলাদেশ",Madhabpur,বাংলাদেশ,সিলেট বিভাগ,local_admin,boundaries,['guest_house'],[],Bangladesh,Sylhet,Habiganj,Madhabpur,MadhabpurPaurashava,129ead5c89bd8b1dadee581772c98697
5172423527.0,893cc40a0d3ffff,24.1052899,91.2975102,Madhabpur Central Eidgah,,"Madhabpur Central Eidgah, Madhabpur, Habiganj District, Sylhet Division, Bangladesh","মাধাবপুর কেন্দ্রীয় Eid দগা, হবিগঞ্জ জেলা, সিলেট বিভাগ, বাংলাদেশ",Madhabpur,বাংলাদেশ,সিলেট বিভাগ,local_admin,boundaries,['place_of_worship_muslim'],[],Bangladesh,Sylhet,Habiganj,Madhabpur,MadhabpurPaurashava,129ead5c89bd8b1dadee581772c98697
5172423871.0,893cc40a0d7ffff,24.1053411,91.2996012,Madhabpur Model Government Primary School,,"Madhabpur Model Government Primary School, Madhabpur, Habiganj District, Sylhet Division, Bangladesh","মাধাবপুর মডেল সরকার প্রাথমিক বিদ্যালয়, হবিগঞ্জ জেলা, সিলেট বিভাগ, বাংলাদেশ",Madhabpur,বাংলাদেশ,সিলেট বিভাগ,local_admin,boundaries,['school'],[],Bangladesh,Sylhet,Habiganj,Madhabpur,MadhabpurPaurashava,129ead5c89bd8b1dadee581772c98697
5172547887.0,893cc40a0dbffff,24.1018008,91.2955518,Shushan Filling Station,,"Shushan Filling Station, Madhabpur, Habiganj District, Sylhet Division, Bangladesh","শুশান ফিলিং স্টেশন, হবিগঞ্জ জেলা, সিলেট বিভাগ, বাংলাদেশ",Madhabpur,বাংলাদেশ,সিলেট বিভাগ,local_admin,boundaries,['fuel'],[],Bangladesh,Sylhet,Habiganj,Madhabpur,MadhabpurPaurashava,129ead5c89bd8b1dadee581772c98697
5172550373.0,893cc40a0dbffff,24.1011582,91.2945149,Bata Shoes,,"Bata Shoes, Madhabpur, Habiganj District, Sylhet Division, Bangladesh","বাটা জুতা, হবিগঞ্জ জেলা, সিলেট বিভাগ, বাংলাদেশ",Madhabpur,বাংলাদেশ,সিলেট বিভাগ,local_admin,boundaries,['shoes'],[],Bangladesh,Sylhet,Habiganj,Madhabpur,MadhabpurPaurashava,129ead5c89bd8b1dadee581772c98697
5172551430.0,893cc40a0dbffff,24.0995081,91.2949238,Madhabpur Fire Station,,"Madhabpur Fire Station, Madhabpur, Habiganj District, Sylhet Division, Bangladesh","মাধাবপুর ফায়ার স্টেশন, হবিগঞ্জ জেলা, সিলেট বিভাগ, বাংলাদেশ",Madhabpur,বাংলাদেশ,সিলেট বিভাগ,local_admin,boundaries,['fire_station'],[],Bangladesh,Sylhet,Habiganj,Madhabpur,MadhabpurPaurashava,129ead5c89bd8b1dadee581772c98697
5172553940.0,893cc40a633ffff,24.0979787,91.2923409,The Care Medicine Karnar,,"The Care Medicine Karnar, Madhabpur, Habiganj District, Sylhet Division, Bangladesh","কেয়ার মেডিসিন কর্নার, হবিগঞ্জ জেলা, সিলেট বিভাগ, বাংলাদেশ",Madhabpur,বাংলাদেশ,সিলেট বিভাগ,local_admin,boundaries,['pharmacy'],[],Bangladesh,Sylhet,Habiganj,Madhabpur,MadhabpurPaurashava,129ead5c89bd8b1dadee581772c98697
5172553948.0,893cc40a633ffff,24.0980668,91.2923342,Rejiya Electronics,,"Rejiya Electronics, Madhabpur, Habiganj District, Sylhet Division, Bangladesh","রেজিয়া ইলেকট্রনিক্স, হবিগঞ্জ জেলা, সিলেট বিভাগ, বাংলাদেশ",Madhabpur,বাংলাদেশ,সিলেট বিভাগ,local_admin,boundaries,['electronics'],[],Bangladesh,Sylhet,Habiganj,Madhabpur,MadhabpurPaurashava,129ead5c89bd8b1dadee581772c98697
5172553958.0,893cc40a633ffff,24.097914,91.2921677,SINGER Plus,,"SINGER Plus, Madhabpur, Habiganj District, Sylhet Division, Bangladesh","গায়ক প্লাস, হবিগঞ্জ জেলা, সিলেট বিভাগ, বাংলাদেশ",Madhabpur,বাংলাদেশ,সিলেট বিভাগ,local_admin,boundaries,['electronics'],[],Bangladesh,Sylhet,Habiganj,Madhabpur,MadhabpurPaurashava,129ead5c89bd8b1dadee581772c98697
6280914092.0,893cc48620bffff,24.644906,91.3077807,"Protap pur's south para's Durga temple, land area- 2 decimal. length 10 feet, width- 8 feet",['logic_undp'],"Protap pur's south para's Durga temple land area- 2 decimal. length 10 feet width- 8 feet, Sulla, Sunamganj District, Sylhet Division, Bangladesh","প্রোটাপ পুরর দক্ষিণ প্যারা দুর্গা মন্দিরের জমি অঞ্চল- 2 দশমিক।দৈর্ঘ্য 10 ফুট প্রস্থ- 8 ফুট, সুনামগঞ্জ জেলা, সিলেট বিভাগ, বাংলাদেশ",Sulla,বাংলাদেশ,সিলেট বিভাগ,local_admin,boundaries,['place_of_worship'],[],Bangladesh,Sylhet,Habiganj,Ajmiriganj,Badalpur,70538e1ffed51a128828b7bcc8e4f0b5
5172553980.0,893cc40a633ffff,24.0974648,91.2905651,Madhabpur Upazila Parishad Complex,,"Madhabpur Upazila Parishad Complex, Madhabpur, Habiganj District, Sylhet Division, Bangladesh","মাধাবপুর উপজিলা পরিশাদ কমপ্লেক্স, হবিগঞ্জ জেলা, সিলেট বিভাগ, বাংলাদেশ",Madhabpur,বাংলাদেশ,সিলেট বিভাগ,local_admin,boundaries,['government'],[],Bangladesh,Sylhet,Habiganj,Madhabpur,MadhabpurPaurashava,129ead5c89bd8b1dadee581772c98697
6280914139.0,893cc4871a3ffff,24.6333109,91.3053238,"Loripasha govt primary school. length 100 feet, width 50 feet. , one floor pucca building with 4 room",['logic_undp'],"Loripasha govt primary school. length 100 feet width 50 feet. one floor pucca building with 4 room, Sulla, Sunamganj District, Sylhet Division, Bangladesh","লরিপাশা গভর্নমেন্ট প্রাথমিক বিদ্যালয়।দৈর্ঘ্য 100 ফুট প্রস্থ 50 ফুট।4 কক্ষ সহ এক তল পুকা বিল্ডিং, সুনামগঞ্জ জেলা, সিলেট বিভাগ, বাংলাদেশ",Sulla,বাংলাদেশ,সিলেট বিভাগ,local_admin,boundaries,['school'],[],Bangladesh,Sylhet,Habiganj,Ajmiriganj,Badalpur,70538e1ffed51a128828b7bcc8e4f0b5
5172554957.0,893cc40a633ffff,24.0969595,91.2900958,জেলা পরিষদ রেস্ট হাউস,,"Zilla Parishad Rest House, Madhabpur, Habiganj District, Sylhet Division, Bangladesh","জেলা পরিষদ রেস্ট হাউস, হবিগঞ্জ জেলা, সিলেট বিভাগ, বাংলাদেশ",Madhabpur,বাংলাদেশ,সিলেট বিভাগ,local_admin,boundaries,['guest_house'],[],Bangladesh,Sylhet,Habiganj,Madhabpur,MadhabpurPaurashava,129ead5c89bd8b1dadee581772c98697
5172556102.0,893cc40a633ffff,24.0969747,91.2899813,আনসার-ভিডিপি উন্নয়ন ব্যাংক,,"Ansar-VDP Development Bank, Madhabpur, Habiganj District, Sylhet Division, Bangladesh","আনসার-ভিডিপি উন্নয়ন ব্যাংক, হবিগঞ্জ জেলা, সিলেট বিভাগ, বাংলাদেশ",Madhabpur,বাংলাদেশ,সিলেট বিভাগ,local_admin,boundaries,['bank'],[],Bangladesh,Sylhet,Habiganj,Madhabpur,MadhabpurPaurashava,129ead5c89bd8b1dadee581772c98697
5172556736.0,893cc40a633ffff,24.0963576,91.2911267,মোল্লা বিদ্যুৎ অটো জেনারেটর সার্ভিস,,"Molla Electric Auto Generator Service, Madhabpur, Habiganj District, Sylhet Division, Bangladesh","মোল্লা বিদ্যুৎ অটো জেনারেটর সার্ভিস, হবিগঞ্জ জেলা, সিলেট বিভাগ, বাংলাদেশ",Madhabpur,বাংলাদেশ,সিলেট বিভাগ,local_admin,boundaries,['electronics'],[],Bangladesh,Sylhet,Habiganj,Madhabpur,MadhabpurPaurashava,129ead5c89bd8b1dadee581772c98697
5172559577.0,893cc40a633ffff,24.0961826,91.290285,Madhabpur Bus Stand,,"Madhabpur Bus Stand, Madhabpur, Habiganj District, Sylhet Division, Bangladesh","মাধাবপুর বাস স্ট্যান্ড, হবিগঞ্জ জেলা, সিলেট বিভাগ, বাংলাদেশ",Madhabpur,বাংলাদেশ,সিলেট বিভাগ,local_admin,boundaries,['bus_station'],[],Bangladesh,Sylhet,Habiganj,Madhabpur,MadhabpurPaurashava,129ead5c89bd8b1dadee581772c98697
5172562521.0,893cc40a607ffff,24.0963843,91.2899196,Like Fashion,,"Like Fashion, Madhabpur, Habiganj District, Sylhet Division, Bangladesh","ফ্যাশন মত, হবিগঞ্জ জেলা, সিলেট বিভাগ, বাংলাদেশ",Madhabpur,বাংলাদেশ,সিলেট বিভাগ,local_admin,boundaries,['clothes'],[],Bangladesh,Sylhet,Habiganj,Madhabpur,MadhabpurPaurashava,129ead5c89bd8b1dadee581772c98697
6622356353.0,893cc48ed27ffff,24.5362902,91.3553524,আদর্শ বাজার,,"Ideal market, Baniachong Upazila, Habiganj District, Sylhet Division, Bangladesh","আদর্শ বাজার, বানিয়াচং উপজেলা, হবিগঞ্জ জেলা, সিলেট বিভাগ, বাংলাদেশ",বানিয়াচং উপজেলা,বাংলাদেশ,সিলেট বিভাগ,local_admin,boundaries,['marketplace'],[],Bangladesh,Sylhet,Habiganj,Baniachong,UttarPurbaBaniachang,869d787c4ce792973a2f72d9e884fc4e
5172615021.0,893cc40a607ffff,24.0957499,91.2899088,অতিথি রেস্তোরা,,"Guest restaurant, Madhabpur, Habiganj District, Sylhet Division, Bangladesh","অতিথি রেস্তোরা, হবিগঞ্জ জেলা, সিলেট বিভাগ, বাংলাদেশ",Madhabpur,বাংলাদেশ,সিলেট বিভাগ,local_admin,boundaries,['restaurant'],[],Bangladesh,Sylhet,Habiganj,Madhabpur,MadhabpurPaurashava,129ead5c89bd8b1dadee581772c98697
5172616258.0,893cc40a607ffff,24.0954466,91.2899931,Rupali Bank Limited,,"Rupali Bank Limited, Madhabpur, Habiganj District, Sylhet Division, Bangladesh","রুপালি ব্যাংক লিমিটেড, হবিগঞ্জ জেলা, সিলেট বিভাগ, বাংলাদেশ",Madhabpur,বাংলাদেশ,সিলেট বিভাগ,local_admin,boundaries,['bank'],[],Bangladesh,Sylhet,Habiganj,Madhabpur,MadhabpurPaurashava,129ead5c89bd8b1dadee581772c98697
6652443017.0,893cc48e917ffff,24.524342,91.3621585,শহীদ মিনার,,"Shaheed Minar, Baniachong Upazila, Habiganj District, Sylhet Division, Bangladesh","শহীদ মিনার, বানিয়াচং উপজেলা, হবিগঞ্জ জেলা, সিলেট বিভাগ, বাংলাদেশ",বানিয়াচং উপজেলা,বাংলাদেশ,সিলেট বিভাগ,local_admin,boundaries,['monument'],[],Bangladesh,Sylhet,Habiganj,Baniachong,UttarPurbaBaniachang,869d787c4ce792973a2f72d9e884fc4e
5172679434.0,893cc40a607ffff,24.095384,91.2896214,ঝুলন মন্দির,,"Jhulan Temple, Madhabpur, Habiganj District, Sylhet Division, Bangladesh","ঝুলন মন্দির, হবিগঞ্জ জেলা, সিলেট বিভাগ, বাংলাদেশ",Madhabpur,বাংলাদেশ,সিলেট বিভাগ,local_admin,boundaries,['place_of_worship'],[],Bangladesh,Sylhet,Habiganj,Madhabpur,MadhabpurPaurashava,129ead5c89bd8b1dadee581772c98697
6652443018.0,893cc48e917ffff,24.5242005,91.362137,Boro Bazar Auto Stand,,"Boro Bazar Auto Stand, Baniachong Upazila, Habiganj District, Sylhet Division, Bangladesh","বোরো বাজার অটো স্ট্যান্ড, বানিয়াচং উপজেলা, হবিগঞ্জ জেলা, সিলেট বিভাগ, বাংলাদেশ",বানিয়াচং উপজেলা,বাংলাদেশ,সিলেট বিভাগ,street,boundaries,['bus_stop'],[],Bangladesh,Sylhet,Habiganj,Baniachong,UttarPurbaBaniachang,869d787c4ce792973a2f72d9e884fc4e
5172679580.0,893cc40a607ffff,24.095261,91.2898968,Al-Arafah Islami Bank Limited,,"Al-Arafah Islami Bank Limited, Madhabpur, Habiganj District, Sylhet Division, Bangladesh","আল-আরাফাহ ইসলামি ব্যাংক লিমিটেড, হবিগঞ্জ জেলা, সিলেট বিভাগ, বাংলাদেশ",Madhabpur,বাংলাদেশ,সিলেট বিভাগ,local_admin,boundaries,['bank'],[],Bangladesh,Sylhet,Habiganj,Madhabpur,MadhabpurPaurashava,129ead5c89bd8b1dadee581772c98697
5172679604.0,893cc40a607ffff,24.0952802,91.2894962,Barsha Telecom,,"Barsha Telecom, Madhabpur, Habiganj District, Sylhet Division, Bangladesh","বার্সা টেলিকম, হবিগঞ্জ জেলা, সিলেট বিভাগ, বাংলাদেশ",Madhabpur,বাংলাদেশ,সিলেট বিভাগ,local_admin,boundaries,['mobile_phone'],[],Bangladesh,Sylhet,Habiganj,Madhabpur,MadhabpurPaurashava,129ead5c89bd8b1dadee581772c98697
6654717571.0,893cc48e98fffff,24.5260331,91.3603038,রাজবাড়ী জামে মসজিদ,['Rajbari Jame Masjid'],"Rajbari Jame Mosque, Baniachong Upazila, Habiganj District, Sylhet Division, Bangladesh","রাজবাড়ী জামে মসজিদ, বানিয়াচং উপজেলা, হবিগঞ্জ জেলা, সিলেট বিভাগ, বাংলাদেশ",বানিয়াচং উপজেলা,বাংলাদেশ,সিলেট বিভাগ,local_admin,boundaries,['place_of_worship_muslim'],[],Bangladesh,Sylhet,Habiganj,Baniachong,UttarPurbaBaniachang,869d787c4ce792973a2f72d9e884fc4e
5172682276.0,893cc40a63bffff,24.0948358,91.2898215,আল-আরাফাহ ইসলামী ব্যাংক লিমিটেড এটিএম,['Al-Arafah Islami Bank Limited ATM'],"Al-Arafah Islami Bank Limited ATM, Madhabpur, Habiganj District, Sylhet Division, Bangladesh","আল-আরাফাহ ইসলামী ব্যাংক লিমিটেড এটিএম, হবিগঞ্জ জেলা, সিলেট বিভাগ, বাংলাদেশ",Madhabpur,বাংলাদেশ,সিলেট বিভাগ,local_admin,boundaries,['bank'],[],Bangladesh,Sylhet,Habiganj,Madhabpur,MadhabpurPaurashava,129ead5c89bd8b1dadee581772c98697
6654720433.0,893cc48e98fffff,24.5265919,91.3600469,বানিয়াচং রাজবাড়ী,,"Baniachong Rajbari, Baniachong Upazila, Habiganj District, Sylhet Division, Bangladesh","বানিয়াচং রাজবাড়ী, বানিয়াচং উপজেলা, হবিগঞ্জ জেলা, সিলেট বিভাগ, বাংলাদেশ",বানিয়াচং উপজেলা,বাংলাদেশ,সিলেট বিভাগ,local_admin,boundaries,['museum'],[],Bangladesh,Sylhet,Habiganj,Baniachong,UttarPurbaBaniachang,869d787c4ce792973a2f72d9e884fc4e
6654720757.0,893cc48e98fffff,24.5259705,91.3600717,Entrance Gate,,"Entrance Gate, Baniachong Upazila, Habiganj District, Sylhet Division, Bangladesh","প্রবেশ দ্বার, বানিয়াচং উপজেলা, হবিগঞ্জ জেলা, সিলেট বিভাগ, বাংলাদেশ",বানিয়াচং উপজেলা,বাংলাদেশ,সিলেট বিভাগ,local_admin,boundaries,['gate'],[],Bangladesh,Sylhet,Habiganj,Baniachong,UttarPurbaBaniachang,869d787c4ce792973a2f72d9e884fc4e
5172684567.0,893cc40a607ffff,24.0951141,91.2884262,Madhabpur Bazar,,"Madhabpur Bazar, Madhabpur, Habiganj District, Sylhet Division, Bangladesh","মাধাবপুর বাজার, হবিগঞ্জ জেলা, সিলেট বিভাগ, বাংলাদেশ",Madhabpur,বাংলাদেশ,সিলেট বিভাগ,local_admin,boundaries,['marketplace'],[],Bangladesh,Sylhet,Habiganj,Madhabpur,MadhabpurPaurashava,129ead5c89bd8b1dadee581772c98697
5172688836.0,893cc40a63bffff,24.0935191,91.2891355,Islamia Filling Station,,"Islamia Filling Station, Madhabpur, Habiganj District, Sylhet Division, Bangladesh","ইসলামিয়া ফিলিং স্টেশন, হবিগঞ্জ জেলা, সিলেট বিভাগ, বাংলাদেশ",Madhabpur,বাংলাদেশ,সিলেট বিভাগ,local_admin,boundaries,['fuel'],[],Bangladesh,Sylhet,Habiganj,Madhabpur,MadhabpurPaurashava,129ead5c89bd8b1dadee581772c98697
6654728661.0,893cc48e917ffff,24.5242078,91.3616623,Boro Bazar,,"Boro Bazar, Baniachong Upazila, Habiganj District, Sylhet Division, Bangladesh","বোরো বাজার, বানিয়াচং উপজেলা, হবিগঞ্জ জেলা, সিলেট বিভাগ, বাংলাদেশ",বানিয়াচং উপজেলা,বাংলাদেশ,সিলেট বিভাগ,local_admin,boundaries,['marketplace'],[],Bangladesh,Sylhet,Habiganj,Baniachong,UttarPurbaBaniachang,869d787c4ce792973a2f72d9e884fc4e
5172696145.0,893cc40a63bffff,24.094399,91.2903593,এনআরবি ব্যাংক,['NRB Bank'],"NRB Bank, Madhabpur, Habiganj District, Sylhet Division, Bangladesh","এনআরবি ব্যাংক, হবিগঞ্জ জেলা, সিলেট বিভাগ, বাংলাদেশ",Madhabpur,বাংলাদেশ,সিলেট বিভাগ,local_admin,boundaries,['bank'],[],Bangladesh,Sylhet,Habiganj,Madhabpur,MadhabpurPaurashava,129ead5c89bd8b1dadee581772c98697
6656666615.0,893cc48e933ffff,24.5217895,91.3687608,Baniachang Police Station,,"Baniachang Police Station, Baniachong Upazila, Habiganj District, Sylhet Division, Bangladesh","বানিয়াচ্যাং থানা, বানিয়াচং উপজেলা, হবিগঞ্জ জেলা, সিলেট বিভাগ, বাংলাদেশ",বানিয়াচং উপজেলা,বাংলাদেশ,সিলেট বিভাগ,local_admin,boundaries,['police'],[],Bangladesh,Sylhet,Habiganj,Baniachong,UttarPurbaBaniachang,869d787c4ce792973a2f72d9e884fc4e
5172698905.0,893cc40a63bffff,24.0945238,91.2904264,প্রাইম ব্যাংক লিমিটেড এটিএম,['Prime Bank Limited ATM'],"Prime Bank Ltd ATM, Madhabpur, Habiganj District, Sylhet Division, Bangladesh","প্রাইম ব্যাংক লিমিটেড এটিএম, হবিগঞ্জ জেলা, সিলেট বিভাগ, বাংলাদেশ",Madhabpur,বাংলাদেশ,সিলেট বিভাগ,local_admin,boundaries,['bank'],[],Bangladesh,Sylhet,Habiganj,Madhabpur,MadhabpurPaurashava,129ead5c89bd8b1dadee581772c98697
6656728332.0,893cc48ed23ffff,24.5364999,91.3542963,Baniachang Ferry Terminal,,"Baniachang Ferry Terminal, Baniachong Upazila, Habiganj District, Sylhet Division, Bangladesh","বানিয়াচ্যাং ফেরি টার্মিনাল, বানিয়াচং উপজেলা, হবিগঞ্জ জেলা, সিলেট বিভাগ, বাংলাদেশ",বানিয়াচং উপজেলা,বাংলাদেশ,সিলেট বিভাগ,local_admin,boundaries,['ferry_terminal'],[],Bangladesh,Sylhet,Habiganj,Baniachong,UttarPurbaBaniachang,869d787c4ce792973a2f72d9e884fc4e
6656815344.0,893cc486dc7ffff,24.6917314,91.3811257,Markuli Bazar,,"Markuli Bazar, Baniachong Upazila, Habiganj District, Sylhet Division, Bangladesh","মার্কুলি বাজার, বানিয়াচং উপজেলা, হবিগঞ্জ জেলা, সিলেট বিভাগ, বাংলাদেশ",বানিয়াচং উপজেলা,বাংলাদেশ,সিলেট বিভাগ,local_admin,boundaries,['marketplace'],[],Bangladesh,Sylhet,Habiganj,Baniachong,Daulatpur,2bd33ec933abc34b9704221c3b188cdb
5172699016.0,893cc40a63bffff,24.094634,91.2904639,Prime Bank Limited,,"Prime Bank Limited, Madhabpur, Habiganj District, Sylhet Division, Bangladesh","প্রাইম ব্যাংক লিমিটেড, হবিগঞ্জ জেলা, সিলেট বিভাগ, বাংলাদেশ",Madhabpur,বাংলাদেশ,সিলেট বিভাগ,local_admin,boundaries,['bank'],[],Bangladesh,Sylhet,Habiganj,Madhabpur,MadhabpurPaurashava,129ead5c89bd8b1dadee581772c98697
8365180169.0,893cc400453ffff,24.211411,91.3578165,SPCL Helipad,,"SPCL Helipad, Madhabpur, Habiganj District, Sylhet Division, Bangladesh","এসপিসিএল হেলিপ্যাড, হবিগঞ্জ জেলা, সিলেট বিভাগ, বাংলাদেশ",Madhabpur,বাংলাদেশ,সিলেট বিভাগ,local_admin,boundaries,['helipad'],[],Bangladesh,Sylhet,Habiganj,Madhabpur,Noapara,c1294ee7242abafc638b6fcf9f9f0a93
9122739011.0,893cc4bb623ffff,24.5061494,91.3892466,,,"Baniachong Upazila, Habiganj District, Sylhet Division, Bangladesh","বানিয়াচং উপজেলা, হবিগঞ্জ জেলা, সিলেট বিভাগ, বাংলাদেশ",বানিয়াচং উপজেলা,বাংলাদেশ,সিলেট বিভাগ,local_admin,boundaries,['ford'],[],Bangladesh,Sylhet,Habiganj,Baniachong,DakshinPurbaBaniyachang,ad82841f89bf4c8ebae051f0670aced9
9706960173.0,893cc416553ffff,24.4244578,91.3964647,Khan Bahadur Ahia High School Atukura,,"Khan Bahadur Ahia High School Atukura, Baniachong Upazila, Habiganj District, Sylhet Division, Bangladesh","খান বাহাদুর আহিয়া উচ্চ বিদ্যালয় আতুকুরা, বানিয়াচং উপজেলা, হবিগঞ্জ জেলা, সিলেট বিভাগ, বাংলাদেশ",বানিয়াচং উপজেলা,বাংলাদেশ,সিলেট বিভাগ,local_admin,boundaries,"['educational_institution', 'school']",[],Bangladesh,Sylhet,Habiganj,Baniachong,Subidpur,a6e97b27b59d8e2ff5d80bb31a284134
9706960175.0,893cc48cb8bffff,24.4511738,91.3786988,Ratna High School,,"Ratna High School, Baniachong Upazila, Habiganj District, Sylhet Division, Bangladesh","রত্ন উচ্চ বিদ্যালয়, বানিয়াচং উপজেলা, হবিগঞ্জ জেলা, সিলেট বিভাগ, বাংলাদেশ",বানিয়াচং উপজেলা,বাংলাদেশ,সিলেট বিভাগ,local_admin,boundaries,"['educational_institution', 'school']",[],Bangladesh,Sylhet,Habiganj,Baniachong,Subidpur,a6e97b27b59d8e2ff5d80bb31a284134
9706960176.0,893cc48ce9bffff,24.4621813,91.336182,Mondary Sesdp Model High School,,"Mondary Sesdp Model High School, Baniachong Upazila, Habiganj District, Sylhet Division, Bangladesh","মন্ডারি এসইএসডিপি মডেল উচ্চ বিদ্যালয়, বানিয়াচং উপজেলা, হবিগঞ্জ জেলা, সিলেট বিভাগ, বাংলাদেশ",বানিয়াচং উপজেলা,বাংলাদেশ,সিলেট বিভাগ,local_admin,boundaries,"['educational_institution', 'school']",[],Bangladesh,Sylhet,Habiganj,Baniachong,Subidpur,a6e97b27b59d8e2ff5d80bb31a284134
9706960179.0,893cc48c36bffff,24.4386761,91.3218512,Hazrat Shah Jalal R High School,,"Hazrat Shah Jalal R High School, Baniachong Upazila, Habiganj District, Sylhet Division, Bangladesh","হযরত শাহ জালাল আর হাই স্কুল, বানিয়াচং উপজেলা, হবিগঞ্জ জেলা, সিলেট বিভাগ, বাংলাদেশ",বানিয়াচং উপজেলা,বাংলাদেশ,সিলেট বিভাগ,local_admin,boundaries,"['educational_institution', 'school']",[],Bangladesh,Sylhet,Habiganj,Baniachong,Mandari,c3c52a77ab72e58d68b55096eddd358b
9706960183.0,893cc48eba3ffff,24.5067259,91.3598809,Dr. Ilias Academy,,"Dr. Ilias Academy, Baniachong Upazila, Habiganj District, Sylhet Division, Bangladesh","ডাঃ ইলিয়াস একাডেমি, বানিয়াচং উপজেলা, হবিগঞ্জ জেলা, সিলেট বিভাগ, বাংলাদেশ",বানিয়াচং উপজেলা,বাংলাদেশ,সিলেট বিভাগ,local_admin,boundaries,"['educational_institution', 'school']",[],Bangladesh,Sylhet,Habiganj,Baniachong,DakshinPurbaBaniyachang,ad82841f89bf4c8ebae051f0670aced9
9706960184.0,893cc48e97bffff,24.5127923,91.3629413,Am Bagan Junior School,,"Am Bagan Junior School, Baniachong Upazila, Habiganj District, Sylhet Division, Bangladesh","আমি বাগান জুনিয়র স্কুল, বানিয়াচং উপজেলা, হবিগঞ্জ জেলা, সিলেট বিভাগ, বাংলাদেশ",বানিয়াচং উপজেলা,বাংলাদেশ,সিলেট বিভাগ,local_admin,boundaries,"['educational_institution', 'school']",[],Bangladesh,Sylhet,Habiganj,Baniachong,DakshinPurbaBaniyachang,ad82841f89bf4c8ebae051f0670aced9
9706960185.0,893cc48e9cfffff,24.5192661,91.3567446,Baniachang Govt. Girls High School,,"Baniachang Govt. Girls High School, Baniachong Upazila, Habiganj District, Sylhet Division, Bangladesh","বানিয়াচ্যাং সরকারগার্লস হাই স্কুল, বানিয়াচং উপজেলা, হবিগঞ্জ জেলা, সিলেট বিভাগ, বাংলাদেশ",বানিয়াচং উপজেলা,বাংলাদেশ,সিলেট বিভাগ,local_admin,boundaries,"['educational_institution', 'school']",[],Bangladesh,Sylhet,Habiganj,Baniachong,UttarPaschimBaniyachang,f2200e73663411283423939aa90cef4a
9707040180.0,893cc48e9abffff,24.5258997,91.3646712,Medhabikash High School,,"Medhabikash High School, Baniachong Upazila, Habiganj District, Sylhet Division, Bangladesh","মেধাবিকাশ উচ্চ বিদ্যালয়, বানিয়াচং উপজেলা, হবিগঞ্জ জেলা, সিলেট বিভাগ, বাংলাদেশ",বানিয়াচং উপজেলা,বাংলাদেশ,সিলেট বিভাগ,local_admin,boundaries,"['educational_institution', 'school']",[],Bangladesh,Sylhet,Habiganj,Baniachong,UttarPurbaBaniachang,869d787c4ce792973a2f72d9e884fc4e
9707040181.0,893cc48ed73ffff,24.5315398,91.3455143,Maharatnapara Sesdp Model High School,,"Maharatnapara Sesdp Model High School, Baniachong Upazila, Habiganj District, Sylhet Division, Bangladesh","মহরত্নপুর সেসডিপি মডেল হাই স্কুল, বানিয়াচং উপজেলা, হবিগঞ্জ জেলা, সিলেট বিভাগ, বাংলাদেশ",বানিয়াচং উপজেলা,বাংলাদেশ,সিলেট বিভাগ,local_admin,boundaries,"['educational_institution', 'school']",[],Bangladesh,Sylhet,Habiganj,Baniachong,UttarPaschimBaniyachang,f2200e73663411283423939aa90cef4a
9707040182.0,893cc48e997ffff,24.5315531,91.3593032,Baniyachong Adarsha High School,,"Baniyachong Adarsha High School, Baniachong Upazila, Habiganj District, Sylhet Division, Bangladesh","বনিয়াচং অভিষ উচ্চ বিদ্যালয়, বানিয়াচং উপজেলা, হবিগঞ্জ জেলা, সিলেট বিভাগ, বাংলাদেশ",বানিয়াচং উপজেলা,বাংলাদেশ,সিলেট বিভাগ,local_admin,boundaries,"['educational_institution', 'school']",[],Bangladesh,Sylhet,Habiganj,Baniachong,UttarPurbaBaniachang,869d787c4ce792973a2f72d9e884fc4e
9707040183.0,893cc48ee83ffff,24.5145582,91.3081103,Paschimbhag High School,,"Paschimbhag High School, Ajmiriganj Upazila, Habiganj District, Sylhet Division, Bangladesh","পাসচিম্বাগ উচ্চ বিদ্যালয়, আজমিরীগঞ্জ উপজেলা, হবিগঞ্জ জেলা, সিলেট বিভাগ, বাংলাদেশ",আজমিরীগঞ্জ উপজেলা,বাংলাদেশ,সিলেট বিভাগ,local_admin,boundaries,"['educational_institution', 'school']",[],Bangladesh,Sylhet,Habiganj,Ajmiriganj,Shibpasha,a6184dc624dc184f8378ffd8ab3a7acd
9707040194.0,893cc48539bffff,24.5590115,91.3189391,Nowaghar Govt. Primary School,,"Nowaghar Govt. Primary School, Ajmiriganj Upazila, Habiganj District, Sylhet Division, Bangladesh","নওগর সরকারপ্রাথমিক বিদ্যালয়, আজমিরীগঞ্জ উপজেলা, হবিগঞ্জ জেলা, সিলেট বিভাগ, বাংলাদেশ",আজমিরীগঞ্জ উপজেলা,বাংলাদেশ,সিলেট বিভাগ,local_admin,boundaries,"['educational_institution', 'school']",[],Bangladesh,Sylhet,Habiganj,Ajmiriganj,Jalsuka,88b8cac0602beece3d929dde0cb51c73
9707040197.0,893cc48454fffff,24.6295098,91.3488578,Ariamugur Public High School,,"Ariamugur Public High School, Ajmiriganj Upazila, Habiganj District, Sylhet Division, Bangladesh","আরিয়ামুগুর পাবলিক হাই স্কুল, আজমিরীগঞ্জ উপজেলা, হবিগঞ্জ জেলা, সিলেট বিভাগ, বাংলাদেশ",আজমিরীগঞ্জ উপজেলা,বাংলাদেশ,সিলেট বিভাগ,local_admin,boundaries,"['educational_institution', 'school']",[],Bangladesh,Sylhet,Habiganj,Ajmiriganj,Badalpur,70538e1ffed51a128828b7bcc8e4f0b5
9707040198.0,893cc48635bffff,24.6463743,91.3233244,Paharpur Basanta Kumar Public High School,,"Paharpur Basanta Kumar Public High School, Ajmiriganj Upazila, Habiganj District, Sylhet Division, Bangladesh","পাহাড়পুর বাসন্ত কুমার পাবলিক হাই স্কুল, আজমিরীগঞ্জ উপজেলা, হবিগঞ্জ জেলা, সিলেট বিভাগ, বাংলাদেশ",আজমিরীগঞ্জ উপজেলা,বাংলাদেশ,সিলেট বিভাগ,local_admin,boundaries,"['educational_institution', 'school']",[],Bangladesh,Sylhet,Habiganj,Ajmiriganj,Badalpur,70538e1ffed51a128828b7bcc8e4f0b5
369543973.0,893cc40217bffff,24.25333215,91.37957845,Shahjibazar,,"Shahjibazar, Habiganj, Habiganj District, Sylhet Division, Bangladesh","শাহজিবাজার, হবিগঞ্জ জেলা, সিলেট বিভাগ, বাংলাদেশ",Habiganj,বাংলাদেশ,সিলেট বিভাগ,local_admin,boundaries,['substation'],[],Bangladesh,Sylhet,Habiganj,Madhabpur,Bagasura,47c3bbcfe3be6d62a6b66977bb765c08
465842677.0,893cc4bb623ffff,24.50615368,91.3892234,,,"Baniachong Upazila, Habiganj District, Sylhet Division, Bangladesh","বানিয়াচং উপজেলা, হবিগঞ্জ জেলা, সিলেট বিভাগ, বাংলাদেশ",বানিয়াচং উপজেলা,বাংলাদেশ,সিলেট বিভাগ,local_admin,boundaries,['ford'],[],Bangladesh,Sylhet,Habiganj,Baniachong,DakshinPurbaBaniyachang,ad82841f89bf4c8ebae051f0670aced9
399602811.0,893cc4075d7ffff,24.2764531,91.4856942,রথনাপুর,['Rathnapur'],"Rathnapur, Bahubal Upazila, Habiganj District, Sylhet Division, Bangladesh","রথনাপুর, বাহুবল উপজেলা, হবিগঞ্জ জেলা, সিলেট বিভাগ, বাংলাদেশ",বাহুবল উপজেলা,বাংলাদেশ,সিলেট বিভাগ,local_admin,boundaries,['railway_station'],[],Bangladesh,Sylhet,Habiganj,Chunarughat,Ubahata,010ae949508cb70464c083c12275f80d
2332892996.0,893cc414433ffff,24.3735429,91.4176425,Habiganj General Hospital,['হবিগঞ্জ সরকারী হাসপাতাল'],"Habiganj General Hospital, Habiganj, Habiganj District, Sylhet Division, Bangladesh","হবিগানজ জেনারেল হাসপাতাল, হবিগঞ্জ জেলা, সিলেট বিভাগ, বাংলাদেশ",Habiganj,বাংলাদেশ,সিলেট বিভাগ,local_admin,boundaries,['hospital'],[],Bangladesh,Sylhet,Habiganj,HabiganjSadar,HabiganjPaurashava,7f7acfef70d9ac8a30305f012105ff3a
2441439299.0,893cc415a0bffff,24.2783843,91.4498218,শায়েস্তাগঞ্জ জংশন,"['শায়েস্তাগঞ্জ জংশন', 'Shaistaganj Junction']","Shaistaganj Junction, Habiganj, Habiganj District, Sylhet Division, Bangladesh","শায়েস্তাগঞ্জ জংশন, হবিগঞ্জ জেলা, সিলেট বিভাগ, বাংলাদেশ",Habiganj,বাংলাদেশ,সিলেট বিভাগ,local_admin,boundaries,['railway_station'],[],Bangladesh,Sylhet,Habiganj,HabiganjSadar,ShayestagangPaurashava,63be8a8b2c092d0becf38ffe4bd6c78f
3787807793.0,893cc414433ffff,24.3750246,91.415604,"DC Office, Habiganj","['ডিসি অফিস, হবিগঞ্জ']","DC Office Habiganj, Habiganj, Habiganj District, Sylhet Division, Bangladesh","ডিসি অফিস হাবিগঞ্জ, হবিগঞ্জ জেলা, সিলেট বিভাগ, বাংলাদেশ",Habiganj,বাংলাদেশ,সিলেট বিভাগ,local_admin,boundaries,['administrative'],[],Bangladesh,Sylhet,Habiganj,HabiganjSadar,HabiganjPaurashava,7f7acfef70d9ac8a30305f012105ff3a
4300069183.0,893cc414467ffff,24.3645862,91.4177682,Boro Bohula Keramot Mosjid,['বড় বহুলা কেরামত মসজিদ'],"Boro Bohula Keramot Mosjid, Habiganj, Habiganj District, Sylhet Division, Bangladesh","বোরো বোহুলা কেরামোট মোসজিড, হবিগঞ্জ জেলা, সিলেট বিভাগ, বাংলাদেশ",Habiganj,বাংলাদেশ,সিলেট বিভাগ,local_admin,boundaries,['place_of_worship_muslim'],[],Bangladesh,Sylhet,Habiganj,HabiganjSadar,Gopaya,32efa1000f2deeaa0319730db69fb7ed
4300107026.0,893cc414093ffff,24.3651535,91.419784,Lucky Workshop,"['Polash', 'লাকী ওয়ার্কশপ']","Lucky Workshop, Habiganj, Habiganj District, Sylhet Division, Bangladesh","ভাগ্যবান কর্মশালা, হবিগঞ্জ জেলা, সিলেট বিভাগ, বাংলাদেশ",Habiganj,বাংলাদেশ,সিলেট বিভাগ,local_admin,boundaries,['car_repair'],[],Bangladesh,Sylhet,Habiganj,HabiganjSadar,Gopaya,32efa1000f2deeaa0319730db69fb7ed
4300127766.0,893cc416347ffff,24.3883107,91.412571,Habiganj Main Post Office,"['হবিগঞ্জ প্রধান ডাকঘর', 'Habiganj Sadar Post Office']","Habiganj Main Post Office, Habiganj, Habiganj District, Sylhet Division, Bangladesh","হাবিগঞ্জ প্রধান ডাকঘর, হবিগঞ্জ জেলা, সিলেট বিভাগ, বাংলাদেশ",Habiganj,বাংলাদেশ,সিলেট বিভাগ,local_admin,boundaries,['post_office'],[],Bangladesh,Sylhet,Habiganj,HabiganjSadar,HabiganjPaurashava,7f7acfef70d9ac8a30305f012105ff3a
4727903891.0,893cc414433ffff,24.3722667,91.41739,,['Marry stopes'],"Habiganj, Habiganj District, Sylhet Division, Bangladesh","হবিগঞ্জ জেলা, সিলেট বিভাগ, বাংলাদেশ",Habiganj,বাংলাদেশ,সিলেট বিভাগ,local_admin,boundaries,['hospital'],[],Bangladesh,Sylhet,Habiganj,HabiganjSadar,HabiganjPaurashava,7f7acfef70d9ac8a30305f012105ff3a
4912310034.0,893cc416303ffff,24.3924448,91.4150929,Nabiganj Bus Stop,['নবীগঞ্জ বাসস্ট্যান্ড'],"Nabiganj Bus Stop, Habiganj, Habiganj District, Sylhet Division, Bangladesh","নবীগানজ বাস স্টপ, নবীগঞ্জ বাসস্ট্যান্ড, হবিগঞ্জ জেলা, সিলেট বিভাগ, বাংলাদেশ",Habiganj,বাংলাদেশ,সিলেট বিভাগ,street,boundaries,['bus_stop'],[],Bangladesh,Sylhet,Habiganj,Baniachong,Subidpur,a6e97b27b59d8e2ff5d80bb31a284134
5170883394.0,893cc40664bffff,24.2843671,91.4929846,Hafizpur Jame Masjid,,"Hafizpur Jame Masjid, Bahubal Upazila, Habiganj District, Sylhet Division, Bangladesh","হাফিজপুর জামে মসজিদ, বাহুবল উপজেলা, হবিগঞ্জ জেলা, সিলেট বিভাগ, বাংলাদেশ",বাহুবল উপজেলা,বাংলাদেশ,সিলেট বিভাগ,local_admin,boundaries,['place_of_worship_muslim'],[],Bangladesh,Sylhet,Habiganj,Bahubal,Lamatashi,77482b08204b6baa47baccdf9dfbd687
5170942576.0,893cc4074a7ffff,24.2729687,91.4782265,জননী সংসদ,,"Mother's Parliament, Habiganj, Habiganj District, Sylhet Division, Bangladesh","জননী সংসদ, হবিগঞ্জ জেলা, সিলেট বিভাগ, বাংলাদেশ",Habiganj,বাংলাদেশ,সিলেট বিভাগ,local_admin,boundaries,['place_of_worship'],[],Bangladesh,Sylhet,Habiganj,HabiganjSadar,Laskarpur,49380a26d67e7b34cd7175212ba857af
5170946325.0,893cc4075d3ffff,24.2755694,91.481017,Shaistaganj Police Fari,,"Shaistaganj Police Fari, Habiganj, Habiganj District, Sylhet Division, Bangladesh","শাইস্তাগঞ্জ পুলিশ ফারি, হবিগঞ্জ জেলা, সিলেট বিভাগ, বাংলাদেশ",Habiganj,বাংলাদেশ,সিলেট বিভাগ,local_admin,boundaries,['police'],[],Bangladesh,Sylhet,Habiganj,HabiganjSadar,Laskarpur,49380a26d67e7b34cd7175212ba857af
5170959196.0,893cc407433ffff,24.2681831,91.4771519,Shamim Store,,"Shamim Store, Chunarughat Upazila, Habiganj District, Sylhet Division, Bangladesh","শামিম স্টোর, চুনারুঘাট উপজেলা, হবিগঞ্জ জেলা, সিলেট বিভাগ, বাংলাদেশ",চুনারুঘাট উপজেলা,বাংলাদেশ,সিলেট বিভাগ,local_admin,boundaries,['optician_shop'],[],Bangladesh,Sylhet,Habiganj,Chunarughat,Ubahata,010ae949508cb70464c083c12275f80d
5170960813.0,893cc407433ffff,24.2680914,91.4769455,Haque Filling Station,,"Haque Filling Station, Chunarughat Upazila, Habiganj District, Sylhet Division, Bangladesh","হক ফিলিং স্টেশন, চুনারুঘাট উপজেলা, হবিগঞ্জ জেলা, সিলেট বিভাগ, বাংলাদেশ",চুনারুঘাট উপজেলা,বাংলাদেশ,সিলেট বিভাগ,local_admin,boundaries,['fuel'],[],Bangladesh,Sylhet,Habiganj,Chunarughat,Ubahata,010ae949508cb70464c083c12275f80d
5170968276.0,893cc407433ffff,24.2672725,91.4759218,Shaistaganj Hwy Bus Stop,,"Shaistaganj Hwy Bus Stop, Chunarughat Upazila, Habiganj District, Sylhet Division, Bangladesh","শাইস্তাগঞ্জ হুই বাস স্টপ, চুনারুঘাট উপজেলা, হবিগঞ্জ জেলা, সিলেট বিভাগ, বাংলাদেশ",চুনারুঘাট উপজেলা,বাংলাদেশ,সিলেট বিভাগ,local_admin,boundaries,['bus_station'],[],Bangladesh,Sylhet,Habiganj,Chunarughat,Ubahata,010ae949508cb70464c083c12275f80d
5170975667.0,893cc407433ffff,24.2674816,91.4759426,monurom computer,,"monurom computer, Chunarughat Upazila, Habiganj District, Sylhet Division, Bangladesh","মনুরোম কম্পিউটার, চুনারুঘাট উপজেলা, হবিগঞ্জ জেলা, সিলেট বিভাগ, বাংলাদেশ",চুনারুঘাট উপজেলা,বাংলাদেশ,সিলেট বিভাগ,local_admin,boundaries,['electronics'],[],Bangladesh,Sylhet,Habiganj,Chunarughat,Ubahata,010ae949508cb70464c083c12275f80d
5172349673.0,893cc41536fffff,24.2809063,91.4173612,Nurpur Adarsha High School,,"Nurpur Adarsha High School, Habiganj, Habiganj District, Sylhet Division, Bangladesh","নুরপুর আদারশা উচ্চ বিদ্যালয়, হবিগঞ্জ জেলা, সিলেট বিভাগ, বাংলাদেশ",Habiganj,বাংলাদেশ,সিলেট বিভাগ,local_admin,boundaries,['school'],[],Bangladesh,Sylhet,Habiganj,HabiganjSadar,Nurpur,e172b842a1fa274c649c2bbb4e3296a3
5349831622.0,893cc4144afffff,24.3766173,91.4178188,,,"Habiganj, Habiganj District, Sylhet Division, Bangladesh","হবিগঞ্জ জেলা, সিলেট বিভাগ, বাংলাদেশ",Habiganj,বাংলাদেশ,সিলেট বিভাগ,local_admin,boundaries,['guest_house'],[],Bangladesh,Sylhet,Habiganj,HabiganjSadar,HabiganjPaurashava,7f7acfef70d9ac8a30305f012105ff3a
5619186097.0,893cc416137ffff,24.4189032,91.4307975,Balikhal Bazar,['বালিখাল বাজার'],"Balikhal Bazar, ","বালিখল বাজার, ",বানিয়াচং উপজেলা,বাংলাদেশ,সিলেট বিভাগ,housenumber,sameSource,['marketplace'],[],Bangladesh,Sylhet,Habiganj,Baniachong,Pukhra,4132524ea88a6ef70864bf28de2e3d88
5619197090.0,893cc416cc3ffff,24.4236701,91.4367984,Messrs Shapla Filling Station,['মেসার্স শাপলা ফিলিং স্টেশন'],"Messrs Shapla Filling Station, Baniachong Upazila, Habiganj District, Sylhet Division, Bangladesh","মেসার্স শাপলা ফিলিং স্টেশন, বানিয়াচং উপজেলা, হবিগঞ্জ জেলা, সিলেট বিভাগ, বাংলাদেশ",বানিয়াচং উপজেলা,বাংলাদেশ,সিলেট বিভাগ,local_admin,boundaries,['fuel'],[],Bangladesh,Sylhet,Habiganj,Baniachong,Pukhra,4132524ea88a6ef70864bf28de2e3d88
5917976265.0,893cc41442bffff,24.3686977,91.4176562,Habiganj Model Primary School,,"Habiganj Model Primary School, Habiganj, Habiganj District, Sylhet Division, Bangladesh","হাবিগঞ্জ মডেল প্রাথমিক বিদ্যালয়, হবিগঞ্জ জেলা, সিলেট বিভাগ, বাংলাদেশ",Habiganj,বাংলাদেশ,সিলেট বিভাগ,local_admin,boundaries,['school'],[],Bangladesh,Sylhet,Habiganj,HabiganjSadar,Gopaya,32efa1000f2deeaa0319730db69fb7ed
5918012012.0,893cc41409bffff,24.3633685,91.4206838,Public Works Department Habiganj,['হবিগঞ্জ গণপূর্ত বিভাগ'],"Public Works Department Habiganj, Habiganj, Habiganj District, Sylhet Division, Bangladesh","গণপূর্ত বিভাগ হবিগঞ্জ, হবিগঞ্জ জেলা, সিলেট বিভাগ, বাংলাদেশ",Habiganj,বাংলাদেশ,সিলেট বিভাগ,local_admin,boundaries,['government'],[],Bangladesh,Sylhet,Habiganj,HabiganjSadar,Gopaya,32efa1000f2deeaa0319730db69fb7ed
5918015002.0,893cc41408bffff,24.3599328,91.4217386,"Madrasah-e-Alia, Habiganj",['হবিগঞ্জ আলিয়া মাদ্রাসা'],"Madrasah-e-Alia Habiganj, Habiganj, Habiganj District, Sylhet Division, Bangladesh","মাদ্রাসা-ই-আলা হাবিগঞ্জ, হবিগঞ্জ জেলা, সিলেট বিভাগ, বাংলাদেশ",Habiganj,বাংলাদেশ,সিলেট বিভাগ,local_admin,boundaries,['school'],[],Bangladesh,Sylhet,Habiganj,HabiganjSadar,Gopaya,32efa1000f2deeaa0319730db69fb7ed
6618192575.0,893cc4ba2b3ffff,24.5504157,91.4365331,কাগাপাশা বাজার,,"Kagapasha Bazar, Baniachong Upazila, Habiganj District, Sylhet Division, Bangladesh","কাগাপাশা বাজার, বানিয়াচং উপজেলা, হবিগঞ্জ জেলা, সিলেট বিভাগ, বাংলাদেশ",বানিয়াচং উপজেলা,বাংলাদেশ,সিলেট বিভাগ,local_admin,boundaries,['marketplace'],[],Bangladesh,Sylhet,Habiganj,Baniachong,Kagapasha,6163e07d1e68e727835496db25c7d35f
6618266436.0,893cc4ba04bffff,24.5528615,91.43376,কাগাপাশা জামে মসজিদ,,"Kagapasha Jame Mosque, Baniachong Upazila, Habiganj District, Sylhet Division, Bangladesh","কাগাপাশা জামে মসজিদ, বানিয়াচং উপজেলা, হবিগঞ্জ জেলা, সিলেট বিভাগ, বাংলাদেশ",বানিয়াচং উপজেলা,বাংলাদেশ,সিলেট বিভাগ,local_admin,boundaries,['place_of_worship_muslim'],[],Bangladesh,Sylhet,Habiganj,Baniachong,Kagapasha,6163e07d1e68e727835496db25c7d35f
6618379369.0,893cc4ba04bffff,24.5529635,91.433854,কাগাপাশা সরকারী প্রাথমিক বিদ্যালয়,,"Kagapasha Government Primary School, Baniachong Upazila, Habiganj District, Sylhet Division, Bangladesh","কাগাপাশা সরকারী প্রাথমিক বিদ্যালয়, বানিয়াচং উপজেলা, হবিগঞ্জ জেলা, সিলেট বিভাগ, বাংলাদেশ",বানিয়াচং উপজেলা,বাংলাদেশ,সিলেট বিভাগ,local_admin,boundaries,['school'],[],Bangladesh,Sylhet,Habiganj,Baniachong,Kagapasha,6163e07d1e68e727835496db25c7d35f
6625509366.0,893cc4b8223ffff,24.4878817,91.4736271,রাজরানী সুভাসিনী বালিকা উচ্চ বিদ্যালয়,,"Rajrani Subhashini Girls High School, Imambari, Nabiganj Upazila, Habiganj District, Sylhet Division, Bangladesh","রাজরানী সুভাসিনী বালিকা উচ্চ বিদ্যালয়, ইমামবাড়ি, নবীগঞ্জ উপজেলা, হবিগঞ্জ জেলা, সিলেট বিভাগ, বাংলাদেশ",নবীগঞ্জ উপজেলা,বাংলাদেশ,সিলেট বিভাগ,locality,boundaries,['school'],[],Bangladesh,Sylhet,Habiganj,Nabiganj,KalairBanga,1af5b1fefb37961ae6b822a74412678a
6626990127.0,893cc4b956fffff,24.4708335,91.4483285,রাজপাড়া খুড়ানগর সরকারী প্রাথমিক বিদ্যালয়,,"Rajpara Khurranagar Government Primary School, Baniachong Upazila, Habiganj District, Sylhet Division, Bangladesh","রাজপাড়া খুড়ানগর সরকারী প্রাথমিক বিদ্যালয়, বানিয়াচং উপজেলা, হবিগঞ্জ জেলা, সিলেট বিভাগ, বাংলাদেশ",বানিয়াচং উপজেলা,বাংলাদেশ,সিলেট বিভাগ,local_admin,boundaries,['school'],[],Bangladesh,Sylhet,Habiganj,Baniachong,Khagaura,8ba322e0fe6f6b60b546a420134384c2
6627068864.0,893cc4b918bffff,24.4706706,91.452207,খাসিয়া মহল্লা খালপাড় প্রাথমিক বিদ্যালয়,,"Khasia Mahalla Khalpar Primary School, Baniachong Upazila, Habiganj District, Sylhet Division, Bangladesh","খাসিয়া মহল্লা খালপাড় প্রাথমিক বিদ্যালয়, বানিয়াচং উপজেলা, হবিগঞ্জ জেলা, সিলেট বিভাগ, বাংলাদেশ",বানিয়াচং উপজেলা,বাংলাদেশ,সিলেট বিভাগ,local_admin,boundaries,['school'],[],Bangladesh,Sylhet,Habiganj,Baniachong,Khagaura,8ba322e0fe6f6b60b546a420134384c2
6627163578.0,893cc4b9193ffff,24.4749427,91.4527917,খাগাউরা এড়ালিয়া ইসলামিয়া সুন্নিয়া দাখিল মাদ্রাসা,,"Khagaura Achilia Islamia Sunnia Dakhil Madrasa, Baniachong Upazila, Habiganj District, Sylhet Division, Bangladesh","খাগাউরা এড়ালিয়া ইসলামিয়া সুন্নিয়া দাখিল মাদ্রাসা, বানিয়াচং উপজেলা, হবিগঞ্জ জেলা, সিলেট বিভাগ, বাংলাদেশ",বানিয়াচং উপজেলা,বাংলাদেশ,সিলেট বিভাগ,local_admin,boundaries,['school'],[],Bangladesh,Sylhet,Habiganj,Baniachong,Khagaura,8ba322e0fe6f6b60b546a420134384c2
6627178110.0,893cc4b9193ffff,24.4745135,91.4528346,খাগাউরা বাজার,,"Khagra Bazar, Baniachong Upazila, Habiganj District, Sylhet Division, Bangladesh","খাগাউরা বাজার, বানিয়াচং উপজেলা, হবিগঞ্জ জেলা, সিলেট বিভাগ, বাংলাদেশ",বানিয়াচং উপজেলা,বাংলাদেশ,সিলেট বিভাগ,local_admin,boundaries,['marketplace'],[],Bangladesh,Sylhet,Habiganj,Baniachong,Khagaura,8ba322e0fe6f6b60b546a420134384c2
6630444471.0,893cc416c8bffff,24.4281542,91.4420843,পুকরা বাজার,,"Pukra Market, Baniachong Upazila, Habiganj District, Sylhet Division, Bangladesh","পুকরা বাজার, বানিয়াচং উপজেলা, হবিগঞ্জ জেলা, সিলেট বিভাগ, বাংলাদেশ",বানিয়াচং উপজেলা,বাংলাদেশ,সিলেট বিভাগ,local_admin,boundaries,['marketplace'],[],Bangladesh,Sylhet,Habiganj,Baniachong,Pukhra,4132524ea88a6ef70864bf28de2e3d88
6630522681.0,893cc4b926fffff,24.429267,91.4357532,ডাঃ বসন্ত কুমার আচারযা সরকারি প্রাথমিক বিদ্যালয়,,"Dr. Vasant Kumar Acharya Government Primary School, Baniachong Upazila, Habiganj District, Sylhet Division, Bangladesh","ডাঃ বসন্ত কুমার আচারযা সরকারি প্রাথমিক বিদ্যালয়, বানিয়াচং উপজেলা, হবিগঞ্জ জেলা, সিলেট বিভাগ, বাংলাদেশ",বানিয়াচং উপজেলা,বাংলাদেশ,সিলেট বিভাগ,local_admin,boundaries,['school'],[],Bangladesh,Sylhet,Habiganj,Baniachong,Pukhra,4132524ea88a6ef70864bf28de2e3d88
6630662167.0,893cc4b9347ffff,24.4384968,91.4515686,আলীগঞ্জ বাজার,,"Aliganj Bazar, Baniachong Upazila, Habiganj District, Sylhet Division, Bangladesh","আলীগঞ্জ বাজার, বানিয়াচং উপজেলা, হবিগঞ্জ জেলা, সিলেট বিভাগ, বাংলাদেশ",বানিয়াচং উপজেলা,বাংলাদেশ,সিলেট বিভাগ,local_admin,boundaries,['marketplace'],[],Bangladesh,Sylhet,Habiganj,Baniachong,Pukhra,4132524ea88a6ef70864bf28de2e3d88
7092835178.0,893cc4029a7ffff,24.2681795,91.4524698,Shayestaganj Fire Service & Civil Defence Station,,"Shayestaganj Fire Service & Civil Defence Station, Chunarughat Upazila, Habiganj District, Sylhet Division, Bangladesh","শায়স্তাগঞ্জ ফায়ার সার্ভিস এবং সিভিল ডিফেন্স স্টেশন, চুনারুঘাট উপজেলা, হবিগঞ্জ জেলা, সিলেট বিভাগ, বাংলাদেশ",চুনারুঘাট উপজেলা,বাংলাদেশ,সিলেট বিভাগ,local_admin,boundaries,['fire_station'],[],Bangladesh,Sylhet,Habiganj,HabiganjSadar,Saistaganj,36faeed8f045bbff4d4cbe58677d8e21
7092859780.0,893cc407433ffff,24.2673274,91.477063,Notun Bridge Point,,"Notun Bridge Point, Chunarughat Upazila, Habiganj District, Sylhet Division, Bangladesh","Notun ব্রিজ পয়েন্ট, চুনারুঘাট উপজেলা, হবিগঞ্জ জেলা, সিলেট বিভাগ, বাংলাদেশ",চুনারুঘাট উপজেলা,বাংলাদেশ,সিলেট বিভাগ,local_admin,boundaries,['bus_station'],[],Bangladesh,Sylhet,Habiganj,Chunarughat,Ubahata,010ae949508cb70464c083c12275f80d
7092859781.0,893cc4074bbffff,24.2726798,91.4729887,Sayastaganja Old Market bus stop,['শায়স্তাগঞ্জ পুরান বাজার বাস স্টপ'],"Sayastaganja Old Market bus stop, Chunarughat Upazila, Habiganj District, Sylhet Division, Bangladesh","সায়স্তাগঞ্জা ওল্ড মার্কেট বাস স্টপ, চুনারুঘাট উপজেলা, হবিগঞ্জ জেলা, সিলেট বিভাগ, বাংলাদেশ",চুনারুঘাট উপজেলা,বাংলাদেশ,সিলেট বিভাগ,local_admin,boundaries,['bus_station'],[],Bangladesh,Sylhet,Habiganj,Chunarughat,Ubahata,010ae949508cb70464c083c12275f80d
7092888197.0,893cc415a67ffff,24.2763621,91.4589635,BADC (Bangladesh Agricultural Development Corporation),,"BADC Bangladesh Agricultural Development Corporation, Habiganj, Habiganj District, Sylhet Division, Bangladesh","বিএডিসি বাংলাদেশ কৃষি উন্নয়ন কর্পোরেশন, হবিগঞ্জ জেলা, সিলেট বিভাগ, বাংলাদেশ",Habiganj,বাংলাদেশ,সিলেট বিভাগ,local_admin,boundaries,['government'],[],Bangladesh,Sylhet,Habiganj,HabiganjSadar,Saistaganj,36faeed8f045bbff4d4cbe58677d8e21
8234463109.0,893cc414407ffff,24.3744164,91.4123618,Shaeed Mina,,"Shaeed Mina, Habiganj, Habiganj District, Sylhet Division, Bangladesh","শহীদ মিনার, হবিগঞ্জ জেলা, সিলেট বিভাগ, বাংলাদেশ",Habiganj,বাংলাদেশ,সিলেট বিভাগ,local_admin,boundaries,['monument'],[],Bangladesh,Sylhet,Habiganj,HabiganjSadar,HabiganjPaurashava,7f7acfef70d9ac8a30305f012105ff3a
8234472529.0,893cc414433ffff,24.3738582,91.4165986,M A Rob (Biruttam) Library and Memorial Museum,,"M A Rob Biruttam Library and Memorial Museum, Habiganj, Habiganj District, Sylhet Division, Bangladesh","এম একটি রব বিরুতাম লাইব্রেরি এবং মেমোরিয়াল যাদুঘর, হবিগঞ্জ জেলা, সিলেট বিভাগ, বাংলাদেশ",Habiganj,বাংলাদেশ,সিলেট বিভাগ,local_admin,boundaries,['museum'],[],Bangladesh,Sylhet,Habiganj,HabiganjSadar,HabiganjPaurashava,7f7acfef70d9ac8a30305f012105ff3a
8234473095.0,893cc414407ffff,24.3723066,91.4137366,The Lab Aid  Hospital,,"The Lab Aid Hospital, Habiganj, Habiganj District, Sylhet Division, Bangladesh","ল্যাব এইড হাসপাতাল, হবিগঞ্জ জেলা, সিলেট বিভাগ, বাংলাদেশ",Habiganj,বাংলাদেশ,সিলেট বিভাগ,local_admin,boundaries,['hospital'],[],Bangladesh,Sylhet,Habiganj,HabiganjSadar,HabiganjPaurashava,7f7acfef70d9ac8a30305f012105ff3a
8234497511.0,893cc41634fffff,24.3850385,91.4134801,Modok Pharamacy,,"Modok Pharamacy, Habiganj, Habiganj District, Sylhet Division, Bangladesh","মোডোক ফার্মাসি, হবিগঞ্জ জেলা, সিলেট বিভাগ, বাংলাদেশ",Habiganj,বাংলাদেশ,সিলেট বিভাগ,local_admin,boundaries,['pharmacy'],[],Bangladesh,Sylhet,Habiganj,HabiganjSadar,HabiganjPaurashava,7f7acfef70d9ac8a30305f012105ff3a
8234506447.0,893cc41634fffff,24.3848965,91.4134499,Modina Pharmacy,,"Modina Pharmacy, Habiganj, Habiganj District, Sylhet Division, Bangladesh","মোডিনা ফার্মাসি, হবিগঞ্জ জেলা, সিলেট বিভাগ, বাংলাদেশ",Habiganj,বাংলাদেশ,সিলেট বিভাগ,local_admin,boundaries,['chemist'],[],Bangladesh,Sylhet,Habiganj,HabiganjSadar,HabiganjPaurashava,7f7acfef70d9ac8a30305f012105ff3a
8234513411.0,893cc41440fffff,24.3705763,91.41222,Jaspus Habiganj Adhunik Eye Hospital,,"Jaspus Habiganj Adhunik Eye Hospital, Habiganj, Habiganj District, Sylhet Division, Bangladesh","জাসপাস হবিগঞ্জ অ্যাডুনিক চক্ষু হাসপাতাল, হবিগঞ্জ জেলা, সিলেট বিভাগ, বাংলাদেশ",Habiganj,বাংলাদেশ,সিলেট বিভাগ,local_admin,boundaries,['hospital'],[],Bangladesh,Sylhet,Habiganj,HabiganjSadar,Gopaya,32efa1000f2deeaa0319730db69fb7ed
8234519170.0,893cc41440fffff,24.371135,91.4123932,Habiganj Hospital Pvt. Ltd.,,"Habiganj Hospital Pvt. Ltd., Habiganj, Habiganj District, Sylhet Division, Bangladesh","হবিগানজ হাসপাতাল প্রাইভেট।লিমিটেড, হবিগঞ্জ জেলা, সিলেট বিভাগ, বাংলাদেশ",Habiganj,বাংলাদেশ,সিলেট বিভাগ,local_admin,boundaries,['hospital'],[],Bangladesh,Sylhet,Habiganj,HabiganjSadar,Gopaya,32efa1000f2deeaa0319730db69fb7ed
8234550770.0,893cc4144b3ffff,24.3809267,91.4129221,Central Hospital & Diagnostic Centre,,"Central Hospital & Diagnostic Centre, Habiganj, Habiganj District, Sylhet Division, Bangladesh","কেন্দ্রীয় হাসপাতাল ও ডায়াগনস্টিক সেন্টার, হবিগঞ্জ জেলা, সিলেট বিভাগ, বাংলাদেশ",Habiganj,বাংলাদেশ,সিলেট বিভাগ,local_admin,boundaries,['clinic'],[],Bangladesh,Sylhet,Habiganj,HabiganjSadar,HabiganjPaurashava,7f7acfef70d9ac8a30305f012105ff3a
8234805971.0,893cc4144afffff,24.3765644,91.4156923,The National Diagnostic Center,,"The National Diagnostic Center, Habiganj, Habiganj District, Sylhet Division, Bangladesh","জাতীয় ডায়াগনস্টিক সেন্টার, হবিগঞ্জ জেলা, সিলেট বিভাগ, বাংলাদেশ",Habiganj,বাংলাদেশ,সিলেট বিভাগ,local_admin,boundaries,['clinic'],[],Bangladesh,Sylhet,Habiganj,HabiganjSadar,HabiganjPaurashava,7f7acfef70d9ac8a30305f012105ff3a
8234808753.0,893cc4144afffff,24.3766937,91.4156182,Moon Diagnostic Centre,,"Moon Diagnostic Centre, Habiganj, Habiganj District, Sylhet Division, Bangladesh","চাঁদ ডায়াগনস্টিক সেন্টার, হবিগঞ্জ জেলা, সিলেট বিভাগ, বাংলাদেশ",Habiganj,বাংলাদেশ,সিলেট বিভাগ,local_admin,boundaries,['clinic'],[],Bangladesh,Sylhet,Habiganj,HabiganjSadar,HabiganjPaurashava,7f7acfef70d9ac8a30305f012105ff3a
8235127501.0,893cc414407ffff,24.3726567,91.4146062,The Popular Pharmacy,,"The Popular Pharmacy, Habiganj, Habiganj District, Sylhet Division, Bangladesh","জনপ্রিয় ফার্মাসি, হবিগঞ্জ জেলা, সিলেট বিভাগ, বাংলাদেশ",Habiganj,বাংলাদেশ,সিলেট বিভাগ,local_admin,boundaries,['pharmacy'],[],Bangladesh,Sylhet,Habiganj,HabiganjSadar,HabiganjPaurashava,7f7acfef70d9ac8a30305f012105ff3a
8235134882.0,893cc414407ffff,24.3714276,91.4129455,Kalauk Pharmacy,,"Kalauk Pharmacy, Habiganj, Habiganj District, Sylhet Division, Bangladesh","কালাউক ফার্মাসি, হবিগঞ্জ জেলা, সিলেট বিভাগ, বাংলাদেশ",Habiganj,বাংলাদেশ,সিলেট বিভাগ,local_admin,boundaries,['pharmacy'],[],Bangladesh,Sylhet,Habiganj,HabiganjSadar,HabiganjPaurashava,7f7acfef70d9ac8a30305f012105ff3a
8235143048.0,893cc414433ffff,24.373431,91.4165104,Islam Pharmacy,,"Islam Pharmacy, Habiganj, Habiganj District, Sylhet Division, Bangladesh","ইসলাম ফার্মাসি, হবিগঞ্জ জেলা, সিলেট বিভাগ, বাংলাদেশ",Habiganj,বাংলাদেশ,সিলেট বিভাগ,local_admin,boundaries,['pharmacy'],[],Bangladesh,Sylhet,Habiganj,HabiganjSadar,HabiganjPaurashava,7f7acfef70d9ac8a30305f012105ff3a
8235143753.0,893cc414433ffff,24.3727564,91.4152045,Messrs Adhorso Pharmacy,,"Messrs Adhorso Pharmacy, Habiganj, Habiganj District, Sylhet Division, Bangladesh","মেসার্স অ্যাডহর্সো ফার্মাসি, হবিগঞ্জ জেলা, সিলেট বিভাগ, বাংলাদেশ",Habiganj,বাংলাদেশ,সিলেট বিভাগ,local_admin,boundaries,['pharmacy'],[],Bangladesh,Sylhet,Habiganj,HabiganjSadar,HabiganjPaurashava,7f7acfef70d9ac8a30305f012105ff3a
8235151466.0,893cc414403ffff,24.3708169,91.4106152,Srithi First Aid,,"Srithi First Aid, Habiganj, Habiganj District, Sylhet Division, Bangladesh","শ্রীথি প্রাথমিক চিকিত্সা, হবিগঞ্জ জেলা, সিলেট বিভাগ, বাংলাদেশ",Habiganj,বাংলাদেশ,সিলেট বিভাগ,local_admin,boundaries,['pharmacy'],[],Bangladesh,Sylhet,Habiganj,HabiganjSadar,Gopaya,32efa1000f2deeaa0319730db69fb7ed
8235156987.0,893cc414433ffff,24.3740399,91.4169674,M/S Amin Pharmacy,,"M/S Amin Pharmacy, Habiganj, Habiganj District, Sylhet Division, Bangladesh","মেসার্স অ্যামিন ফার্মাসি, হবিগঞ্জ জেলা, সিলেট বিভাগ, বাংলাদেশ",Habiganj,বাংলাদেশ,সিলেট বিভাগ,local_admin,boundaries,['pharmacy'],[],Bangladesh,Sylhet,Habiganj,HabiganjSadar,HabiganjPaurashava,7f7acfef70d9ac8a30305f012105ff3a
8235160446.0,893cc414433ffff,24.3733002,91.4167936,Liakat Pharmacy,,"Liakat Pharmacy, Habiganj, Habiganj District, Sylhet Division, Bangladesh","লিয়াকাত ফার্মাসি, হবিগঞ্জ জেলা, সিলেট বিভাগ, বাংলাদেশ",Habiganj,বাংলাদেশ,সিলেট বিভাগ,local_admin,boundaries,['pharmacy'],[],Bangladesh,Sylhet,Habiganj,HabiganjSadar,HabiganjPaurashava,7f7acfef70d9ac8a30305f012105ff3a
8960957245.0,893cc4144b3ffff,24.3824398,91.4119654,Garlic,,"Garlic, Habiganj, Habiganj District, Sylhet Division, Bangladesh","রসুন, হবিগঞ্জ জেলা, সিলেট বিভাগ, বাংলাদেশ",Habiganj,বাংলাদেশ,সিলেট বিভাগ,local_admin,boundaries,['restaurant'],[],Bangladesh,Sylhet,Habiganj,HabiganjSadar,HabiganjPaurashava,7f7acfef70d9ac8a30305f012105ff3a
533091250.0,893cc4021a3ffff,24.26962722,91.38442593,Olipur City Park Restaurant,,"Olipur City Park Restaurant, Habiganj, Habiganj District, Sylhet Division, Bangladesh","অলিপুর সিটি পার্ক রেস্তোঁরা, হবিগঞ্জ জেলা, সিলেট বিভাগ, বাংলাদেশ",Habiganj,বাংলাদেশ,সিলেট বিভাগ,local_admin,boundaries,['restaurant'],[],Bangladesh,Sylhet,Habiganj,HabiganjSadar,Nurpur,e172b842a1fa274c649c2bbb4e3296a3
533093318.0,893cc400453ffff,24.21176771,91.35705953,Shahjibazar Power Company Limited Mosjid,,"Shahjibazar Power Company Limited Mosjid, Madhabpur, Habiganj District, Sylhet Division, Bangladesh","শাহজিবাজার পাওয়ার কোম্পানি লিমিটেড মোসজিড, হবিগঞ্জ জেলা, সিলেট বিভাগ, বাংলাদেশ",Madhabpur,বাংলাদেশ,সিলেট বিভাগ,local_admin,boundaries,['place_of_worship_muslim'],[],Bangladesh,Sylhet,Habiganj,Madhabpur,Noapara,c1294ee7242abafc638b6fcf9f9f0a93
533093579.0,893cc400653ffff,24.19076437,91.35118473,Al-Amin Hotel & Restaurant,,"Al-Amin Hotel & Restaurant, Madhabpur, Habiganj District, Sylhet Division, Bangladesh","আল-আমিন হোটেল ও রেস্তোঁরা, হবিগঞ্জ জেলা, সিলেট বিভাগ, বাংলাদেশ",Madhabpur,বাংলাদেশ,সিলেট বিভাগ,local_admin,boundaries,['hotel'],[],Bangladesh,Sylhet,Habiganj,Madhabpur,Noapara,c1294ee7242abafc638b6fcf9f9f0a93
533093611.0,893cc400653ffff,24.19071752,91.35000827,Al-Belal Mosque,,"Al-Belal Mosque, Madhabpur, Habiganj District, Sylhet Division, Bangladesh","আল-বেলাল মসজিদ, হবিগঞ্জ জেলা, সিলেট বিভাগ, বাংলাদেশ",Madhabpur,বাংলাদেশ,সিলেট বিভাগ,local_admin,boundaries,['place_of_worship_muslim'],[],Bangladesh,Sylhet,Habiganj,Madhabpur,Noapara,c1294ee7242abafc638b6fcf9f9f0a93
9706960171.0,893cc4163d7ffff,24.3974536,91.408367,,,"Baniachong Upazila, Habiganj District, Sylhet Division, Bangladesh","বানিয়াচং উপজেলা, হবিগঞ্জ জেলা, সিলেট বিভাগ, বাংলাদেশ",বানিয়াচং উপজেলা,বাংলাদেশ,সিলেট বিভাগ,local_admin,boundaries,"['educational_institution', 'school']",[],Bangladesh,Sylhet,Habiganj,HabiganjSadar,HabiganjPaurashava,7f7acfef70d9ac8a30305f012105ff3a
9706960177.0,893cc48f357ffff,24.4468261,91.2465832,J.D.M. High School,,"J.D.M. High School, Baniachong Upazila, Habiganj District, Sylhet Division, Bangladesh","জেডিএমউচ্চ বিদ্যালয, বানিয়াচং উপজেলা, হবিগঞ্জ জেলা, সিলেট বিভাগ, বাংলাদেশ",বানিয়াচং উপজেলা,বাংলাদেশ,সিলেট বিভাগ,local_admin,boundaries,"['educational_institution', 'school']",[],Bangladesh,Sylhet,Habiganj,Baniachong,Muradpur,f9b5c2ecad323b4e0d56db4e2238ca9a
533093745.0,893cc400653ffff,24.19036211,91.3503626,Al-Amin CNG Station and Petrol Pump,,"Al-Amin CNG Station and Petrol Pump, Madhabpur, Habiganj District, Sylhet Division, Bangladesh","আল-আমিন সিএনজি স্টেশন এবং পেট্রোল পাম্প, হবিগঞ্জ জেলা, সিলেট বিভাগ, বাংলাদেশ",Madhabpur,বাংলাদেশ,সিলেট বিভাগ,local_admin,boundaries,['fuel'],[],Bangladesh,Sylhet,Habiganj,Madhabpur,Noapara,c1294ee7242abafc638b6fcf9f9f0a93
9706960178.0,893cc48c6b7ffff,24.4686935,91.2820028,Muradpur Sesdp Model High School,,"Muradpur Sesdp Model High School, Baniachong Upazila, Habiganj District, Sylhet Division, Bangladesh","মুরাদপুর এসইএসডিপি মডেল উচ্চ বিদ্যালয়, বানিয়াচং উপজেলা, হবিগঞ্জ জেলা, সিলেট বিভাগ, বাংলাদেশ",বানিয়াচং উপজেলা,বাংলাদেশ,সিলেট বিভাগ,local_admin,boundaries,"['educational_institution', 'school']",[],Bangladesh,Sylhet,Habiganj,Baniachong,Muradpur,f9b5c2ecad323b4e0d56db4e2238ca9a
9706960172.0,893cc416133ffff,24.4166055,91.4305239,Nagura Farm High School,,"Nagura Farm High School, Baniachong Upazila, Habiganj District, Sylhet Division, Bangladesh","নাগুরা ফার্ম উচ্চ বিদ্যালয়, বানিয়াচং উপজেলা, হবিগঞ্জ জেলা, সিলেট বিভাগ, বাংলাদেশ",বানিয়াচং উপজেলা,বাংলাদেশ,সিলেট বিভাগ,local_admin,boundaries,"['educational_institution', 'school']",[],Bangladesh,Sylhet,Habiganj,Baniachong,Pukhra,4132524ea88a6ef70864bf28de2e3d88
9706960172.0,893cc416133ffff,24.4166055,91.4305239,Nagura Farm High School,,"Nagura Farm High School, Baniachong Upazila, Habiganj District, Sylhet Division, Bangladesh","নাগুরা ফার্ম উচ্চ বিদ্যালয়, বানিয়াচং উপজেলা, হবিগঞ্জ জেলা, সিলেট বিভাগ, বাংলাদেশ",বানিয়াচং উপজেলা,বাংলাদেশ,সিলেট বিভাগ,local_admin,boundaries,"['educational_institution', 'school']",[],Bangladesh,Sylhet,Habiganj,Baniachong,Subidpur,a6e97b27b59d8e2ff5d80bb31a284134
533094423.0,893cc401513ffff,24.17512834,91.34933831,DBBL,,"DBBL, Madhabpur, Habiganj District, Sylhet Division, Bangladesh","ডিবিবিএল, হবিগঞ্জ জেলা, সিলেট বিভাগ, বাংলাদেশ",Madhabpur,বাংলাদেশ,সিলেট বিভাগ,local_admin,boundaries,['bank'],[],Bangladesh,Sylhet,Habiganj,Madhabpur,Noapara,c1294ee7242abafc638b6fcf9f9f0a93
533095726.0,893cc40105bffff,24.1439949,91.33568657,Panshi Restaurant Highway,,"Panshi Restaurant Highway, Madhabpur, Habiganj District, Sylhet Division, Bangladesh","পানশি রেস্তোঁরা হাইওয়ে, হবিগঞ্জ জেলা, সিলেট বিভাগ, বাংলাদেশ",Madhabpur,বাংলাদেশ,সিলেট বিভাগ,local_admin,boundaries,['restaurant'],[],Bangladesh,Sylhet,Habiganj,Madhabpur,Jagadishpur,c10a9877236a626684fd53fde0fa9fe2
9706960174.0,893cc4b966bffff,24.4437165,91.4130125,Satgram Akata High School,,"Satgram Akata High School, Baniachong Upazila, Habiganj District, Sylhet Division, Bangladesh","সাতগ্রাম আকাতা উচ্চ বিদ্যালয়, বানিয়াচং উপজেলা, হবিগঞ্জ জেলা, সিলেট বিভাগ, বাংলাদেশ",বানিয়াচং উপজেলা,বাংলাদেশ,সিলেট বিভাগ,local_admin,boundaries,"['educational_institution', 'school']",[],Bangladesh,Sylhet,Habiganj,Baniachong,Pukhra,4132524ea88a6ef70864bf28de2e3d88
9706960180.0,893cc4b91d7ffff,24.4704071,91.4520741,Kursha Khagaura Madhyamik Biddyalay,,"Kursha Khagaura Madhyamik Biddyalay, Baniachong Upazila, Habiganj District, Sylhet Division, Bangladesh","কুরশা খাগৌর মধ্যমিক বিডালয়, বানিয়াচং উপজেলা, হবিগঞ্জ জেলা, সিলেট বিভাগ, বাংলাদেশ",বানিয়াচং উপজেলা,বাংলাদেশ,সিলেট বিভাগ,local_admin,boundaries,"['educational_institution', 'school']",[],Bangladesh,Sylhet,Habiganj,Baniachong,Khagaura,8ba322e0fe6f6b60b546a420134384c2
533096260.0,893cc40a5abffff,24.12801598,91.31973122,Andiura Unmetunecha High School,,"Andiura Unmetunecha High School, Madhabpur, Habiganj District, Sylhet Division, Bangladesh","অ্যান্ডিউরা আনমেটুনেচা উচ্চ বিদ্যালয়, হবিগঞ্জ জেলা, সিলেট বিভাগ, বাংলাদেশ",Madhabpur,বাংলাদেশ,সিলেট বিভাগ,local_admin,boundaries,['school'],[],Bangladesh,Sylhet,Habiganj,Madhabpur,Andiurauk,69c4d6639def19e8103c7d7a417bc630
9706960181.0,893cc4b8007ffff,24.5105568,91.4749594,Haldarpur Govt. Primary School,,"Haldarpur Govt. Primary School, Baniachong Upazila, Habiganj District, Sylhet Division, Bangladesh","হালদারপুর সরকারপ্রাথমিক বিদ্যালয়, বানিয়াচং উপজেলা, হবিগঞ্জ জেলা, সিলেট বিভাগ, বাংলাদেশ",বানিয়াচং উপজেলা,বাংলাদেশ,সিলেট বিভাগ,local_admin,boundaries,"['educational_institution', 'school']",[],Bangladesh,Sylhet,Habiganj,Baniachong,Baraiuri,72214f83bf8d7642c14dce331909819a
9706960182.0,893cc4bb0abffff,24.5151322,91.409527,B G M  High School,,"B G M High School, Baniachong Upazila, Habiganj District, Sylhet Division, Bangladesh","বি জি এম হাই স্কুল, বানিয়াচং উপজেলা, হবিগঞ্জ জেলা, সিলেট বিভাগ, বাংলাদেশ",বানিয়াচং উপজেলা,বাংলাদেশ,সিলেট বিভাগ,local_admin,boundaries,"['educational_institution', 'school']",[],Bangladesh,Sylhet,Habiganj,Baniachong,Baraiuri,72214f83bf8d7642c14dce331909819a
9707040195.0,893cc4ba2b3ffff,24.5510484,91.4380664,Janata High School Kagapasha,,"Janata High School Kagapasha, Baniachong Upazila, Habiganj District, Sylhet Division, Bangladesh","জনতা উচ্চ বিদ্যালয়ের কাগপাশা, বানিয়াচং উপজেলা, হবিগঞ্জ জেলা, সিলেট বিভাগ, বাংলাদেশ",বানিয়াচং উপজেলা,বাংলাদেশ,সিলেট বিভাগ,local_admin,boundaries,"['educational_institution', 'school']",[],Bangladesh,Sylhet,Habiganj,Baniachong,Kagapasha,6163e07d1e68e727835496db25c7d35f
9707040196.0,893cc484a03ffff,24.5933376,91.4057385,Akata High School,,"Akata High School, Ajmiriganj Upazila, Habiganj District, Sylhet Division, Bangladesh","আকাতা উচ্চ বিদ্যালয়, আজমিরীগঞ্জ উপজেলা, হবিগঞ্জ জেলা, সিলেট বিভাগ, বাংলাদেশ",আজমিরীগঞ্জ উপজেলা,বাংলাদেশ,সিলেট বিভাগ,local_admin,boundaries,"['educational_institution', 'school']",[],Bangladesh,Sylhet,Habiganj,Baniachong,Kagapasha,6163e07d1e68e727835496db25c7d35f
533096657.0,893cc40a503ffff,24.1226742,91.31427252,"Food gallery andiura, madhobpur, hobigonj",,"Food gallery andiura madhobpur hobigonj, Madhabpur, Habiganj District, Sylhet Division, Bangladesh","খাদ্য গ্যালারী অ্যান্ডিউরা মাধবপুর হোবিগঞ্জ, হবিগঞ্জ জেলা, সিলেট বিভাগ, বাংলাদেশ",Madhabpur,বাংলাদেশ,সিলেট বিভাগ,local_admin,boundaries,['cafe'],[],Bangladesh,Sylhet,Habiganj,Madhabpur,Andiurauk,69c4d6639def19e8103c7d7a417bc630
9707040184.0,893cc48e317ffff,24.5045725,91.2881116,Shibpasha High School,,"Shibpasha High School, Ajmiriganj Upazila, Habiganj District, Sylhet Division, Bangladesh","শিবপাশা উচ্চ বিদ্যালয়, আজমিরীগঞ্জ উপজেলা, হবিগঞ্জ জেলা, সিলেট বিভাগ, বাংলাদেশ",আজমিরীগঞ্জ উপজেলা,বাংলাদেশ,সিলেট বিভাগ,local_admin,boundaries,"['educational_institution', 'school']",[],Bangladesh,Sylhet,Habiganj,Ajmiriganj,Shibpasha,a6184dc624dc184f8378ffd8ab3a7acd
9707040190.0,893cc481827ffff,24.5191022,91.2158642,Shoulory Sesdp Model High School,,"Shoulory Sesdp Model High School, Ajmiriganj Upazila, Habiganj District, Sylhet Division, Bangladesh","শোলারি এসইএসডিপি মডেল উচ্চ বিদ্যালয়, আজমিরীগঞ্জ উপজেলা, হবিগঞ্জ জেলা, সিলেট বিভাগ, বাংলাদেশ",আজমিরীগঞ্জ উপজেলা,বাংলাদেশ,সিলেট বিভাগ,local_admin,boundaries,"['educational_institution', 'school']",[],Bangladesh,Sylhet,Habiganj,Ajmiriganj,Kakailseo,5aa8a125a720d35f86d7acda87ae83a0
9707040191.0,893cc480a3bffff,24.5460405,91.2390621,Ajmirigonj A.B.C Pilot Govt. High School,,"Ajmirigonj A.B.C Pilot Govt. High School, Ajmiriganj Upazila, Habiganj District, Sylhet Division, Bangladesh","আজমিরিগনজ এ.বি.সি. পাইলট সরকার।উচ্চ বিদ্যালয, আজমিরীগঞ্জ উপজেলা, হবিগঞ্জ জেলা, সিলেট বিভাগ, বাংলাদেশ",আজমিরীগঞ্জ উপজেলা,বাংলাদেশ,সিলেট বিভাগ,local_admin,boundaries,"['educational_institution', 'school']",[],Bangladesh,Sylhet,Habiganj,Ajmiriganj,AjmiriganjPaurashava,003122ff653cc2a083956c1cfb7fa831
9707040192.0,893cc48084bffff,24.560531,91.2345248,Miadhan Mia Girls High School,,"Miadhan Mia Girls High School, Ajmiriganj Upazila, Habiganj District, Sylhet Division, Bangladesh","মিয়াধান মিয়া গার্লস হাই স্কুল, আজমিরীগঞ্জ উপজেলা, হবিগঞ্জ জেলা, সিলেট বিভাগ, বাংলাদেশ",আজমিরীগঞ্জ উপজেলা,বাংলাদেশ,সিলেট বিভাগ,local_admin,boundaries,"['educational_institution', 'school']",[],Bangladesh,Sylhet,Habiganj,Ajmiriganj,AjmiriganjPaurashava,003122ff653cc2a083956c1cfb7fa831
9707040193.0,893cc485683ffff,24.5691893,91.2798171,Jalsukha K. G. P. High School,,"Jalsukha K. G. P. High School, Ajmiriganj Upazila, Habiganj District, Sylhet Division, Bangladesh","জালুখা কে। জি। পি। হাই স্কুল, আজমিরীগঞ্জ উপজেলা, হবিগঞ্জ জেলা, সিলেট বিভাগ, বাংলাদেশ",আজমিরীগঞ্জ উপজেলা,বাংলাদেশ,সিলেট বিভাগ,local_admin,boundaries,"['educational_institution', 'school']",[],Bangladesh,Sylhet,Habiganj,Ajmiriganj,Jalsuka,88b8cac0602beece3d929dde0cb51c73
375402038.0,893cc414467ffff,24.36535566,91.41879442,হবিগঞ্জ কেন্দ্রীয় ঈদগাহ,['Habiganj Central Eidgah'],"Habiganj Central Eidgah, Habiganj, Habiganj District, Sylhet Division, Bangladesh","হবিগঞ্জ কেন্দ্রীয় ঈদগাহ, হবিগঞ্জ জেলা, সিলেট বিভাগ, বাংলাদেশ",Habiganj,বাংলাদেশ,সিলেট বিভাগ,local_admin,boundaries,['place_of_worship_muslim'],[],Bangladesh,Sylhet,Habiganj,HabiganjSadar,Gopaya,32efa1000f2deeaa0319730db69fb7ed
622001879.0,893cc4015b3ffff,24.1823284,91.35532655,Saihamnagar Sub Post Office,,"Saihamnagar Sub Post Office, Madhabpur, Habiganj District, Sylhet Division, Bangladesh","সাইহামনগর সাব পোস্ট অফিস, হবিগঞ্জ জেলা, সিলেট বিভাগ, বাংলাদেশ",Madhabpur,বাংলাদেশ,সিলেট বিভাগ,local_admin,boundaries,['post_office'],[],Bangladesh,Sylhet,Habiganj,Madhabpur,Noapara,c1294ee7242abafc638b6fcf9f9f0a93
375408483.0,893cc4144b3ffff,24.37958829,91.41216191,Habiganj Government High School,['হবিগঞ্জ সরকারী উচ্চ বিদ্যালয়'],"Habiganj Government High School, Habiganj, Habiganj District, Sylhet Division, Bangladesh","হাবিগঞ্জ সরকার উচ্চ বিদ্যালয়, হবিগঞ্জ জেলা, সিলেট বিভাগ, বাংলাদেশ",Habiganj,বাংলাদেশ,সিলেট বিভাগ,local_admin,boundaries,['school'],[],Bangladesh,Sylhet,Habiganj,HabiganjSadar,HabiganjPaurashava,7f7acfef70d9ac8a30305f012105ff3a
622008376.0,893cc4015a3ffff,24.18078818,91.35676917,নোয়াপাড়া রেলওয়ে স্টেশন,['Noapara Train Station'],"Noapara Railway Station, Madhabpur, Habiganj District, Sylhet Division, Bangladesh","নোয়াপাড়া রেলওয়ে স্টেশন, হবিগঞ্জ জেলা, সিলেট বিভাগ, বাংলাদেশ",Madhabpur,বাংলাদেশ,সিলেট বিভাগ,local_admin,boundaries,['railway_station'],[],Bangladesh,Sylhet,Habiganj,Madhabpur,Noapara,c1294ee7242abafc638b6fcf9f9f0a93
375409043.0,893cc414417ffff,24.37436696,91.41204802,Brindaban Govt. College,['বৃন্দাবন সরকারী কলেজ'],"Brindaban Govt. College, Habiganj, Habiganj District, Sylhet Division, Bangladesh","ব্রিন্ডাবান সরকারকলেজ, হবিগঞ্জ জেলা, সিলেট বিভাগ, বাংলাদেশ",Habiganj,বাংলাদেশ,সিলেট বিভাগ,local_admin,boundaries,['college'],[],Bangladesh,Sylhet,Habiganj,HabiganjSadar,HabiganjPaurashava,7f7acfef70d9ac8a30305f012105ff3a
430722564.0,893cc4144abffff,24.37452213,91.41388571,Habiganj,,"Habiganj, Habiganj District, Sylhet Division, Bangladesh","হাবিগঞ্জ, হবিগঞ্জ জেলা, সিলেট বিভাগ, বাংলাদেশ",Habiganj,বাংলাদেশ,সিলেট বিভাগ,local_admin,boundaries,['stadium'],[],Bangladesh,Sylhet,Habiganj,HabiganjSadar,HabiganjPaurashava,7f7acfef70d9ac8a30305f012105ff3a
430724522.0,893cc414473ffff,24.36801697,91.41120681,Habiganj Main Bus Station,['হবিগঞ্জ প্রধান বাস স্ট্যান্ড'],"Habiganj Main Bus Station, Habiganj, Habiganj District, Sylhet Division, Bangladesh","হাবিগঞ্জ মেইন বাস স্টেশন, হবিগঞ্জ জেলা, সিলেট বিভাগ, বাংলাদেশ",Habiganj,বাংলাদেশ,সিলেট বিভাগ,local_admin,boundaries,['bus_station'],[],Bangladesh,Sylhet,Habiganj,HabiganjSadar,Gopaya,32efa1000f2deeaa0319730db69fb7ed
430739455.0,893cc414093ffff,24.36659335,91.41935476,Sayestanogor Kacha Bazar,['শায়েস্থানগর কাঁচা বাজার'],"Sayestanogor Kacha Bazar, Habiganj, Habiganj District, Sylhet Division, Bangladesh","সায়েস্টানোগর কাচা বাজার, হবিগঞ্জ জেলা, সিলেট বিভাগ, বাংলাদেশ",Habiganj,বাংলাদেশ,সিলেট বিভাগ,local_admin,boundaries,['marketplace'],[],Bangladesh,Sylhet,Habiganj,HabiganjSadar,Gopaya,32efa1000f2deeaa0319730db69fb7ed
469352075.0,893cc4bb54fffff,24.5259317,91.40738465,,,"Baniachong Upazila, Habiganj District, Sylhet Division, Bangladesh","বানিয়াচং উপজেলা, হবিগঞ্জ জেলা, সিলেট বিভাগ, বাংলাদেশ",বানিয়াচং উপজেলা,বাংলাদেশ,সিলেট বিভাগ,local_admin,boundaries,['ford'],[],Bangladesh,Sylhet,Habiganj,Baniachong,Baraiuri,72214f83bf8d7642c14dce331909819a
500086337.0,893cc41630bffff,24.39014359,91.41378788,Choudhury Bazar Jame Mosque,['চৌধুরী বাজার জামে মসজিদ'],"Choudhury Bazar Jame Mosque, Habiganj, Habiganj District, Sylhet Division, Bangladesh","চৌধুরী বাজার জামে মসজিদ, হবিগঞ্জ জেলা, সিলেট বিভাগ, বাংলাদেশ",Habiganj,বাংলাদেশ,সিলেট বিভাগ,local_admin,boundaries,['place_of_worship_muslim'],[],Bangladesh,Sylhet,Habiganj,Baniachong,Subidpur,a6e97b27b59d8e2ff5d80bb31a284134
685532926.0,893cc4108b3ffff,24.31760558,91.32494554,রাঢ়িশাল করাব উচ্চ বিদ্যালয় খেলার মাঠ,,"Raisal Karab High School Playground, Lakhai Upazila, Habiganj District, Sylhet Division, Bangladesh","রাঢ়িশাল করাব উচ্চ বিদ্যালয় খেলার মাঠ, লাখাই উপজেলা, হবিগঞ্জ জেলা, সিলেট বিভাগ, বাংলাদেশ",লাখাই উপজেলা,বাংলাদেশ,সিলেট বিভাগ,local_admin,boundaries,['playground'],[],Bangladesh,Sylhet,Habiganj,Lakhai,Karab,f0bc5a3340661c3815aa96cf5193fd99
685532927.0,893cc4108b3ffff,24.31773223,91.32530416,রাঢ়িশাল করাব উচ্চ বিদ্যালয়,,"Raisal Karab High School, Lakhai Upazila, Habiganj District, Sylhet Division, Bangladesh","রাঢ়িশাল করাব উচ্চ বিদ্যালয়, লাখাই উপজেলা, হবিগঞ্জ জেলা, সিলেট বিভাগ, বাংলাদেশ",লাখাই উপজেলা,বাংলাদেশ,সিলেট বিভাগ,local_admin,boundaries,['school'],[],Bangladesh,Sylhet,Habiganj,Lakhai,Karab,f0bc5a3340661c3815aa96cf5193fd99
708218196.0,893cc48e943ffff,24.51281194,91.35658788,School Playground,,"School Playground, Baniachong Upazila, Habiganj District, Sylhet Division, Bangladesh","স্কুল খেলার মাঠ, বানিয়াচং উপজেলা, হবিগঞ্জ জেলা, সিলেট বিভাগ, বাংলাদেশ",বানিয়াচং উপজেলা,বাংলাদেশ,সিলেট বিভাগ,local_admin,boundaries,['playground'],[],Bangladesh,Sylhet,Habiganj,Baniachong,DakshinPaschimBaniyachang,49aea7b15c00f7fd206bb64b4b4d38d7
708218200.0,893cc48e943ffff,24.51342379,91.35647352,,,"Baniachong Upazila, Habiganj District, Sylhet Division, Bangladesh","বানিয়াচং উপজেলা, হবিগঞ্জ জেলা, সিলেট বিভাগ, বাংলাদেশ",বানিয়াচং উপজেলা,বাংলাদেশ,সিলেট বিভাগ,local_admin,boundaries,['playground'],[],Bangladesh,Sylhet,Habiganj,Baniachong,DakshinPaschimBaniyachang,49aea7b15c00f7fd206bb64b4b4d38d7
708466641.0,893cc48e98fffff,24.5254301,91.36113735,,,"Baniachong Upazila, Habiganj District, Sylhet Division, Bangladesh","বানিয়াচং উপজেলা, হবিগঞ্জ জেলা, সিলেট বিভাগ, বাংলাদেশ",বানিয়াচং উপজেলা,বাংলাদেশ,সিলেট বিভাগ,local_admin,boundaries,['playground'],[],Bangladesh,Sylhet,Habiganj,Baniachong,UttarPurbaBaniachang,869d787c4ce792973a2f72d9e884fc4e
708466643.0,893cc48e997ffff,24.53151365,91.3591132,,,"Baniachong Upazila, Habiganj District, Sylhet Division, Bangladesh","বানিয়াচং উপজেলা, হবিগঞ্জ জেলা, সিলেট বিভাগ, বাংলাদেশ",বানিয়াচং উপজেলা,বাংলাদেশ,সিলেট বিভাগ,local_admin,boundaries,['playground'],[],Bangladesh,Sylhet,Habiganj,Baniachong,UttarPurbaBaniachang,869d787c4ce792973a2f72d9e884fc4e
900490776.0,893cc400453ffff,24.21139627,91.35786559,,,"Madhabpur, Habiganj District, Sylhet Division, Bangladesh","হবিগঞ্জ জেলা, সিলেট বিভাগ, বাংলাদেশ",Madhabpur,বাংলাদেশ,সিলেট বিভাগ,local_admin,boundaries,['pitch'],[],Bangladesh,Sylhet,Habiganj,Madhabpur,Noapara,c1294ee7242abafc638b6fcf9f9f0a93
324633817.0,893cc411363ffff,24.23737421,91.24270851,Morakori High School Playround,,"Morakori High School Playround, Lakhai Upazila, Habiganj District, Sylhet Division, Bangladesh","কোরাকোরি উচ্চ বিদ্যালয়ের খেলার মাঠ, লাখাই উপজেলা, হবিগঞ্জ জেলা, সিলেট বিভাগ, বাংলাদেশ",লাখাই উপজেলা,বাংলাদেশ,সিলেট বিভাগ,local_admin,boundaries,['playground'],[],Bangladesh,Sylhet,Habiganj,Lakhai,Murakari,210fff721c8ba82ed33a8c6e84e19b5f
324633818.0,893cc411363ffff,24.23766323,91.24252339,Morakori High School,,"Morakori High School, Lakhai Upazila, Habiganj District, Sylhet Division, Bangladesh","মোরাকোরি উচ্চ বিদ্যালয়, লাখাই উপজেলা, হবিগঞ্জ জেলা, সিলেট বিভাগ, বাংলাদেশ",লাখাই উপজেলা,বাংলাদেশ,সিলেট বিভাগ,local_admin,boundaries,['school'],[],Bangladesh,Sylhet,Habiganj,Lakhai,Murakari,210fff721c8ba82ed33a8c6e84e19b5f
324633819.0,893cc411363ffff,24.2378552,91.24235275,Morakori High School,,"Morakori High School, Lakhai Upazila, Habiganj District, Sylhet Division, Bangladesh","মোরাকোরি উচ্চ বিদ্যালয়, লাখাই উপজেলা, হবিগঞ্জ জেলা, সিলেট বিভাগ, বাংলাদেশ",লাখাই উপজেলা,বাংলাদেশ,সিলেট বিভাগ,local_admin,boundaries,['school'],[],Bangladesh,Sylhet,Habiganj,Lakhai,Murakari,210fff721c8ba82ed33a8c6e84e19b5f
324633820.0,893cc411363ffff,24.23702015,91.2425331,Morakori High School,,"Morakori High School, Lakhai Upazila, Habiganj District, Sylhet Division, Bangladesh","মোরাকোরি উচ্চ বিদ্যালয়, লাখাই উপজেলা, হবিগঞ্জ জেলা, সিলেট বিভাগ, বাংলাদেশ",লাখাই উপজেলা,বাংলাদেশ,সিলেট বিভাগ,local_admin,boundaries,['school'],[],Bangladesh,Sylhet,Habiganj,Lakhai,Murakari,210fff721c8ba82ed33a8c6e84e19b5f
1043456889.0,893cc40214fffff,24.25310738,91.37508941,Shahjibazar,,"Shahjibazar, Madhabpur, Habiganj District, Sylhet Division, Bangladesh","শাহজিবাজার, হবিগঞ্জ জেলা, সিলেট বিভাগ, বাংলাদেশ",Madhabpur,বাংলাদেশ,সিলেট বিভাগ,local_admin,boundaries,['substation'],[],Bangladesh,Sylhet,Habiganj,Madhabpur,Bagasura,47c3bbcfe3be6d62a6b66977bb765c08
1046884405.0,893cc402147ffff,24.25454213,91.37731393,,,"Madhabpur, Habiganj District, Sylhet Division, Bangladesh","হবিগঞ্জ জেলা, সিলেট বিভাগ, বাংলাদেশ",Madhabpur,বাংলাদেশ,সিলেট বিভাগ,local_admin,boundaries,['substation'],[],Bangladesh,Sylhet,Habiganj,Madhabpur,Bagasura,47c3bbcfe3be6d62a6b66977bb765c08
532902170.0,893cc415b6fffff,24.27723476,91.48136921,Laskarpur Eidgah,,"Laskarpur Eidgah, Habiganj, Habiganj District, Sylhet Division, Bangladesh","লাসকরপুর ইদগাহ, হবিগঞ্জ জেলা, সিলেট বিভাগ, বাংলাদেশ",Habiganj,বাংলাদেশ,সিলেট বিভাগ,local_admin,boundaries,['place_of_worship_muslim'],[],Bangladesh,Sylhet,Habiganj,HabiganjSadar,Laskarpur,49380a26d67e7b34cd7175212ba857af
532908817.0,893cc4074afffff,24.27085935,91.47892007,,,"Habiganj, Habiganj District, Sylhet Division, Bangladesh","হবিগঞ্জ জেলা, সিলেট বিভাগ, বাংলাদেশ",Habiganj,বাংলাদেশ,সিলেট বিভাগ,local_admin,boundaries,['bridge'],[],Bangladesh,Sylhet,Habiganj,Chunarughat,Ubahata,010ae949508cb70464c083c12275f80d
532911393.0,893cc407433ffff,24.26750116,91.47550266,Green Trust Motors,,"Green Trust Motors, Chunarughat Upazila, Habiganj District, Sylhet Division, Bangladesh","গ্রিন ট্রাস্ট মোটর, চুনারুঘাট উপজেলা, হবিগঞ্জ জেলা, সিলেট বিভাগ, বাংলাদেশ",চুনারুঘাট উপজেলা,বাংলাদেশ,সিলেট বিভাগ,local_admin,boundaries,['car'],[],Bangladesh,Sylhet,Habiganj,Chunarughat,Ubahata,010ae949508cb70464c083c12275f80d
532916700.0,893cc407433ffff,24.2665462,91.47678537,শায়েস্তাগঞ্জ নতুন ব্রীজ মসজিদ,,"Shaistaganj New Bridge Mosque, Chunarughat Upazila, Habiganj District, Sylhet Division, Bangladesh","শায়েস্তাগঞ্জ নতুন ব্রীজ মসজিদ, চুনারুঘাট উপজেলা, হবিগঞ্জ জেলা, সিলেট বিভাগ, বাংলাদেশ",চুনারুঘাট উপজেলা,বাংলাদেশ,সিলেট বিভাগ,local_admin,boundaries,['place_of_worship_muslim'],[],Bangladesh,Sylhet,Habiganj,Chunarughat,Ubahata,010ae949508cb70464c083c12275f80d
532917518.0,893cc4029b7ffff,24.26878577,91.45227581,Shayestaganj Fire Service & Civil Defence Station,,"Shayestaganj Fire Service & Civil Defence Station, Chunarughat Upazila, Habiganj District, Sylhet Division, Bangladesh","শায়স্তাগঞ্জ ফায়ার সার্ভিস এবং সিভিল ডিফেন্স স্টেশন, চুনারুঘাট উপজেলা, হবিগঞ্জ জেলা, সিলেট বিভাগ, বাংলাদেশ",চুনারুঘাট উপজেলা,বাংলাদেশ,সিলেট বিভাগ,local_admin,boundaries,['fire_station'],[],Bangladesh,Sylhet,Habiganj,HabiganjSadar,Saistaganj,36faeed8f045bbff4d4cbe58677d8e21
532917944.0,893cc40741bffff,24.26646116,91.46568602,Chowdhuri Filling Station,,"Chowdhuri Filling Station, Chunarughat Upazila, Habiganj District, Sylhet Division, Bangladesh","চৌধুরী ফিলিং স্টেশন, চুনারুঘাট উপজেলা, হবিগঞ্জ জেলা, সিলেট বিভাগ, বাংলাদেশ",চুনারুঘাট উপজেলা,বাংলাদেশ,সিলেট বিভাগ,local_admin,boundaries,['fuel'],[],Bangladesh,Sylhet,Habiganj,Chunarughat,Ubahata,010ae949508cb70464c083c12275f80d
533089733.0,893cc402d37ffff,24.27920038,91.4380138,Shaistaganj CNG Co. Limited,,"Shaistaganj CNG Co. Limited, Habiganj, Habiganj District, Sylhet Division, Bangladesh","শাইস্তাগঞ্জ সিএনজি কোং লিমিটেড, হবিগঞ্জ জেলা, সিলেট বিভাগ, বাংলাদেশ",Habiganj,বাংলাদেশ,সিলেট বিভাগ,local_admin,boundaries,['fuel'],[],Bangladesh,Sylhet,Habiganj,HabiganjSadar,ShayestagangPaurashava,63be8a8b2c092d0becf38ffe4bd6c78f
533090018.0,893cc402dafffff,24.28007067,91.43373444,G.S Brothers CNG Filling Station,,"G.S Brothers CNG Filling Station, Habiganj, Habiganj District, Sylhet Division, Bangladesh","জি.এস ব্রাদার্স সিএনজি ফিলিং স্টেশন, হবিগঞ্জ জেলা, সিলেট বিভাগ, বাংলাদেশ",Habiganj,বাংলাদেশ,সিলেট বিভাগ,local_admin,boundaries,['fuel'],[],Bangladesh,Sylhet,Habiganj,HabiganjSadar,ShayestagangPaurashava,63be8a8b2c092d0becf38ffe4bd6c78f
533090262.0,893cc415ac3ffff,24.2809123,91.44217347,Shaistaganj Islami Academy and High School,,"Shaistaganj Islami Academy and High School, Habiganj, Habiganj District, Sylhet Division, Bangladesh","শায়স্তাগঞ্জ ইসলামি একাডেমি এবং উচ্চ বিদ্যালয়, হবিগঞ্জ জেলা, সিলেট বিভাগ, বাংলাদেশ",Habiganj,বাংলাদেশ,সিলেট বিভাগ,local_admin,boundaries,['school'],[],Bangladesh,Sylhet,Habiganj,HabiganjSadar,ShayestagangPaurashava,63be8a8b2c092d0becf38ffe4bd6c78f
533091152.0,893cc402cb3ffff,24.27647783,91.40435058,,,"Habiganj, Habiganj District, Sylhet Division, Bangladesh","হবিগঞ্জ জেলা, সিলেট বিভাগ, বাংলাদেশ",Habiganj,বাংলাদেশ,সিলেট বিভাগ,local_admin,boundaries,['bridge'],[],Bangladesh,Sylhet,Habiganj,HabiganjSadar,Saistaganj,36faeed8f045bbff4d4cbe58677d8e21
588310093.0,893cc41612bffff,24.41330959,91.4295709,Sachindra College,['শচীন্দ্র কলেজ'],"Sachindra College, ","শচন্দ্র কলেজ, ",বানিয়াচং উপজেলা,বাংলাদেশ,সিলেট বিভাগ,housenumber,sameSource,['college'],[],Bangladesh,Sylhet,Habiganj,Baniachong,Pukhra,4132524ea88a6ef70864bf28de2e3d88
613285512.0,893cc415c03ffff,24.32006791,91.44064826,,,"Habiganj, Habiganj District, Sylhet Division, Bangladesh","হবিগঞ্জ জেলা, সিলেট বিভাগ, বাংলাদেশ",Habiganj,বাংলাদেশ,সিলেট বিভাগ,local_admin,boundaries,['marketplace'],[],Bangladesh,Sylhet,Habiganj,HabiganjSadar,Gopaya,32efa1000f2deeaa0319730db69fb7ed
623207318.0,893cc414403ffff,24.37247357,91.40876937,,,"Habiganj, Habiganj District, Sylhet Division, Bangladesh","হবিগঞ্জ জেলা, সিলেট বিভাগ, বাংলাদেশ",Habiganj,বাংলাদেশ,সিলেট বিভাগ,local_admin,boundaries,['pitch'],[],Bangladesh,Sylhet,Habiganj,HabiganjSadar,Gopaya,32efa1000f2deeaa0319730db69fb7ed
626871039.0,893cc414093ffff,24.36642227,91.42002792,BTCL (Bangladesh Telecommunications Company Limited) Habiganj,['বিটিসিএল (বাংলাদেশ টেলিযোগাযোগ কোম্পানি লিমিটেড) হবিগঞ্জ'],"BTCL Bangladesh Telecommunications Company Limited Habiganj, Habiganj, Habiganj District, Sylhet Division, Bangladesh","বিটিসিএল বাংলাদেশ টেলিযোগাযোগ সংস্থা লিমিটেড হাবিগঞ্জ, হবিগঞ্জ জেলা, সিলেট বিভাগ, বাংলাদেশ",Habiganj,বাংলাদেশ,সিলেট বিভাগ,local_admin,boundaries,['telecommunication'],[],Bangladesh,Sylhet,Habiganj,HabiganjSadar,Gopaya,32efa1000f2deeaa0319730db69fb7ed
626873475.0,893cc414433ffff,24.37246711,91.41582152,Habiganj Circuit House,['হবিগঞ্জ সার্কিট হাউজ'],"Habiganj Circuit House, Habiganj, Habiganj District, Sylhet Division, Bangladesh","হাবিগঞ্জ সার্কিট হাউস, হবিগঞ্জ জেলা, সিলেট বিভাগ, বাংলাদেশ",Habiganj,বাংলাদেশ,সিলেট বিভাগ,local_admin,boundaries,['guest_house'],[],Bangladesh,Sylhet,Habiganj,HabiganjSadar,HabiganjPaurashava,7f7acfef70d9ac8a30305f012105ff3a
626877674.0,893cc41442bffff,24.36895531,91.41783962,Shayestanagar Town Masjid,['শায়েস্তানগর টাউন মসজিদ'],"Shayestanagar Town Masjid, Habiganj, Habiganj District, Sylhet Division, Bangladesh","শায়স্তানগর শহর মসজিদ, হবিগঞ্জ জেলা, সিলেট বিভাগ, বাংলাদেশ",Habiganj,বাংলাদেশ,সিলেট বিভাগ,local_admin,boundaries,['place_of_worship_muslim'],[],Bangladesh,Sylhet,Habiganj,HabiganjSadar,Gopaya,32efa1000f2deeaa0319730db69fb7ed
626882083.0,893cc41409bffff,24.36385604,91.4210124,office of the Superintendent of Police (SP) Habiganj,['পুলিশ সুপারের কার্যালয় হবিগঞ্জ'],"office of the Superintendent of Police SP Habiganj, Habiganj, Habiganj District, Sylhet Division, Bangladesh","পুলিশ সুপার এর অফিস এসপি হবিগঞ্জ, হবিগঞ্জ জেলা, সিলেট বিভাগ, বাংলাদেশ",Habiganj,বাংলাদেশ,সিলেট বিভাগ,local_admin,boundaries,['police'],[],Bangladesh,Sylhet,Habiganj,HabiganjSadar,Gopaya,32efa1000f2deeaa0319730db69fb7ed
9074262317.0,893cc402347ffff,24.2347686,91.3708938,Talukder Chemical Industries Ltd.,,"Talukder Chemical Industries Ltd., ","তালুকদার কেমিক্যাল ইন্ডাস্ট্রিজ লিমিটেড, ",Madhabpur,বাংলাদেশ,সিলেট বিভাগ,housenumber,,,,Bangladesh,Sylhet,Habiganj,Madhabpur,Bagasura,47c3bbcfe3be6d62a6b66977bb765c08
665640961.0,893cc414403ffff,24.37237335,91.40890961,Habiganj Adhunik Stadium,,"Habiganj Adhunik Stadium, Habiganj, Habiganj District, Sylhet Division, Bangladesh","হাবিগঞ্জ অ্যাডুনিক স্টেডিয়াম, হবিগঞ্জ জেলা, সিলেট বিভাগ, বাংলাদেশ",Habiganj,বাংলাদেশ,সিলেট বিভাগ,local_admin,boundaries,['stadium'],[],Bangladesh,Sylhet,Habiganj,HabiganjSadar,Gopaya,32efa1000f2deeaa0319730db69fb7ed
759345061.0,893cc415a67ffff,24.2763701,91.45859875,,,"Habiganj, Habiganj District, Sylhet Division, Bangladesh","হবিগঞ্জ জেলা, সিলেট বিভাগ, বাংলাদেশ",Habiganj,বাংলাদেশ,সিলেট বিভাগ,local_admin,boundaries,['parking'],[],Bangladesh,Sylhet,Habiganj,HabiganjSadar,Saistaganj,36faeed8f045bbff4d4cbe58677d8e21
795667612.0,893cc402a87ffff,24.24009152,91.41359358,Lalchand Durga Temple,['লালচাঁদ দূর্গা মন্দির'],"Lalchand Durga Temple, Chunarughat Upazila, Habiganj District, Sylhet Division, Bangladesh","লালচাঁদ দুর্গা মন্দির, চুনারুঘাট উপজেলা, হবিগঞ্জ জেলা, সিলেট বিভাগ, বাংলাদেশ",চুনারুঘাট উপজেলা,বাংলাদেশ,সিলেট বিভাগ,local_admin,boundaries,['place_of_worship'],[],Bangladesh,Sylhet,Habiganj,Chunarughat,Sankhola,d5634f2df0bff51203871ab16f6c7912
430750753.0,893cc48db73ffff,24.39159096,91.35100611,Shahpur,,"Shahpur, ","শাহপুর, ",বানিয়াচং উপজেলা,বাংলাদেশ,সিলেট বিভাগ,housenumber,,,,Bangladesh,Sylhet,Habiganj,Baniachong,Makrampur,7469c202e4111d9d15b9bbd36921775d
795667613.0,893cc40284bffff,24.2425921,91.41370303,Lalchand Puran Bazar,['লালচাঁদ পুরান বাজার'],"Lalchand Puran Bazar, Chunarughat Upazila, Habiganj District, Sylhet Division, Bangladesh","লালচাঁদ পুরাণ বাজার, চুনারুঘাট উপজেলা, হবিগঞ্জ জেলা, সিলেট বিভাগ, বাংলাদেশ",চুনারুঘাট উপজেলা,বাংলাদেশ,সিলেট বিভাগ,local_admin,boundaries,['marketplace'],[],Bangladesh,Sylhet,Habiganj,Chunarughat,Sankhola,d5634f2df0bff51203871ab16f6c7912
430751953.0,893cc48ed3bffff,24.53504497,91.35051569,Laskar Bari,,"Laskar Bari, ","লাস্কার বারী, ",বানিয়াচং উপজেলা,বাংলাদেশ,সিলেট বিভাগ,housenumber,,,,Bangladesh,Sylhet,Habiganj,Baniachong,UttarPaschimBaniyachang,f2200e73663411283423939aa90cef4a
929220793.0,893cc41527bffff,24.27600817,91.38335241,হবিগঞ্জ,,"Habiganj, ","হবিগঞ্জ, ",Habiganj,বাংলাদেশ,সিলেট বিভাগ,housenumber,,,,Bangladesh,Sylhet,Habiganj,HabiganjSadar,Nurpur,e172b842a1fa274c649c2bbb4e3296a3
430734324.0,893cc41710fffff,24.36361265,91.3880128,Habiganj-Lakhai-Nasirnagar Road,,"Habiganj-Lakhai-Nasirnagar Road, Habiganj, Habiganj District, Sylhet Division, Bangladesh","হাবিগঞ্জ-লক্ষাই-নাসিরনগর রোড, হবিগঞ্জ জেলা, সিলেট বিভাগ, বাংলাদেশ",Habiganj,বাংলাদেশ,সিলেট বিভাগ,street,,,,Bangladesh,Sylhet,Habiganj,HabiganjSadar,Richi,a106d672b643ed52a321b0d8389e4098
430735209.0,893cc417067ffff,24.3520577,91.37013185,Lukra Bridge,,"Lukra Bridge, Habiganj, Habiganj District, Sylhet Division, Bangladesh","লুকরা ব্রিজ, হবিগঞ্জ জেলা, সিলেট বিভাগ, বাংলাদেশ",Habiganj,বাংলাদেশ,সিলেট বিভাগ,street,,,,Bangladesh,Sylhet,Habiganj,HabiganjSadar,Lukhra,48a423ce3d29b4f867ad90e45193cef4
875199140.0,893cc4144abffff,24.37637104,91.41324708,"B. K. G. C Government High School, Habiganj",,"B. K. G. C Government High School Habiganj, Habiganj, Habiganj District, Sylhet Division, Bangladesh","বি। কে। জি সি সরকার উচ্চ বিদ্যালয়ের হাবিগঞ্জ, হবিগঞ্জ জেলা, সিলেট বিভাগ, বাংলাদেশ",Habiganj,বাংলাদেশ,সিলেট বিভাগ,local_admin,boundaries,['educational_institution'],[],Bangladesh,Sylhet,Habiganj,HabiganjSadar,HabiganjPaurashava,7f7acfef70d9ac8a30305f012105ff3a
533110753.0,893cc40a0dbffff,24.10151174,91.29609498,rongdhonu restaurant & community Center,,"rongdhonu restaurant & community Center, Madhabpur, Habiganj District, Sylhet Division, Bangladesh","রঙ্গধনু রেস্তোঁরা ও সম্প্রদায় কেন্দ্র, হবিগঞ্জ জেলা, সিলেট বিভাগ, বাংলাদেশ",Madhabpur,বাংলাদেশ,সিলেট বিভাগ,local_admin,boundaries,['restaurant'],[],Bangladesh,Sylhet,Habiganj,Madhabpur,MadhabpurPaurashava,129ead5c89bd8b1dadee581772c98697
875202336.0,893cc414433ffff,24.37324856,91.41591616,"Model Police Station, Habiganj",,"Model Police Station Habiganj, Habiganj, Habiganj District, Sylhet Division, Bangladesh","মডেল থানা হাবিগঞ্জ, হবিগঞ্জ জেলা, সিলেট বিভাগ, বাংলাদেশ",Habiganj,বাংলাদেশ,সিলেট বিভাগ,local_admin,boundaries,['police'],[],Bangladesh,Sylhet,Habiganj,HabiganjSadar,HabiganjPaurashava,7f7acfef70d9ac8a30305f012105ff3a
533111855.0,893cc40a633ffff,24.09739473,91.28996289,Upazila Parishad Jame Masjid,,"Upazila Parishad Jame Masjid, Madhabpur, Habiganj District, Sylhet Division, Bangladesh","উপজিলা পরিশাদ জামে মসজিদ, হবিগঞ্জ জেলা, সিলেট বিভাগ, বাংলাদেশ",Madhabpur,বাংলাদেশ,সিলেট বিভাগ,local_admin,boundaries,['place_of_worship_muslim'],[],Bangladesh,Sylhet,Habiganj,Madhabpur,MadhabpurPaurashava,129ead5c89bd8b1dadee581772c98697
875203730.0,893cc414433ffff,24.37371706,91.41606975,"Shani Mandir, Habiganj Sadar",,"Shani Mandir Habiganj Sadar, Habiganj, Habiganj District, Sylhet Division, Bangladesh","শানি মন্দির হাবিগঞ্জ সদর, হবিগঞ্জ জেলা, সিলেট বিভাগ, বাংলাদেশ",Habiganj,বাংলাদেশ,সিলেট বিভাগ,local_admin,boundaries,['place_of_worship'],[],Bangladesh,Sylhet,Habiganj,HabiganjSadar,HabiganjPaurashava,7f7acfef70d9ac8a30305f012105ff3a
533112236.0,893cc40a633ffff,24.09677504,91.29160815,Bismillah Store,,"Bismillah Store, Madhabpur, Habiganj District, Sylhet Division, Bangladesh","বিসমিল্লাহ স্টোর, হবিগঞ্জ জেলা, সিলেট বিভাগ, বাংলাদেশ",Madhabpur,বাংলাদেশ,সিলেট বিভাগ,local_admin,boundaries,['greengrocer'],[],Bangladesh,Sylhet,Habiganj,Madhabpur,MadhabpurPaurashava,129ead5c89bd8b1dadee581772c98697
533112269.0,893cc40a633ffff,24.09639378,91.29154755,Lucky Hotel,,"Lucky Hotel, Madhabpur, Habiganj District, Sylhet Division, Bangladesh","ভাগ্যবান হোটেল, হবিগঞ্জ জেলা, সিলেট বিভাগ, বাংলাদেশ",Madhabpur,বাংলাদেশ,সিলেট বিভাগ,local_admin,boundaries,['hotel'],[],Bangladesh,Sylhet,Habiganj,Madhabpur,MadhabpurPaurashava,129ead5c89bd8b1dadee581772c98697
533119073.0,893cc40a63bffff,24.09533278,91.29045435,Dak Bangla Jame Masjid,,"Dak Bangla Jame Masjid, Madhabpur, Habiganj District, Sylhet Division, Bangladesh","ডাক বাংলা জামে মসজিদ, হবিগঞ্জ জেলা, সিলেট বিভাগ, বাংলাদেশ",Madhabpur,বাংলাদেশ,সিলেট বিভাগ,local_admin,boundaries,['place_of_worship_muslim'],[],Bangladesh,Sylhet,Habiganj,Madhabpur,MadhabpurPaurashava,129ead5c89bd8b1dadee581772c98697
533122613.0,893cc40a607ffff,24.09509481,91.28971204,Munshi Tower,,"Munshi Tower, Madhabpur, Habiganj District, Sylhet Division, Bangladesh","মুন্সি টাওয়ার, হবিগঞ্জ জেলা, সিলেট বিভাগ, বাংলাদেশ",Madhabpur,বাংলাদেশ,সিলেট বিভাগ,local_admin,boundaries,['mall'],[],Bangladesh,Sylhet,Habiganj,Madhabpur,MadhabpurPaurashava,129ead5c89bd8b1dadee581772c98697
533128402.0,893cc40a63bffff,24.09449015,91.28966475,National Life Insurance Limited,,"National Life Insurance Limited, Madhabpur, Habiganj District, Sylhet Division, Bangladesh","জাতীয় জীবন বীমা সীমাবদ্ধ, হবিগঞ্জ জেলা, সিলেট বিভাগ, বাংলাদেশ",Madhabpur,বাংলাদেশ,সিলেট বিভাগ,local_admin,boundaries,['insurance'],[],Bangladesh,Sylhet,Habiganj,Madhabpur,MadhabpurPaurashava,129ead5c89bd8b1dadee581772c98697
986963735.0,893cc48c8bbffff,24.46806248368012,91.37071981731287,Habiganj - Baniachang Road,,"Habiganj - Baniachang Road, Baniachong Upazila, Habiganj District, Sylhet Division, Bangladesh","হাবিগঞ্জ - বানিয়াচ্যাং রোড, বানিয়াচং উপজেলা, হবিগঞ্জ জেলা, সিলেট বিভাগ, বাংলাদেশ",বানিয়াচং উপজেলা,বাংলাদেশ,সিলেট বিভাগ,street,,,,Bangladesh,Sylhet,Habiganj,Baniachong,Subidpur,a6e97b27b59d8e2ff5d80bb31a284134
533128518.0,893cc40a63bffff,24.09464306,91.28969281,Pubali Bank Limited,,"Pubali Bank Limited, Madhabpur, Habiganj District, Sylhet Division, Bangladesh","পাবালি ব্যাংক লিমিটেড, হবিগঞ্জ জেলা, সিলেট বিভাগ, বাংলাদেশ",Madhabpur,বাংলাদেশ,সিলেট বিভাগ,local_admin,boundaries,['bank'],[],Bangladesh,Sylhet,Habiganj,Madhabpur,MadhabpurPaurashava,129ead5c89bd8b1dadee581772c98697
533129077.0,893cc40a63bffff,24.09497276,91.29044798,Madhabpur Highway Rest House,,"Madhabpur Highway Rest House, Madhabpur, Habiganj District, Sylhet Division, Bangladesh","মাধাবপুর হাইওয়ে রেস্ট হাউস, হবিগঞ্জ জেলা, সিলেট বিভাগ, বাংলাদেশ",Madhabpur,বাংলাদেশ,সিলেট বিভাগ,local_admin,boundaries,['guest_house'],[],Bangladesh,Sylhet,Habiganj,Madhabpur,MadhabpurPaurashava,129ead5c89bd8b1dadee581772c98697
533130358.0,893cc40a63bffff,24.09441671,91.29084141,Saiham Future Complex,,"Saiham Future Complex, Madhabpur, Habiganj District, Sylhet Division, Bangladesh","সাইহাম ফিউচার কমপ্লেক্স, হবিগঞ্জ জেলা, সিলেট বিভাগ, বাংলাদেশ",Madhabpur,বাংলাদেশ,সিলেট বিভাগ,local_admin,boundaries,['mall'],[],Bangladesh,Sylhet,Habiganj,Madhabpur,MadhabpurPaurashava,129ead5c89bd8b1dadee581772c98697
1046884403.0,893cc402d8fffff,24.28098072,91.42478552,,,"Habiganj, Habiganj District, Sylhet Division, Bangladesh","হবিগঞ্জ জেলা, সিলেট বিভাগ, বাংলাদেশ",Habiganj,বাংলাদেশ,সিলেট বিভাগ,local_admin,boundaries,['substation'],[],Bangladesh,Sylhet,Habiganj,HabiganjSadar,Nurpur,e172b842a1fa274c649c2bbb4e3296a3
718254560.0,893cc48c863ffff,24.455538123769188,91.3708588794084,Habiganj - Baniachang Road,,"Habiganj - Baniachang Road, Baniachong Upazila, Habiganj District, Sylhet Division, Bangladesh","হাবিগঞ্জ - বানিয়াচ্যাং রোড, বানিয়াচং উপজেলা, হবিগঞ্জ জেলা, সিলেট বিভাগ, বাংলাদেশ",বানিয়াচং উপজেলা,বাংলাদেশ,সিলেট বিভাগ,street,,,,Bangladesh,Sylhet,Habiganj,Baniachong,Pukhra,4132524ea88a6ef70864bf28de2e3d88
795111107.0,893cc417123ffff,24.365187541242392,91.39619674720916,Habiganj-Lakhai-Nasirnagar Road,['হবিগঞ্জ-লাখাই-নাসিরনগর সড়ক'],"Habiganj-Lakhai-Nasirnagar Road, Habiganj, Habiganj District, Sylhet Division, Bangladesh","হাবিগঞ্জ-লক্ষাই-নাসিরনগর রোড, হবিগঞ্জ-লাখাই-নাসিরনগর সড়ক, হবিগঞ্জ জেলা, সিলেট বিভাগ, বাংলাদেশ",Habiganj,বাংলাদেশ,সিলেট বিভাগ,street,,,,Bangladesh,Sylhet,Habiganj,HabiganjSadar,Richi,a106d672b643ed52a321b0d8389e4098
708214896.0,893cc48e98fffff,24.52491095137318,91.36064246619144,Habiganj - Baniachang Road,,"Habiganj - Baniachang Road, Baniachong Upazila, Habiganj District, Sylhet Division, Bangladesh","হাবিগঞ্জ - বানিয়াচ্যাং রোড, বানিয়াচং উপজেলা, হবিগঞ্জ জেলা, সিলেট বিভাগ, বাংলাদেশ",বানিয়াচং উপজেলা,বাংলাদেশ,সিলেট বিভাগ,street,,,,Bangladesh,Sylhet,Habiganj,Baniachong,UttarPurbaBaniachang,869d787c4ce792973a2f72d9e884fc4e
210641287.0,893cc402147ffff,24.257099563351417,91.3773110614651,ঢাকা-সিলেট মহাসড়ক,"['ঢাকা-সিলেট মহাসড়ক', 'Dhaka-Sylhet Highway']","Dhaka-Sylhet highway, Dhaka-Sylhet Highway, Habiganj, Habiganj District, Sylhet Division, Bangladesh","ঢাকা-সিলেট মহাসড়ক, হবিগঞ্জ জেলা, সিলেট বিভাগ, বাংলাদেশ",Habiganj,বাংলাদেশ,সিলেট বিভাগ,street,,,,Bangladesh,Sylhet,Habiganj,Madhabpur,Bagasura,47c3bbcfe3be6d62a6b66977bb765c08
210641287.0,893cc402147ffff,24.257099563351417,91.3773110614651,ঢাকা-সিলেট মহাসড়ক,"['ঢাকা-সিলেট মহাসড়ক', 'Dhaka-Sylhet Highway']","Dhaka-Sylhet highway, Dhaka-Sylhet Highway, Madhabpur, Habiganj District, Sylhet Division, Bangladesh","ঢাকা-সিলেট মহাসড়ক, হবিগঞ্জ জেলা, সিলেট বিভাগ, বাংলাদেশ",Madhabpur,বাংলাদেশ,সিলেট বিভাগ,street,,,,Bangladesh,Sylhet,Habiganj,Madhabpur,Bagasura,47c3bbcfe3be6d62a6b66977bb765c08
708389272.0,893cc48ebafffff,24.50407025078938,91.36508281687097,Hospital Road,,"Hospital Road, Baniachong Upazila, Habiganj District, Sylhet Division, Bangladesh","হাসপাতালের রাস্তা, বানিয়াচং উপজেলা, হবিগঞ্জ জেলা, সিলেট বিভাগ, বাংলাদেশ",বানিয়াচং উপজেলা,বাংলাদেশ,সিলেট বিভাগ,street,,,,Bangladesh,Sylhet,Habiganj,Baniachong,DakshinPurbaBaniyachang,ad82841f89bf4c8ebae051f0670aced9
234404920.0,893cc40a55bffff,24.11380413934584,91.30676655516406,Dhaka-Sylhet Highway,,"Dhaka-Sylhet Highway, Madhabpur, Habiganj District, Sylhet Division, Bangladesh","Dhaka াকা-সাইলহেট হাইওয়ে, হবিগঞ্জ জেলা, সিলেট বিভাগ, বাংলাদেশ",Madhabpur,বাংলাদেশ,সিলেট বিভাগ,street,,,,Bangladesh,Sylhet,Habiganj,Madhabpur,Andiurauk,69c4d6639def19e8103c7d7a417bc630
430750339.0,893cc48db17ffff,24.39989444822705,91.35075758505462,Shahpur Heala Road,['শাহপুর হিয়ালা সড়ক'],"Shahpur Heala Road, Shahpur, Habiganj, Habiganj District, Sylhet Division, Bangladesh","শাহপুর হেলা রোড, শাহপুর হিয়ালা সড়ক, শাহপুর, হবিগঞ্জ জেলা, সিলেট বিভাগ, বাংলাদেশ",Habiganj,বাংলাদেশ,সিলেট বিভাগ,street,,,,Bangladesh,Sylhet,Habiganj,Baniachong,Makrampur,7469c202e4111d9d15b9bbd36921775d
430750339.0,893cc48db17ffff,24.39989444822705,91.35075758505462,Shahpur Heala Road,['শাহপুর হিয়ালা সড়ক'],"Shahpur Heala Road, Shahpur, Baniachong Upazila, Habiganj District, Sylhet Division, Bangladesh","শাহপুর হেলা রোড, শাহপুর হিয়ালা সড়ক, শাহপুর, বানিয়াচং উপজেলা, হবিগঞ্জ জেলা, সিলেট বিভাগ, বাংলাদেশ",বানিয়াচং উপজেলা,বাংলাদেশ,সিলেট বিভাগ,street,,,,Bangladesh,Sylhet,Habiganj,Baniachong,Makrampur,7469c202e4111d9d15b9bbd36921775d
1087487334.0,893cc414277ffff,24.33072993,91.42825653,,,"Habiganj, Habiganj District, Sylhet Division, Bangladesh","হবিগঞ্জ জেলা, সিলেট বিভাগ, বাংলাদেশ",Habiganj,বাংলাদেশ,সিলেট বিভাগ,local_admin,boundaries,['helipad'],[],Bangladesh,Sylhet,Habiganj,HabiganjSadar,Nizampur,e96c27bc8e46fdc1284ae2119645ad7f
234404963.0,893cc401373ffff,24.130420857982507,91.36631691002415,Madhabpur - Habiganj Hwy,,"Madhabpur - Habiganj Hwy, Madhabpur, Habiganj District, Sylhet Division, Bangladesh","মাধাবপুর - হাবিগঞ্জ হুই, হবিগঞ্জ জেলা, সিলেট বিভাগ, বাংলাদেশ",Madhabpur,বাংলাদেশ,সিলেট বিভাগ,street,,,,Bangladesh,Sylhet,Habiganj,Madhabpur,Shahjahanpur,187625d90a41254d41fe34d76909c7e2
986963740.0,893cc48ee0fffff,24.50718355,91.315612,Baniachong-Shibpasha-Ajmeriganj Road,,"Baniachong-Shibpasha-Ajmeriganj Road, Ajmiriganj Upazila, Habiganj District, Sylhet Division, Bangladesh","বানিয়াচং-শিবপাশা-আজমিরিগঞ্জ রোড, আজমিরীগঞ্জ উপজেলা, হবিগঞ্জ জেলা, সিলেট বিভাগ, বাংলাদেশ",আজমিরীগঞ্জ উপজেলা,বাংলাদেশ,সিলেট বিভাগ,street,,,,Bangladesh,Sylhet,Habiganj,Baniachong,UttarPaschimBaniyachang,f2200e73663411283423939aa90cef4a
5619186097.0,893cc416137ffff,24.4189032,91.4307975,Balikhal Bazar,,"Balikhal Bazar, ","বালিখল বাজার, ",বানিয়াচং উপজেলা,বাংলাদেশ,সিলেট বিভাগ,housenumber,,,,Bangladesh,Sylhet,Habiganj,Baniachong,Pukhra,4132524ea88a6ef70864bf28de2e3d88
588310093.0,893cc41612bffff,24.41330959,91.4295709,Sachindra College,,"Sachindra College, ","শচন্দ্র কলেজ, ",বানিয়াচং উপজেলা,বাংলাদেশ,সিলেট বিভাগ,housenumber,,,,Bangladesh,Sylhet,Habiganj,Baniachong,Pukhra,4132524ea88a6ef70864bf28de2e3d88
239331358.0,893cc416553ffff,24.426371967931157,91.39534195933147,Habiganj - Baniachang Road,,"Habiganj - Baniachang Road, Baniachong Upazila, Habiganj District, Sylhet Division, Bangladesh","হাবিগঞ্জ - বানিয়াচ্যাং রোড, বানিয়াচং উপজেলা, হবিগঞ্জ জেলা, সিলেট বিভাগ, বাংলাদেশ",বানিয়াচং উপজেলা,বাংলাদেশ,সিলেট বিভাগ,street,,,,Bangladesh,Sylhet,Habiganj,Baniachong,Subidpur,a6e97b27b59d8e2ff5d80bb31a284134
