osm_id,h3level9,lat,lon,name,alt_names,name_en,name_bn,local_admin_name,admin0_name,admin2_name,addr_level,poi_addr_match,poi_class,poi_keywords,country,division,district,thana,union,region_hash
2343395447.0,893cf389b4bffff,22.9281896,89.6728479,Terokhada Upazila Health Complex,,"Terokhada Upazila Health Complex, ","তেরোখদা উপজিলা স্বাস্থ্য কমপ্লেক্স, ",তেরখাদা উপজেলা,বাংলাদেশ,খুলনা বিভাগ,housenumber,contains,['hospital'],[],Bangladesh,Khulna,Khulna,Terokhada,Terokhada,73b8b8324bc8f094520f70363cd84d68
2343395385.0,893cf3c009bffff,22.8099927,89.4105622,Dumuria Upazila Health Complex,,"Dumuria Upazila Health Complex, Dumuria Upazila, Khulna District, Khulna Division, Bangladesh","ডুমুরিয়া উপজিলা স্বাস্থ্য কমপ্লেক্স, ডুমুরিয়া উপজেলা, খুলনা জেলা, খুলনা বিভাগ, বাংলাদেশ",ডুমুরিয়া উপজেলা,বাংলাদেশ,খুলনা বিভাগ,local_admin,boundaries,['hospital'],[],Bangladesh,Khulna,Khulna,Dumuria,Dumuria,efa0b23285161e57fc14627763d788f5
3420466571.0,893cf3c9d3bffff,22.6174623,89.4167497,,,"Paikgachha Upazila, Khulna District, Khulna Division, Bangladesh","পাইকগাছা উপজেলা, খুলনা জেলা, খুলনা বিভাগ, বাংলাদেশ",পাইকগাছা উপজেলা,বাংলাদেশ,খুলনা বিভাগ,local_admin,boundaries,['ferry_terminal'],[],Bangladesh,Khulna,Khulna,Paikgachha,Deluti,41135003ccb8f22f66e55b1397e23065
3421652293.0,893cf352367ffff,22.5711002,89.4966459,,,"Dacope, Khulna District, Khulna Division, Bangladesh","খুলনা জেলা, খুলনা বিভাগ, বাংলাদেশ",Dacope,বাংলাদেশ,খুলনা বিভাগ,local_admin,boundaries,['ferry_terminal'],[],Bangladesh,Khulna,Khulna,Dacope,ChalnaPaurashava,8181b98c0e799f7fb38bc60aa34d21a3
3422504086.0,893cf3c8e7bffff,22.6318126,89.4166128,,,"Paikgachha Upazila, Khulna District, Khulna Division, Bangladesh","পাইকগাছা উপজেলা, খুলনা জেলা, খুলনা বিভাগ, বাংলাদেশ",পাইকগাছা উপজেলা,বাংলাদেশ,খুলনা বিভাগ,local_admin,boundaries,['ferry_terminal'],[],Bangladesh,Khulna,Khulna,Paikgachha,Deluti,41135003ccb8f22f66e55b1397e23065
3435850163.0,893cf352187ffff,22.6092374,89.4959518,,,"Dacope, Khulna District, Khulna Division, Bangladesh","খুলনা জেলা, খুলনা বিভাগ, বাংলাদেশ",Dacope,বাংলাদেশ,খুলনা বিভাগ,local_admin,boundaries,['ford'],[],Bangladesh,Khulna,Khulna,Dacope,Pankhali,4746dbabee84a1843e4cba943753d0f6
4592468363.0,893cf350243ffff,22.510667,89.491767,Sree Nagar sluice gate(School R pase),"['logic_undp', 'Aila & Sidr']","Sree Nagar sluice gate School R pase, Dacope, Khulna District, Khulna Division, Bangladesh","শ্রী নগর স্লুইস গেট স্কুল আর প্যাস, খুলনা জেলা, খুলনা বিভাগ, বাংলাদেশ",Dacope,বাংলাদেশ,খুলনা বিভাগ,local_admin,boundaries,['gate'],[],Bangladesh,Khulna,Khulna,Dacope,Kamarkhola,38071f4ab84b55b5f1950f0dd9314772
4592468482.0,893cf35a17bffff,22.4359345,89.4528926,Kalabagi Kacha Ghat,"['logic_undp', 'Aila and River Erosion']","Kalabagi Kacha Ghat, Dacope, Khulna District, Khulna Division, Bangladesh","কালাবাগী কাচা ঘাট, খুলনা জেলা, খুলনা বিভাগ, বাংলাদেশ",Dacope,বাংলাদেশ,খুলনা বিভাগ,local_admin,boundaries,['ferry_terminal'],[],Bangladesh,Khulna,Khulna,Dacope,Sutarkhali,d47e9f5cf8217667a1cb5b58690cd79e
4599204211.0,893cf35a503ffff,22.4608403,89.4353326,Naliyan Launch Ghat,"['logic_undp', 'Aila']","Naliyan Launch Ghat, Dacope, Khulna District, Khulna Division, Bangladesh","নালিয়ান লঞ্চ ঘাট, খুলনা জেলা, খুলনা বিভাগ, বাংলাদেশ",Dacope,বাংলাদেশ,খুলনা বিভাগ,local_admin,boundaries,['ferry_terminal'],[],Bangladesh,Khulna,Khulna,Dacope,Sutarkhali,d47e9f5cf8217667a1cb5b58690cd79e
4599250604.0,893cf350257ffff,22.5139356,89.492587,,,"Dacope, Khulna District, Khulna Division, Bangladesh","খুলনা জেলা, খুলনা বিভাগ, বাংলাদেশ",Dacope,বাংলাদেশ,খুলনা বিভাগ,local_admin,boundaries,['ferry_terminal'],[],Bangladesh,Khulna,Khulna,Dacope,Kamarkhola,38071f4ab84b55b5f1950f0dd9314772
4599250605.0,893cf350247ffff,22.5138461,89.49484,,,"Dacope, Khulna District, Khulna Division, Bangladesh","খুলনা জেলা, খুলনা বিভাগ, বাংলাদেশ",Dacope,বাংলাদেশ,খুলনা বিভাগ,local_admin,boundaries,['ferry_terminal'],[],Bangladesh,Khulna,Khulna,Dacope,Kailasganj,80301611bf402498fa1a04c00e532a16
4601779758.0,893cf3c983bffff,22.5954298,89.4099207,,,"Paikgachha Upazila, Khulna District, Khulna Division, Bangladesh","পাইকগাছা উপজেলা, খুলনা জেলা, খুলনা বিভাগ, বাংলাদেশ",পাইকগাছা উপজেলা,বাংলাদেশ,খুলনা বিভাগ,local_admin,boundaries,['ferry_terminal'],[],Bangladesh,Khulna,Khulna,Paikgachha,Deluti,41135003ccb8f22f66e55b1397e23065
4601780504.0,893cf3c9803ffff,22.5963106,89.4069795,,,"Paikgachha Upazila, Khulna District, Khulna Division, Bangladesh","পাইকগাছা উপজেলা, খুলনা জেলা, খুলনা বিভাগ, বাংলাদেশ",পাইকগাছা উপজেলা,বাংলাদেশ,খুলনা বিভাগ,local_admin,boundaries,['ferry_terminal'],[],Bangladesh,Khulna,Khulna,Paikgachha,Deluti,41135003ccb8f22f66e55b1397e23065
4631060152.0,893cd4100b3ffff,21.8161172,89.461612,,,"Koyra, Khulna District, Khulna Division, Bangladesh","কয়রা উপজেলা, খুলনা জেলা, খুলনা বিভাগ, বাংলাদেশ",কয়রা উপজেলা,বাংলাদেশ,খুলনা বিভাগ,local_admin,boundaries,['helipad'],[],Bangladesh,Khulna,Khulna,Koyra,NalianRange,62c06f79df1a7462f8bafa61b91a5cf4
4631060153.0,893cd4100b3ffff,21.8161909,89.4611782,,,"Koyra, Khulna District, Khulna Division, Bangladesh","কয়রা উপজেলা, খুলনা জেলা, খুলনা বিভাগ, বাংলাদেশ",কয়রা উপজেলা,বাংলাদেশ,খুলনা বিভাগ,local_admin,boundaries,['helipad'],[],Bangladesh,Khulna,Khulna,Koyra,NalianRange,62c06f79df1a7462f8bafa61b91a5cf4
5179712665.0,893cf3c74d3ffff,22.8727307,89.4914052,Arongghata Bypass,,"Arongghata Bypass, Dighalia, Khulna District, Khulna Division, Bangladesh","আরঙ্গঘাট বাইপাস, দিঘলিয়া উপজেলা, খুলনা জেলা, খুলনা বিভাগ, বাংলাদেশ",দিঘলিয়া উপজেলা,বাংলাদেশ,খুলনা বিভাগ,street,boundaries,['bus_stop'],[],Bangladesh,Khulna,Khulna,Daulatpur,Aranghata,f7130df3e222546778ae9f5499eb1969
5179716822.0,893cf3c74d3ffff,22.8731595,89.4915688,Al Jamil's Fish Grill & BBQ হোটেল আল-জামিল,,"Al Jamil's Fish Grill & BBQ, Dighalia, Khulna District, Khulna Division, Bangladesh","হোটেল আল-জামিল, দিঘলিয়া উপজেলা, খুলনা জেলা, খুলনা বিভাগ, বাংলাদেশ",দিঘলিয়া উপজেলা,বাংলাদেশ,খুলনা বিভাগ,local_admin,boundaries,['restaurant'],[],Bangladesh,Khulna,Khulna,Daulatpur,Aranghata,f7130df3e222546778ae9f5499eb1969
5185636607.0,893cf3d4317ffff,22.9474176,89.4792009,Pother Bazaar Fish Market,,"Pother Bazaar Fish Market, Phultala Upazila, Khulna District, Khulna Division, Bangladesh","পোথার বাজার ফিশ মার্কেট, ফুলতলা উপজেলা, খুলনা জেলা, খুলনা বিভাগ, বাংলাদেশ",ফুলতলা উপজেলা,বাংলাদেশ,খুলনা বিভাগ,local_admin,boundaries,['marketplace'],[],Bangladesh,Khulna,Khulna,Phultala,Damodar,9a379d891fe7f0e2557ba90cfc0380e4
5185638792.0,893cf3d4367ffff,22.9390028,89.485946,Khulna City Gate,,"Khulna City Gate, Phultala Upazila, Khulna District, Khulna Division, Bangladesh","খুলনা সিটি গেট, ফুলতলা উপজেলা, খুলনা জেলা, খুলনা বিভাগ, বাংলাদেশ",ফুলতলা উপজেলা,বাংলাদেশ,খুলনা বিভাগ,local_admin,boundaries,['monument'],[],Bangladesh,Khulna,Khulna,KhanJahanAli,AtraGilatala,109e9f7e02f6918e2592d857c1e1ea28
5185640337.0,893cf3d4377ffff,22.9417033,89.4840219,Gazi Hotel গাজী হোটেল,,"Gazi Hotel, Phultala Upazila, Khulna District, Khulna Division, Bangladesh","গাজী হোটেল, ফুলতলা উপজেলা, খুলনা জেলা, খুলনা বিভাগ, বাংলাদেশ",ফুলতলা উপজেলা,বাংলাদেশ,খুলনা বিভাগ,local_admin,boundaries,['restaurant'],[],Bangladesh,Khulna,Khulna,KhanJahanAli,AtraGilatala,109e9f7e02f6918e2592d857c1e1ea28
5185640390.0,893cf3d4317ffff,22.9478638,89.47934359999999,Maruf Hotel & Tea Stall,,"Maruf Hotel & Tea Stall, Phultala Upazila, Khulna District, Khulna Division, Bangladesh","মারুফ হোটেল ও চা স্টল, ফুলতলা উপজেলা, খুলনা জেলা, খুলনা বিভাগ, বাংলাদেশ",ফুলতলা উপজেলা,বাংলাদেশ,খুলনা বিভাগ,local_admin,boundaries,['tea'],[],Bangladesh,Khulna,Khulna,Phultala,Damodar,9a379d891fe7f0e2557ba90cfc0380e4
5185649035.0,893cf3d4377ffff,22.9421332,89.4839,Eastern Gate,,"Eastern Gate, Phultala Upazila, Khulna District, Khulna Division, Bangladesh","পূর্ব গেট, ফুলতলা উপজেলা, খুলনা জেলা, খুলনা বিভাগ, বাংলাদেশ",ফুলতলা উপজেলা,বাংলাদেশ,খুলনা বিভাগ,street,boundaries,['bus_stop'],[],Bangladesh,Khulna,Khulna,KhanJahanAli,AtraGilatala,109e9f7e02f6918e2592d857c1e1ea28
5185650207.0,893cf3d4377ffff,22.9423946,89.4838493,Gabtola Mosque,,"Gabtola Mosque, Phultala Upazila, Khulna District, Khulna Division, Bangladesh","গ্যাবটোলা মসজিদ, ফুলতলা উপজেলা, খুলনা জেলা, খুলনা বিভাগ, বাংলাদেশ",ফুলতলা উপজেলা,বাংলাদেশ,খুলনা বিভাগ,local_admin,boundaries,['place_of_worship_muslim'],[],Bangladesh,Khulna,Khulna,KhanJahanAli,AtraGilatala,109e9f7e02f6918e2592d857c1e1ea28
5185654627.0,893cf3d4317ffff,22.9469595,89.4797413,Pother Bazaar Mosque পথের বাজার মসজিদ,,"Pother Bazaar Mosque, Phultala Upazila, Khulna District, Khulna Division, Bangladesh","পথের বাজার মসজিদ, ফুলতলা উপজেলা, খুলনা জেলা, খুলনা বিভাগ, বাংলাদেশ",ফুলতলা উপজেলা,বাংলাদেশ,খুলনা বিভাগ,local_admin,boundaries,['place_of_worship_muslim'],[],Bangladesh,Khulna,Khulna,Phultala,Damodar,9a379d891fe7f0e2557ba90cfc0380e4
5185654797.0,893cf3d4317ffff,22.947356,89.4795129,Mukul Hotel & Tea Stall,,"Mukul Hotel & Tea Stall, Phultala Upazila, Khulna District, Khulna Division, Bangladesh","মুকুল হোটেল ও চা স্টল, ফুলতলা উপজেলা, খুলনা জেলা, খুলনা বিভাগ, বাংলাদেশ",ফুলতলা উপজেলা,বাংলাদেশ,খুলনা বিভাগ,local_admin,boundaries,['tea'],[],Bangladesh,Khulna,Khulna,Phultala,Damodar,9a379d891fe7f0e2557ba90cfc0380e4
5185662986.0,893cf3d4317ffff,22.9473971,89.4784862,Biltu Tea Stall,,"Biltu Tea Stall, Phultala Upazila, Khulna District, Khulna Division, Bangladesh","বিল্টু চা স্টল, ফুলতলা উপজেলা, খুলনা জেলা, খুলনা বিভাগ, বাংলাদেশ",ফুলতলা উপজেলা,বাংলাদেশ,খুলনা বিভাগ,local_admin,boundaries,['tea'],[],Bangladesh,Khulna,Khulna,Phultala,Damodar,9a379d891fe7f0e2557ba90cfc0380e4
5185680424.0,893cf3d414bffff,22.9568902,89.4803921,Notun Bazar নতুন বাজার,,"Notun Bazar, Phultala Upazila, Khulna District, Khulna Division, Bangladesh","নতুন বাজার, ফুলতলা উপজেলা, খুলনা জেলা, খুলনা বিভাগ, বাংলাদেশ",ফুলতলা উপজেলা,বাংলাদেশ,খুলনা বিভাগ,local_admin,boundaries,['marketplace'],[],Bangladesh,Khulna,Khulna,Phultala,Damodar,9a379d891fe7f0e2557ba90cfc0380e4
5185687439.0,893cf3d41c3ffff,22.9671494,89.4765188,Upazila Porisod Mosque,,"Upazila Porisod Mosque, Phultala Upazila, Khulna District, Khulna Division, Bangladesh","উপজিলা পরিশাদ মসজিদ, ফুলতলা উপজেলা, খুলনা জেলা, খুলনা বিভাগ, বাংলাদেশ",ফুলতলা উপজেলা,বাংলাদেশ,খুলনা বিভাগ,local_admin,boundaries,['place_of_worship_muslim'],[],Bangladesh,Khulna,Khulna,Phultala,Damodar,9a379d891fe7f0e2557ba90cfc0380e4
5185744725.0,893cf3d41d7ffff,22.9699444,89.4766925,Phultala Thana Jam-E Mosque ফুলতলা থানা জামে মসজিদ,,"Phultala Thana Jam-E Mosque, Phultala Upazila, Khulna District, Khulna Division, Bangladesh","ফুলতলা থানা জামে মসজিদ, ফুলতলা উপজেলা, খুলনা জেলা, খুলনা বিভাগ, বাংলাদেশ",ফুলতলা উপজেলা,বাংলাদেশ,খুলনা বিভাগ,local_admin,boundaries,['place_of_worship_muslim'],[],Bangladesh,Khulna,Khulna,Phultala,Damodar,9a379d891fe7f0e2557ba90cfc0380e4
5185756591.0,893cf3d419bffff,22.9736153,89.475374,Phultala Post Office 9210,,"Phultala Post Office 9210, Phultala Upazila, Khulna District, Khulna Division, Bangladesh","পল্টলা পোস্ট অফিস 9210, ফুলতলা উপজেলা, খুলনা জেলা, খুলনা বিভাগ, বাংলাদেশ",ফুলতলা উপজেলা,বাংলাদেশ,খুলনা বিভাগ,local_admin,boundaries,['post_office'],[],Bangladesh,Khulna,Khulna,Phultala,Phultala,22c4a0b827124d9f97332f739c2cf6b9
5185760169.0,893cf3d419bffff,22.9736857,89.4755175,Apex Show Room এপেক্স শো রুম,,"Apex Show Room, Phultala Upazila, Khulna District, Khulna Division, Bangladesh","এপেক্স শো রুম, ফুলতলা উপজেলা, খুলনা জেলা, খুলনা বিভাগ, বাংলাদেশ",ফুলতলা উপজেলা,বাংলাদেশ,খুলনা বিভাগ,local_admin,boundaries,['shoes'],[],Bangladesh,Khulna,Khulna,Phultala,Phultala,22c4a0b827124d9f97332f739c2cf6b9
5185764778.0,893cf3d456fffff,22.9742046,89.4740254,,,"Phultala Upazila, Khulna District, Khulna Division, Bangladesh","ফুলতলা উপজেলা, খুলনা জেলা, খুলনা বিভাগ, বাংলাদেশ",ফুলতলা উপজেলা,বাংলাদেশ,খুলনা বিভাগ,local_admin,boundaries,['atm'],[],Bangladesh,Khulna,Khulna,Phultala,Damodar,9a379d891fe7f0e2557ba90cfc0380e4
5185764779.0,893cf3d456fffff,22.9741499,89.4746875,Phultala Bus Stop,,"Phultala Bus Stop, Phultala Upazila, Khulna District, Khulna Division, Bangladesh","ফুল্টালা বাস স্টপ, ফুলতলা উপজেলা, খুলনা জেলা, খুলনা বিভাগ, বাংলাদেশ",ফুলতলা উপজেলা,বাংলাদেশ,খুলনা বিভাগ,street,boundaries,['bus_stop'],[],Bangladesh,Khulna,Khulna,Phultala,Damodar,9a379d891fe7f0e2557ba90cfc0380e4
5185771739.0,893cf3d419bffff,22.9745295,89.4760559,যয়তুন শপিং প্লাজা,,"Yatun Shopping Plaza, Phultala Upazila, Khulna District, Khulna Division, Bangladesh","যয়তুন শপিং প্লাজা, ফুলতলা উপজেলা, খুলনা জেলা, খুলনা বিভাগ, বাংলাদেশ",ফুলতলা উপজেলা,বাংলাদেশ,খুলনা বিভাগ,local_admin,boundaries,['supermarket'],[],Bangladesh,Khulna,Khulna,Phultala,Phultala,22c4a0b827124d9f97332f739c2cf6b9
5185771759.0,893cf3d419bffff,22.9746703,89.4758869,Shovon Shoes & Bichitra শোভন জুতা ও বিচিত্রা,,"Shovon Shoes & Bichitra, Phultala Upazila, Khulna District, Khulna Division, Bangladesh","শোভন জুতা ও বিচিত্রা, ফুলতলা উপজেলা, খুলনা জেলা, খুলনা বিভাগ, বাংলাদেশ",ফুলতলা উপজেলা,বাংলাদেশ,খুলনা বিভাগ,local_admin,boundaries,['shoes'],[],Bangladesh,Khulna,Khulna,Phultala,Phultala,22c4a0b827124d9f97332f739c2cf6b9
5185776180.0,893cf3d4567ffff,22.9745992,89.4748048,Shek Tea Stall,,"Shek Tea Stall, Phultala Upazila, Khulna District, Khulna Division, Bangladesh","শেক চা স্টল, ফুলতলা উপজেলা, খুলনা জেলা, খুলনা বিভাগ, বাংলাদেশ",ফুলতলা উপজেলা,বাংলাদেশ,খুলনা বিভাগ,local_admin,boundaries,['tea'],[],Bangladesh,Khulna,Khulna,Phultala,Phultala,22c4a0b827124d9f97332f739c2cf6b9
5185779640.0,893cf3d456fffff,22.9745218,89.4739156,,,"Phultala Upazila, Khulna District, Khulna Division, Bangladesh","ফুলতলা উপজেলা, খুলনা জেলা, খুলনা বিভাগ, বাংলাদেশ",ফুলতলা উপজেলা,বাংলাদেশ,খুলনা বিভাগ,local_admin,boundaries,['atm'],[],Bangladesh,Khulna,Khulna,Phultala,Damodar,9a379d891fe7f0e2557ba90cfc0380e4
5185794355.0,893cf3d45cbffff,22.9809283,89.455104,Mosque,,"Mosque, Phultala Upazila, Khulna District, Khulna Division, Bangladesh","মসজিদ, ফুলতলা উপজেলা, খুলনা জেলা, খুলনা বিভাগ, বাংলাদেশ",ফুলতলা উপজেলা,বাংলাদেশ,খুলনা বিভাগ,local_admin,boundaries,['place_of_worship_muslim'],[],Bangladesh,Khulna,Khulna,Phultala,Phultala,22c4a0b827124d9f97332f739c2cf6b9
5185804599.0,893cf3d44a3ffff,22.9831579,89.448778,Babul Tea Stall,,"Babul Tea Stall, Phultala Upazila, Khulna District, Khulna Division, Bangladesh","বাবুল চা স্টল, ফুলতলা উপজেলা, খুলনা জেলা, খুলনা বিভাগ, বাংলাদেশ",ফুলতলা উপজেলা,বাংলাদেশ,খুলনা বিভাগ,local_admin,boundaries,['tea'],[],Bangladesh,Khulna,Khulna,Phultala,Phultala,22c4a0b827124d9f97332f739c2cf6b9
5185808018.0,893cf3d44a3ffff,22.982743,89.4495721,Bejerdanga Bus Stand বেজেরডাঙ্গা বাস স্ট্যান্ড,,"Bejerdanga Bus Stand, Phultala Upazila, Khulna District, Khulna Division, Bangladesh","বেজেরডাঙ্গা বাস স্ট্যান্ড, ফুলতলা উপজেলা, খুলনা জেলা, খুলনা বিভাগ, বাংলাদেশ",ফুলতলা উপজেলা,বাংলাদেশ,খুলনা বিভাগ,street,boundaries,['bus_stop'],[],Bangladesh,Khulna,Khulna,Phultala,Phultala,22c4a0b827124d9f97332f739c2cf6b9
5185813667.0,893cf3d44a3ffff,22.983417,89.4474822,Muslim Hotel,,"Muslim Hotel, Phultala Upazila, Khulna District, Khulna Division, Bangladesh","মুসলিম হোটেল, ফুলতলা উপজেলা, খুলনা জেলা, খুলনা বিভাগ, বাংলাদেশ",ফুলতলা উপজেলা,বাংলাদেশ,খুলনা বিভাগ,local_admin,boundaries,['restaurant'],[],Bangladesh,Khulna,Khulna,Phultala,Phultala,22c4a0b827124d9f97332f739c2cf6b9
5289719729.0,893cf35a307ffff,22.4244958,89.449646,Thursday Hut ghat Paltan,"['logic_undp', 'Aila and River Erosion']","Thursday Hut ghat Paltan, Dacope, Khulna District, Khulna Division, Bangladesh","বৃহস্পতিবার হাট ঘাট পাল্টান, খুলনা জেলা, খুলনা বিভাগ, বাংলাদেশ",Dacope,বাংলাদেশ,খুলনা বিভাগ,local_admin,boundaries,['ferry_terminal'],[],Bangladesh,Khulna,Khulna,Dacope,Sutarkhali,d47e9f5cf8217667a1cb5b58690cd79e
5428004211.0,893cf3d4573ffff,22.97814,89.4696119,Phultala M.M. College,,"Phultala M.M. College, Phultala Upazila, Khulna District, Khulna Division, Bangladesh","পল্টলা এম.এম.কলেজ, ফুলতলা উপজেলা, খুলনা জেলা, খুলনা বিভাগ, বাংলাদেশ",ফুলতলা উপজেলা,বাংলাদেশ,খুলনা বিভাগ,local_admin,boundaries,['college'],[],Bangladesh,Khulna,Khulna,Phultala,Damodar,9a379d891fe7f0e2557ba90cfc0380e4
5444496719.0,893cf3d6383ffff,23.0060757,89.4438305,,,"Abhaynagar Upazila, Jashore District, Khulna Division, Bangladesh","অভয়নগর উপজেলা, যশোর জেলা, খুলনা বিভাগ, বাংলাদেশ",অভয়নগর উপজেলা,বাংলাদেশ,খুলনা বিভাগ,local_admin,boundaries,['gate'],[],Bangladesh,Khulna,Khulna,Phultala,Phultala,22c4a0b827124d9f97332f739c2cf6b9
5788596998.0,893cf3d438bffff,22.950935,89.4746969,ফুলতলা জংশন,['Phultala Junction'],"Fulatala junction, Phultala Upazila, Khulna District, Khulna Division, Bangladesh","ফুলতলা জংশন, ফুলতলা উপজেলা, খুলনা জেলা, খুলনা বিভাগ, বাংলাদেশ",ফুলতলা উপজেলা,বাংলাদেশ,খুলনা বিভাগ,local_admin,boundaries,['railway_station'],[],Bangladesh,Khulna,Khulna,Phultala,Damodar,9a379d891fe7f0e2557ba90cfc0380e4
5788596999.0,893cf3d44abffff,22.9784044,89.4468936,বেজেরডাঙ্গা,"['বেজেরডাঙ্গা রেলওয়ে স্টেশন', 'Bejerdanga Railway Station']","Bezerdanga, Phultala Upazila, Khulna District, Khulna Division, Bangladesh","বেজেরডাঙ্গা, ফুলতলা উপজেলা, খুলনা জেলা, খুলনা বিভাগ, বাংলাদেশ",ফুলতলা উপজেলা,বাংলাদেশ,খুলনা বিভাগ,local_admin,boundaries,['railway_station'],[],Bangladesh,Khulna,Khulna,Phultala,Phultala,22c4a0b827124d9f97332f739c2cf6b9
5998375245.0,893cf3d5a73ffff,22.8788199,89.485187,আড়ংঘাটা,"['আড়ংঘাটা রেলওয়ে স্টেশন', 'Arangghata Railway Station']","Aranghata, Dumuria Upazila, Khulna District, Khulna Division, Bangladesh","আড়ংঘাটা, ডুমুরিয়া উপজেলা, খুলনা জেলা, খুলনা বিভাগ, বাংলাদেশ",ডুমুরিয়া উপজেলা,বাংলাদেশ,খুলনা বিভাগ,local_admin,boundaries,['railway_station'],[],Bangladesh,Khulna,Khulna,Dumuria,Rangpur,a6d74d86970e548b8b7c7e2428c3ddb1
6027830068.0,893cf35024fffff,22.5091487,89.4914103,Nagar Secondary School,['logic_undp'],"Nagar Secondary School, Dacope, Khulna District, Khulna Division, Bangladesh","নাগর মাধ্যমিক বিদ্যালয়, খুলনা জেলা, খুলনা বিভাগ, বাংলাদেশ",Dacope,বাংলাদেশ,খুলনা বিভাগ,local_admin,boundaries,['school'],[],Bangladesh,Khulna,Khulna,Dacope,Kailasganj,80301611bf402498fa1a04c00e532a16
6027830085.0,893cf35021bffff,22.5191701,89.4918689,Sree Nagar Uttarpara Gov. Primary School,['logic_undp'],"Sree Nagar Uttarpara Gov. Primary School, Dacope, Khulna District, Khulna Division, Bangladesh","শ্রী নগর উত্তরপরা গভর্নর প্রাথমিক বিদ্যালয়, খুলনা জেলা, খুলনা বিভাগ, বাংলাদেশ",Dacope,বাংলাদেশ,খুলনা বিভাগ,local_admin,boundaries,['school'],[],Bangladesh,Khulna,Khulna,Dacope,Kamarkhola,38071f4ab84b55b5f1950f0dd9314772
6027830086.0,893cf35021bffff,22.5193373,89.4917241,Sree Nagar Uttarpara Gov. Primary School,['logic_undp'],"Sree Nagar Uttarpara Gov. Primary School, Dacope, Khulna District, Khulna Division, Bangladesh","শ্রী নগর উত্তরপরা গভর্নর প্রাথমিক বিদ্যালয়, খুলনা জেলা, খুলনা বিভাগ, বাংলাদেশ",Dacope,বাংলাদেশ,খুলনা বিভাগ,local_admin,boundaries,['school'],[],Bangladesh,Khulna,Khulna,Dacope,Kamarkhola,38071f4ab84b55b5f1950f0dd9314772
6027830113.0,893cf350623ffff,22.5324548,89.4873011,Razzak Hafijia Madrasha,"['logic_undp', 'Aila & Sidr']","Razzak Hafijia Madrasha, Dacope, Khulna District, Khulna Division, Bangladesh","রাজ্জাক হাফিজিয়া মাদ্রাশা, খুলনা জেলা, খুলনা বিভাগ, বাংলাদেশ",Dacope,বাংলাদেশ,খুলনা বিভাগ,local_admin,boundaries,['school'],[],Bangladesh,Khulna,Khulna,Dacope,Dacope,f6c99b49244e7973805093ed4474a7eb
6027830114.0,893cf35063bffff,22.5330928,89.4837821,Kalinagar G.C Secondary School,"['logic_undp', 'Aila & Sidr']","Kalinagar G.C Secondary School, Dacope, Khulna District, Khulna Division, Bangladesh","কালিনগর জি.সি মাধ্যমিক বিদ্যালয়, খুলনা জেলা, খুলনা বিভাগ, বাংলাদেশ",Dacope,বাংলাদেশ,খুলনা বিভাগ,local_admin,boundaries,['school'],[],Bangladesh,Khulna,Khulna,Dacope,Kamarkhola,38071f4ab84b55b5f1950f0dd9314772
6027830119.0,893cf350447ffff,22.5498517,89.4834428,Kamarkhola Gov. Primery School,"['logic_undp', 'Aila']","Kamarkhola Gov. Primery School, Dacope, Khulna District, Khulna Division, Bangladesh","কামারখোলা সরকারপ্রাথমিক বিদ্যালয়, খুলনা জেলা, খুলনা বিভাগ, বাংলাদেশ",Dacope,বাংলাদেশ,খুলনা বিভাগ,local_admin,boundaries,['school'],[],Bangladesh,Khulna,Khulna,Dacope,Kamarkhola,38071f4ab84b55b5f1950f0dd9314772
6027830120.0,893cf3515bbffff,22.5178346,89.4737506,Poschim sree Nogar Primary School,['logic_undp'],"Poschim sree Nogar Primary School, Dacope, Khulna District, Khulna Division, Bangladesh","পোসচিম শ্রী নোগার প্রাথমিক বিদ্যালয়, খুলনা জেলা, খুলনা বিভাগ, বাংলাদেশ",Dacope,বাংলাদেশ,খুলনা বিভাগ,local_admin,boundaries,['school'],[],Bangladesh,Khulna,Khulna,Dacope,Kamarkhola,38071f4ab84b55b5f1950f0dd9314772
6027830131.0,893cf3515bbffff,22.5186894,89.4720367,Saharabaad Hafejiya Nurani Madrasha,['logic_undp'],"Saharabaad Hafejiya Nurani Madrasha, Dacope, Khulna District, Khulna Division, Bangladesh","সাহারাবাদ হাফেজিয়া নুরানী মাদ্রাশা, খুলনা জেলা, খুলনা বিভাগ, বাংলাদেশ",Dacope,বাংলাদেশ,খুলনা বিভাগ,local_admin,boundaries,['school'],[],Bangladesh,Khulna,Khulna,Dacope,Kamarkhola,38071f4ab84b55b5f1950f0dd9314772
6027830136.0,893cf3514a7ffff,22.5149654,89.4553989,Ferick Dhanga BFC Primary School,"['logic_undp', 'Aila']","Ferick Dhanga BFC Primary School, Dacope, Khulna District, Khulna Division, Bangladesh","ফেরিক ধাঙ্গা বিএফসি প্রাথমিক বিদ্যালয়, খুলনা জেলা, খুলনা বিভাগ, বাংলাদেশ",Dacope,বাংলাদেশ,খুলনা বিভাগ,local_admin,boundaries,['school'],[],Bangladesh,Khulna,Khulna,Dacope,Sutarkhali,d47e9f5cf8217667a1cb5b58690cd79e
6027830137.0,893cf353343ffff,22.5206592,89.4494176,Vita Vhanga Horichor Primary School cam cyclone center.,['logic_undp'],"Vita Vhanga Horichor Primary School cam cyclone center., Dacope, Khulna District, Khulna Division, Bangladesh","ভিটা ভ্যাঙ্গা হরিচোর প্রাথমিক বিদ্যালয় ক্যাম সাইক্লোন সেন্টার।, খুলনা জেলা, খুলনা বিভাগ, বাংলাদেশ",Dacope,বাংলাদেশ,খুলনা বিভাগ,local_admin,boundaries,['school'],[],Bangladesh,Khulna,Khulna,Dacope,Kamarkhola,38071f4ab84b55b5f1950f0dd9314772
6027830138.0,893cf3506cbffff,22.5324449,89.4666535,Parjoy nogor Gov. Primary school cam cyclone center.,['logic_undp'],"Parjoy nogor Gov. Primary school cam cyclone center., Dacope, Khulna District, Khulna Division, Bangladesh","পারজয় নোগর গভর্নর। প্রাথমিক বিদ্যালয় ক্যাম সাইক্লোন সেন্টার।, খুলনা জেলা, খুলনা বিভাগ, বাংলাদেশ",Dacope,বাংলাদেশ,খুলনা বিভাগ,local_admin,boundaries,['school'],[],Bangladesh,Khulna,Khulna,Dacope,Kamarkhola,38071f4ab84b55b5f1950f0dd9314772
6027830139.0,893cf3533afffff,22.5330785,89.4610631,Joy Nagar Gov. Primary School Cam Cyclone Center.,['logic_undp'],"Joy Nagar Gov. Primary School Cam Cyclone Center., Dacope, Khulna District, Khulna Division, Bangladesh","জয় নগর গভর্নর প্রাথমিক বিদ্যালয় ক্যাম সাইক্লোন সেন্টার।, খুলনা জেলা, খুলনা বিভাগ, বাংলাদেশ",Dacope,বাংলাদেশ,খুলনা বিভাগ,local_admin,boundaries,['school'],[],Bangladesh,Khulna,Khulna,Dacope,Kamarkhola,38071f4ab84b55b5f1950f0dd9314772
6027830146.0,893cf3533afffff,22.5337877,89.4602443,GP Secondary School,"['logic_undp', 'Aila']","GP Secondary School, Dacope, Khulna District, Khulna Division, Bangladesh","জিপি মাধ্যমিক বিদ্যালয়, খুলনা জেলা, খুলনা বিভাগ, বাংলাদেশ",Dacope,বাংলাদেশ,খুলনা বিভাগ,local_admin,boundaries,['school'],[],Bangladesh,Khulna,Khulna,Dacope,Kamarkhola,38071f4ab84b55b5f1950f0dd9314772
6027830151.0,893cf3533bbffff,22.5337518,89.4553761,Joy nagar dakhil madrasa cam cyclone center.,['logic_undp'],"Joy nagar dakhil madrasa cam cyclone center., Dacope, Khulna District, Khulna Division, Bangladesh","জয় নগর দাখিল মাদ্রাসা ক্যাম সাইক্লোন সেন্টার।, খুলনা জেলা, খুলনা বিভাগ, বাংলাদেশ",Dacope,বাংলাদেশ,খুলনা বিভাগ,local_admin,boundaries,['school'],[],Bangladesh,Khulna,Khulna,Dacope,Kamarkhola,38071f4ab84b55b5f1950f0dd9314772
6027830156.0,893cf353383ffff,22.5340602,89.4504207,Parjoy Nogar Amdadul ulum Coui madrasa & Aytem Khana,"['logic_undp', 'Aila']","Parjoy Nogar Amdadul ulum Coui madrasa & Aytem Khana, Dacope, Khulna District, Khulna Division, Bangladesh","পারজয় নোগার আমদাদুল উলুম কুই মাদ্রাসা ও আইটেম খানা, খুলনা জেলা, খুলনা বিভাগ, বাংলাদেশ",Dacope,বাংলাদেশ,খুলনা বিভাগ,local_admin,boundaries,['school'],[],Bangladesh,Khulna,Khulna,Dacope,Kamarkhola,38071f4ab84b55b5f1950f0dd9314772
6027830157.0,893cf353397ffff,22.5374518,89.4484976,Amerunnessa Noorani Hafizia Madrasa,"['logic_undp', 'Aila']","Amerunnessa Noorani Hafizia Madrasa, Dacope, Khulna District, Khulna Division, Bangladesh","আমেরুনেসা নুরানী হাফিজিয়া মাদ্রাসা, খুলনা জেলা, খুলনা বিভাগ, বাংলাদেশ",Dacope,বাংলাদেশ,খুলনা বিভাগ,local_admin,boundaries,['school'],[],Bangladesh,Khulna,Khulna,Dacope,Kamarkhola,38071f4ab84b55b5f1950f0dd9314772
6027830158.0,893cf353153ffff,22.5448205,89.4533618,South Joy Nagar Gov. Primary School,"['logic_undp', 'Earthquake']","South Joy Nagar Gov. Primary School, Dacope, Khulna District, Khulna Division, Bangladesh","দক্ষিণ জয় নগর গভর্নর প্রাথমিক বিদ্যালয়, খুলনা জেলা, খুলনা বিভাগ, বাংলাদেশ",Dacope,বাংলাদেশ,খুলনা বিভাগ,local_admin,boundaries,['school'],[],Bangladesh,Khulna,Khulna,Dacope,Kamarkhola,38071f4ab84b55b5f1950f0dd9314772
6027830179.0,893cf3531abffff,22.5536739,89.4631626,Sundarbans Adarsha Secondary School,"['logic_undp', 'Aila']","Sundarbans Adarsha Secondary School, Dacope, Khulna District, Khulna Division, Bangladesh","সুন্দরবানদের অমৃত মাধ্যমিক বিদ্যালয়, খুলনা জেলা, খুলনা বিভাগ, বাংলাদেশ",Dacope,বাংলাদেশ,খুলনা বিভাগ,local_admin,boundaries,['school'],[],Bangladesh,Khulna,Khulna,Dacope,Kamarkhola,38071f4ab84b55b5f1950f0dd9314772
6027830180.0,893cf3531abffff,22.5542015,89.4650562,Rajnogar Cannikcor Gov. Primary School.,"['logic_undp', 'Aila']","Rajnogar Cannikcor Gov. Primary School., Dacope, Khulna District, Khulna Division, Bangladesh","রাজনোগর ক্যানিককর গভর্নর প্রাথমিক বিদ্যালয়।, খুলনা জেলা, খুলনা বিভাগ, বাংলাদেশ",Dacope,বাংলাদেশ,খুলনা বিভাগ,local_admin,boundaries,['school'],[],Bangladesh,Khulna,Khulna,Dacope,Kamarkhola,38071f4ab84b55b5f1950f0dd9314772
6027830181.0,893cf350493ffff,22.5657293,89.4781494,Kamarkhola lower secondary school cam cyclone center.,"['logic_undp', 'Aila']","Kamarkhola lower secondary school cam cyclone center., Dacope, Khulna District, Khulna Division, Bangladesh","কামারখোলা লোয়ার মাধ্যমিক বিদ্যালয় ক্যাম সাইক্লোন সেন্টার।, খুলনা জেলা, খুলনা বিভাগ, বাংলাদেশ",Dacope,বাংলাদেশ,খুলনা বিভাগ,local_admin,boundaries,['school'],[],Bangladesh,Khulna,Khulna,Dacope,Kamarkhola,38071f4ab84b55b5f1950f0dd9314772
6027904768.0,893cf3531cfffff,22.546364,89.452826,,,"Dacope, Khulna District, Khulna Division, Bangladesh","খুলনা জেলা, খুলনা বিভাগ, বাংলাদেশ",Dacope,বাংলাদেশ,খুলনা বিভাগ,local_admin,boundaries,['gate'],[],Bangladesh,Khulna,Khulna,Dacope,Kamarkhola,38071f4ab84b55b5f1950f0dd9314772
6028966558.0,893cf353383ffff,22.5364175,89.4497073,Kamarkhula river's sluice gale,['logic_undp'],"Kamarkhula river's sluice gale, Dacope, Khulna District, Khulna Division, Bangladesh","কামারখুলা নদীর স্লুইস গ্যাল, খুলনা জেলা, খুলনা বিভাগ, বাংলাদেশ",Dacope,বাংলাদেশ,খুলনা বিভাগ,local_admin,boundaries,['gate'],[],Bangladesh,Khulna,Khulna,Dacope,Kamarkhola,38071f4ab84b55b5f1950f0dd9314772
6028996113.0,893cf3506bbffff,22.5407108,89.4790381,Shib Nogar sluic gate,['logic_undp'],"Shib Nogar sluic gate, Dacope, Khulna District, Khulna Division, Bangladesh","শিব নগর স্লুইস গেট, খুলনা জেলা, খুলনা বিভাগ, বাংলাদেশ",Dacope,বাংলাদেশ,খুলনা বিভাগ,local_admin,boundaries,['gate'],[],Bangladesh,Khulna,Khulna,Dacope,Kamarkhola,38071f4ab84b55b5f1950f0dd9314772
6028996122.0,893cf3533c3ffff,22.5285862,89.4451636,Katakhali Sluice Gate,['logic_undp'],"Katakhali Sluice Gate, Dacope, Khulna District, Khulna Division, Bangladesh","কাতখালি স্লুইস গেট, খুলনা জেলা, খুলনা বিভাগ, বাংলাদেশ",Dacope,বাংলাদেশ,খুলনা বিভাগ,local_admin,boundaries,['gate'],[],Bangladesh,Khulna,Khulna,Dacope,Kamarkhola,38071f4ab84b55b5f1950f0dd9314772
6028996136.0,893cf353383ffff,22.5359108,89.4496617,Parjoy Nogar Bazar,"['logic_undp', 'Aila']","Parjoy Nogar Bazar, Dacope, Khulna District, Khulna Division, Bangladesh","পারজয় নোগার বাজার, খুলনা জেলা, খুলনা বিভাগ, বাংলাদেশ",Dacope,বাংলাদেশ,খুলনা বিভাগ,local_admin,boundaries,['supermarket'],[],Bangladesh,Khulna,Khulna,Dacope,Kamarkhola,38071f4ab84b55b5f1950f0dd9314772
6029112837.0,893cf350213ffff,22.5199815,89.4921841,Sree Nagar Sluice gate(In front of School),['logic_undp'],"Sree Nagar Sluice gate In front of School, Dacope, Khulna District, Khulna Division, Bangladesh","স্কুলের সামনে শ্রী নগর স্লুইস গেট, খুলনা জেলা, খুলনা বিভাগ, বাংলাদেশ",Dacope,বাংলাদেশ,খুলনা বিভাগ,local_admin,boundaries,['gate'],[],Bangladesh,Khulna,Khulna,Dacope,Kailasganj,80301611bf402498fa1a04c00e532a16
6029112840.0,893cf350633ffff,22.5348604,89.4844472,Kalinagar Market's Sluice Gate,['logic_undp'],"Kalinagar Market's Sluice Gate, Dacope, Khulna District, Khulna Division, Bangladesh","কালিনগর বাজারের স্লুইস গেট, খুলনা জেলা, খুলনা বিভাগ, বাংলাদেশ",Dacope,বাংলাদেশ,খুলনা বিভাগ,local_admin,boundaries,['gate'],[],Bangladesh,Khulna,Khulna,Dacope,Kamarkhola,38071f4ab84b55b5f1950f0dd9314772
6029371602.0,893cf351567ffff,22.5058617,89.4797292,Hussainpur Arshad Moulana's Mosque.,"['logic_undp', 'Aila & Sidr']","Hussainpur Arshad Moulana's Mosque., Dacope, Khulna District, Khulna Division, Bangladesh","হুসেনপুর আরশাদ মৌলানার মসজিদ।, খুলনা জেলা, খুলনা বিভাগ, বাংলাদেশ",Dacope,বাংলাদেশ,খুলনা বিভাগ,local_admin,boundaries,['place_of_worship_muslim'],[],Bangladesh,Khulna,Khulna,Dacope,Sutarkhali,d47e9f5cf8217667a1cb5b58690cd79e
6029371603.0,893cf350243ffff,22.5111316,89.4911615,Sree Nagar Kali temple,"['logic_undp', 'Aila']","Sree Nagar Kali temple, Dacope, Khulna District, Khulna Division, Bangladesh","শ্রী নগর কালী মন্দির, খুলনা জেলা, খুলনা বিভাগ, বাংলাদেশ",Dacope,বাংলাদেশ,খুলনা বিভাগ,local_admin,boundaries,['place_of_worship'],[],Bangladesh,Khulna,Khulna,Dacope,Kamarkhola,38071f4ab84b55b5f1950f0dd9314772
6029371604.0,893cf350257ffff,22.5140833,89.4921076,Jugesh Getidar Kali Mondir,"['logic_undp', 'Aila']","Jugesh Getidar Kali Mondir, Dacope, Khulna District, Khulna Division, Bangladesh","জুগেশ গেটিদার কালী মন্ডির, খুলনা জেলা, খুলনা বিভাগ, বাংলাদেশ",Dacope,বাংলাদেশ,খুলনা বিভাগ,local_admin,boundaries,['place_of_worship'],[],Bangladesh,Khulna,Khulna,Dacope,Kamarkhola,38071f4ab84b55b5f1950f0dd9314772
6029371605.0,893cf350677ffff,22.5283905,89.4829077,Temple,"['logic_undp', 'Aila']","Temple, Dacope, Khulna District, Khulna Division, Bangladesh","মন্দির, খুলনা জেলা, খুলনা বিভাগ, বাংলাদেশ",Dacope,বাংলাদেশ,খুলনা বিভাগ,local_admin,boundaries,['place_of_worship'],[],Bangladesh,Khulna,Khulna,Dacope,Kamarkhola,38071f4ab84b55b5f1950f0dd9314772
6029371606.0,893cf350623ffff,22.5332433,89.4863985,Kalinagar Bazer Jame Mosque,"['logic_undp', 'Aila & Sidr']","Kalinagar Bazer Jame Mosque, Dacope, Khulna District, Khulna Division, Bangladesh","কালিনগর বাজার জামে মসজিদ, খুলনা জেলা, খুলনা বিভাগ, বাংলাদেশ",Dacope,বাংলাদেশ,খুলনা বিভাগ,local_admin,boundaries,['place_of_worship_muslim'],[],Bangladesh,Khulna,Khulna,Dacope,Dacope,f6c99b49244e7973805093ed4474a7eb
6029371607.0,893cf350623ffff,22.5334235,89.4855483,Kalinagar Bazer's Temple,['logic_undp'],"Kalinagar Bazer's Temple, Dacope, Khulna District, Khulna Division, Bangladesh","কালিনগর বাজারের মন্দির, খুলনা জেলা, খুলনা বিভাগ, বাংলাদেশ",Dacope,বাংলাদেশ,খুলনা বিভাগ,local_admin,boundaries,['place_of_worship'],[],Bangladesh,Khulna,Khulna,Dacope,Dacope,f6c99b49244e7973805093ed4474a7eb
6029371609.0,893cf35060fffff,22.5330141,89.4809657,Kalinagar's Kali Temple,['logic_undp'],"Kalinagar's Kali Temple, Dacope, Khulna District, Khulna Division, Bangladesh","কালিনগরের কালী মন্দির, খুলনা জেলা, খুলনা বিভাগ, বাংলাদেশ",Dacope,বাংলাদেশ,খুলনা বিভাগ,local_admin,boundaries,['place_of_worship'],[],Bangladesh,Khulna,Khulna,Dacope,Kamarkhola,38071f4ab84b55b5f1950f0dd9314772
6029371610.0,893cf35060fffff,22.5334118,89.4814324,Kalinagar Radha Gobindo Temple,['logic_undp'],"Kalinagar Radha Gobindo Temple, Dacope, Khulna District, Khulna Division, Bangladesh","কালিনগর রাধা গোবিন্দো মন্দির, খুলনা জেলা, খুলনা বিভাগ, বাংলাদেশ",Dacope,বাংলাদেশ,খুলনা বিভাগ,local_admin,boundaries,['place_of_worship'],[],Bangladesh,Khulna,Khulna,Dacope,Kamarkhola,38071f4ab84b55b5f1950f0dd9314772
6029371611.0,893cf350607ffff,22.5346127,89.4825992,Kalinagar Old Jame Mosque,"['logic_undp', 'Aila']","Kalinagar Old Jame Mosque, Dacope, Khulna District, Khulna Division, Bangladesh","কালিনগর পুরাতন জামে মসজিদ, খুলনা জেলা, খুলনা বিভাগ, বাংলাদেশ",Dacope,বাংলাদেশ,খুলনা বিভাগ,local_admin,boundaries,['place_of_worship_muslim'],[],Bangladesh,Khulna,Khulna,Dacope,Kamarkhola,38071f4ab84b55b5f1950f0dd9314772
6029371612.0,893cf350607ffff,22.5356136,89.482457,Vita Vhanga Sorbo Janin Kali Temple,"['logic_undp', 'Have Rain fall']","Vita Vhanga Sorbo Janin Kali Temple, Dacope, Khulna District, Khulna Division, Bangladesh","ভিটা ভঙ্গা সোর্বো জানিন কালী মন্দির, খুলনা জেলা, খুলনা বিভাগ, বাংলাদেশ",Dacope,বাংলাদেশ,খুলনা বিভাগ,local_admin,boundaries,['place_of_worship'],[],Bangladesh,Khulna,Khulna,Dacope,Kamarkhola,38071f4ab84b55b5f1950f0dd9314772
6029371613.0,893cf350447ffff,22.5496102,89.4835755,Kamarkhola Basondi Temple,"['logic_undp', 'Aila']","Kamarkhola Basondi Temple, Dacope, Khulna District, Khulna Division, Bangladesh","কামারখোলা বাসোন্দি মন্দির, খুলনা জেলা, খুলনা বিভাগ, বাংলাদেশ",Dacope,বাংলাদেশ,খুলনা বিভাগ,local_admin,boundaries,['place_of_worship'],[],Bangladesh,Khulna,Khulna,Dacope,Kamarkhola,38071f4ab84b55b5f1950f0dd9314772
709642351.0,893cf3c965bffff,22.5813487,89.3055285,,,"Paikgachha Upazila, Khulna District, Khulna Division, Bangladesh","পাইকগাছা উপজেলা, খুলনা জেলা, খুলনা বিভাগ, বাংলাদেশ",পাইকগাছা উপজেলা,বাংলাদেশ,খুলনা বিভাগ,local_admin,boundaries,['ferry_terminal'],[],Bangladesh,Khulna,Khulna,Paikgachha,PaikgachhaPaurashava,b293420dbdfde5a719f36c30cab5026b
709642385.0,893cf234b2fffff,22.5806639,89.3039238,,,"Paikgachha Upazila, Khulna District, Khulna Division, Bangladesh","পাইকগাছা উপজেলা, খুলনা জেলা, খুলনা বিভাগ, বাংলাদেশ",পাইকগাছা উপজেলা,বাংলাদেশ,খুলনা বিভাগ,local_admin,boundaries,['ferry_terminal'],[],Bangladesh,Khulna,Khulna,Paikgachha,Laskar,60e9867e788269b19337f3dfa803a122
6029371614.0,893cf350433ffff,22.5576941,89.4910133,Gajipara Jami Mosque,"['logic_undp', 'Aila']","Gajipara Jami Mosque, Dacope, Khulna District, Khulna Division, Bangladesh","গাজিপারা জামি মসজিদ, খুলনা জেলা, খুলনা বিভাগ, বাংলাদেশ",Dacope,বাংলাদেশ,খুলনা বিভাগ,local_admin,boundaries,['place_of_worship_muslim'],[],Bangladesh,Khulna,Khulna,Dacope,Kamarkhola,38071f4ab84b55b5f1950f0dd9314772
6029371615.0,893cf350493ffff,22.5659324,89.4787543,Kamarkhola Uttar para Kali temple,"['logic_undp', 'Aila']","Kamarkhola Uttar para Kali temple, Dacope, Khulna District, Khulna Division, Bangladesh","কামারখোলা উত্তর প্যারা কালী মন্দির, খুলনা জেলা, খুলনা বিভাগ, বাংলাদেশ",Dacope,বাংলাদেশ,খুলনা বিভাগ,local_admin,boundaries,['place_of_worship'],[],Bangladesh,Khulna,Khulna,Dacope,Kamarkhola,38071f4ab84b55b5f1950f0dd9314772
6029371616.0,893cf3505d3ffff,22.5673343,89.4954349,1 No ward Obda Jami Mosque.,"['logic_undp', 'Aila']","1 No ward Obda Jami Mosque., Dacope, Khulna District, Khulna Division, Bangladesh","1 ওয়ার্ড ওবদা জামি মসজিদ।, খুলনা জেলা, খুলনা বিভাগ, বাংলাদেশ",Dacope,বাংলাদেশ,খুলনা বিভাগ,local_admin,boundaries,['place_of_worship_muslim'],[],Bangladesh,Khulna,Khulna,Dacope,Kamarkhola,38071f4ab84b55b5f1950f0dd9314772
6029371617.0,893cf35230bffff,22.5759286,89.4882868,Uttarpara ponchegan mosque,"['logic_undp', 'Aila']","Uttarpara ponchegan mosque, Dacope, Khulna District, Khulna Division, Bangladesh","উত্তরপেরা পঞ্চেগান মসজিদ, খুলনা জেলা, খুলনা বিভাগ, বাংলাদেশ",Dacope,বাংলাদেশ,খুলনা বিভাগ,local_admin,boundaries,['place_of_worship_muslim'],[],Bangladesh,Khulna,Khulna,Dacope,Kamarkhola,38071f4ab84b55b5f1950f0dd9314772
6029420391.0,893cf3531abffff,22.5540603,89.464839,Cannikcor Kisno Temple,"['logic_undp', 'Aila']","Cannikcor Kisno Temple, Dacope, Khulna District, Khulna Division, Bangladesh","ক্যানিককর কিসনো মন্দির, খুলনা জেলা, খুলনা বিভাগ, বাংলাদেশ",Dacope,বাংলাদেশ,খুলনা বিভাগ,local_admin,boundaries,['place_of_worship'],[],Bangladesh,Khulna,Khulna,Dacope,Kamarkhola,38071f4ab84b55b5f1950f0dd9314772
6029420392.0,893cf3531abffff,22.5538949,89.4632001,Rajnogar Radhagobindo & Durga Temple,['logic_undp'],"Rajnogar Radhagobindo & Durga Temple, Dacope, Khulna District, Khulna Division, Bangladesh","রাজনোগর রাধাগোবিন্দো এবং দুর্গা মন্দির, খুলনা জেলা, খুলনা বিভাগ, বাংলাদেশ",Dacope,বাংলাদেশ,খুলনা বিভাগ,local_admin,boundaries,['place_of_worship'],[],Bangladesh,Khulna,Khulna,Dacope,Kamarkhola,38071f4ab84b55b5f1950f0dd9314772
6029420393.0,893cf35318fffff,22.5542783,89.4568996,Rakha Mari Sorbo Jonin Durga Temple,['logic_undp'],"Rakha Mari Sorbo Jonin Durga Temple, Dacope, Khulna District, Khulna Division, Bangladesh","রাখা মারি সোর্বো জোনিন দুর্গা মন্দির, খুলনা জেলা, খুলনা বিভাগ, বাংলাদেশ",Dacope,বাংলাদেশ,খুলনা বিভাগ,local_admin,boundaries,['place_of_worship'],[],Bangladesh,Khulna,Khulna,Dacope,Kamarkhola,38071f4ab84b55b5f1950f0dd9314772
6029420394.0,893cf3531c7ffff,22.5502468,89.4530439,Rakha Mari Panchakkhana Mosque,"['logic_undp', 'Have Rain fall']","Rakha Mari Panchakkhana Mosque, Dacope, Khulna District, Khulna Division, Bangladesh","রাখা মারি পঞ্চকখানা মসজিদ, খুলনা জেলা, খুলনা বিভাগ, বাংলাদেশ",Dacope,বাংলাদেশ,খুলনা বিভাগ,local_admin,boundaries,['place_of_worship'],[],Bangladesh,Khulna,Khulna,Dacope,Kamarkhola,38071f4ab84b55b5f1950f0dd9314772
6029420395.0,893cf3531cfffff,22.5486527,89.4526336,Rekha Mari Kali temple,"['logic_undp', 'Aila']","Rekha Mari Kali temple, Dacope, Khulna District, Khulna Division, Bangladesh","রেখা মেরি কালী মন্দির, খুলনা জেলা, খুলনা বিভাগ, বাংলাদেশ",Dacope,বাংলাদেশ,খুলনা বিভাগ,local_admin,boundaries,['place_of_worship'],[],Bangladesh,Khulna,Khulna,Dacope,Kamarkhola,38071f4ab84b55b5f1950f0dd9314772
6029420396.0,893cf350693ffff,22.5446421,89.4706325,Ferick Dhanga Sorbo Janin Basandi Temple,"['logic_undp', 'Aila']","Ferick Dhanga Sorbo Janin Basandi Temple, Dacope, Khulna District, Khulna Division, Bangladesh","ফেরিক ধাঙ্গা সোর্বো জানিন বাসান্ডি মন্দির, খুলনা জেলা, খুলনা বিভাগ, বাংলাদেশ",Dacope,বাংলাদেশ,খুলনা বিভাগ,local_admin,boundaries,['place_of_worship'],[],Bangladesh,Khulna,Khulna,Dacope,Kamarkhola,38071f4ab84b55b5f1950f0dd9314772
6029420397.0,893cf35068bffff,22.5399155,89.4729526,Sibnagor Sorbojanin Kali Temple,['logic_undp'],"Sibnagor Sorbojanin Kali Temple, Dacope, Khulna District, Khulna Division, Bangladesh","সিবনাগর সোর্বোজানিন কালী মন্দির, খুলনা জেলা, খুলনা বিভাগ, বাংলাদেশ",Dacope,বাংলাদেশ,খুলনা বিভাগ,local_admin,boundaries,['place_of_worship'],[],Bangladesh,Khulna,Khulna,Dacope,Kamarkhola,38071f4ab84b55b5f1950f0dd9314772
6029420398.0,893cf35316fffff,22.5396393,89.4656798,South Joy Nagar Sorbojanin Kali Temple,"['logic_undp', 'Aila']","South Joy Nagar Sorbojanin Kali Temple, Dacope, Khulna District, Khulna Division, Bangladesh","দক্ষিণ জয় নগর সোর্বোজানিন কালী মন্দির, খুলনা জেলা, খুলনা বিভাগ, বাংলাদেশ",Dacope,বাংলাদেশ,খুলনা বিভাগ,local_admin,boundaries,['place_of_worship'],[],Bangladesh,Khulna,Khulna,Dacope,Kamarkhola,38071f4ab84b55b5f1950f0dd9314772
6029420399.0,893cf3506c3ffff,22.53518,89.468236,Satgoria jame Mosque,"['logic_undp', 'Aila']","Satgoria jame Mosque, Dacope, Khulna District, Khulna Division, Bangladesh","সাতগোরিয়া জামে মসজিদ, খুলনা জেলা, খুলনা বিভাগ, বাংলাদেশ",Dacope,বাংলাদেশ,খুলনা বিভাগ,local_admin,boundaries,['place_of_worship_muslim'],[],Bangladesh,Khulna,Khulna,Dacope,Kamarkhola,38071f4ab84b55b5f1950f0dd9314772
6029420400.0,893cf3533afffff,22.5320646,89.4610316,Parjoy nogor Kashmir kuna jami mosque,"['logic_undp', 'Aila']","Parjoy nogor Kashmir kuna jami mosque, Dacope, Khulna District, Khulna Division, Bangladesh","পারজয় নোগর কাশ্মীর কুনা জামি মসজিদ, খুলনা জেলা, খুলনা বিভাগ, বাংলাদেশ",Dacope,বাংলাদেশ,খুলনা বিভাগ,local_admin,boundaries,['place_of_worship_muslim'],[],Bangladesh,Khulna,Khulna,Dacope,Kamarkhola,38071f4ab84b55b5f1950f0dd9314772
6029420401.0,893cf3533a3ffff,22.5355566,89.4569868,Joy Nagar Candrio Jami Mosque,"['logic_undp', 'Aila']","Joy Nagar Candrio Jami Mosque, Dacope, Khulna District, Khulna Division, Bangladesh","জয় নগর ক্যান্ডরিও জামি মসজিদ, খুলনা জেলা, খুলনা বিভাগ, বাংলাদেশ",Dacope,বাংলাদেশ,খুলনা বিভাগ,local_admin,boundaries,['place_of_worship_muslim'],[],Bangladesh,Khulna,Khulna,Dacope,Kamarkhola,38071f4ab84b55b5f1950f0dd9314772
6029420419.0,893cf353383ffff,22.5363741,89.4499916,Joy nagar Bazar panjakhana jami mosque,['logic_undp'],"Joy nagar Bazar panjakhana jami mosque, Dacope, Khulna District, Khulna Division, Bangladesh","জয় নগর বাজার পাঞ্জাখানা জামি মসজিদ, খুলনা জেলা, খুলনা বিভাগ, বাংলাদেশ",Dacope,বাংলাদেশ,খুলনা বিভাগ,local_admin,boundaries,['place_of_worship_muslim'],[],Bangladesh,Khulna,Khulna,Dacope,Kamarkhola,38071f4ab84b55b5f1950f0dd9314772
6029420420.0,893cf353383ffff,22.5347935,89.4507158,Parjoy nagar Kandriyo Jami Mosque & Moctoab,"['logic_undp', 'Aila']","Parjoy nagar Kandriyo Jami Mosque & Moctoab, Dacope, Khulna District, Khulna Division, Bangladesh","পারজয় নগর কান্দ্রিও জামি মসজিদ ও মকটোয়াব, খুলনা জেলা, খুলনা বিভাগ, বাংলাদেশ",Dacope,বাংলাদেশ,খুলনা বিভাগ,local_admin,boundaries,['place_of_worship_muslim'],[],Bangladesh,Khulna,Khulna,Dacope,Kamarkhola,38071f4ab84b55b5f1950f0dd9314772
6029420421.0,893cf3533c3ffff,22.5275432,89.4452561,Vita Vhanga Jami Mosque,"['logic_undp', 'Aila']","Vita Vhanga Jami Mosque, Dacope, Khulna District, Khulna Division, Bangladesh","ভিটা ভাঙ্গা জামি মসজিদ, খুলনা জেলা, খুলনা বিভাগ, বাংলাদেশ",Dacope,বাংলাদেশ,খুলনা বিভাগ,local_admin,boundaries,['place_of_worship_muslim'],[],Bangladesh,Khulna,Khulna,Dacope,Kamarkhola,38071f4ab84b55b5f1950f0dd9314772
6029420422.0,893cf353357ffff,22.5231665,89.4502008,Vita Vhanga Sorbo Janin Kali Temple,['logic_undp'],"Vita Vhanga Sorbo Janin Kali Temple, Dacope, Khulna District, Khulna Division, Bangladesh","ভিটা ভঙ্গা সোর্বো জানিন কালী মন্দির, খুলনা জেলা, খুলনা বিভাগ, বাংলাদেশ",Dacope,বাংলাদেশ,খুলনা বিভাগ,local_admin,boundaries,['place_of_worship'],[],Bangladesh,Khulna,Khulna,Dacope,Kamarkhola,38071f4ab84b55b5f1950f0dd9314772
6029420423.0,893cf35159bffff,22.5188529,89.4628742,Sordar Bari Kali temple,"['logic_undp', 'Aila']","Sordar Bari Kali temple, Dacope, Khulna District, Khulna Division, Bangladesh","সরদার বারী কালী মন্দির, খুলনা জেলা, খুলনা বিভাগ, বাংলাদেশ",Dacope,বাংলাদেশ,খুলনা বিভাগ,local_admin,boundaries,['place_of_worship'],[],Bangladesh,Khulna,Khulna,Dacope,Kamarkhola,38071f4ab84b55b5f1950f0dd9314772
6029420424.0,893cf351583ffff,22.5191007,89.4668707,Parjoy Nagar Dokkhinpara Baitunnur Jami Mosque,"['logic_undp', 'Aila & Sidr']","Parjoy Nagar Dokkhinpara Baitunnur Jami Mosque, Dacope, Khulna District, Khulna Division, Bangladesh","পারজয় নগর, খুলনা জেলা, খুলনা বিভাগ, বাংলাদেশ",Dacope,বাংলাদেশ,খুলনা বিভাগ,local_admin,boundaries,['place_of_worship_muslim'],[],Bangladesh,Khulna,Khulna,Dacope,Kamarkhola,38071f4ab84b55b5f1950f0dd9314772
6029420425.0,893cf351517ffff,22.5146978,89.4734287,Poschim Sree Nogar Rash Temple,['logic_undp'],"Poschim Sree Nogar Rash Temple, Dacope, Khulna District, Khulna Division, Bangladesh","পোসচিম শ্রী নোগার ফুসকুড়ি মন্দির, খুলনা জেলা, খুলনা বিভাগ, বাংলাদেশ",Dacope,বাংলাদেশ,খুলনা বিভাগ,local_admin,boundaries,['place_of_worship'],[],Bangladesh,Khulna,Khulna,Dacope,Kamarkhola,38071f4ab84b55b5f1950f0dd9314772
6029932287.0,893cf3511b3ffff,22.506838,89.4909435,Romani Memorable Community Clinic,['logic_undp'],"Romani Memorable Community Clinic, Dacope, Khulna District, Khulna Division, Bangladesh","রোমানি স্মরণীয় সম্প্রদায় ক্লিনিক, খুলনা জেলা, খুলনা বিভাগ, বাংলাদেশ",Dacope,বাংলাদেশ,খুলনা বিভাগ,local_admin,boundaries,['clinic'],[],Bangladesh,Khulna,Khulna,Dacope,Kailasganj,80301611bf402498fa1a04c00e532a16
6029932289.0,893cf35063bffff,22.5328952,89.4845244,Union Heath and Family Development Center,"['logic_undp', 'Aila & Sidr']","Union Heath and Family Development Center, Dacope, Khulna District, Khulna Division, Bangladesh","ইউনিয়ন স্বাস্থ্য ও পরিবার উন্নয়ন কেন্দ্র, খুলনা জেলা, খুলনা বিভাগ, বাংলাদেশ",Dacope,বাংলাদেশ,খুলনা বিভাগ,local_admin,boundaries,['clinic'],[],Bangladesh,Khulna,Khulna,Dacope,Kamarkhola,38071f4ab84b55b5f1950f0dd9314772
6029932290.0,893cf35063bffff,22.5331015,89.4847597,Kamarkhala Union Council,"['logic_undp', 'Aila & Sidr']","Kamarkhala Union Council, Dacope, Khulna District, Khulna Division, Bangladesh","কামারখালা ইউনিয়ন কাউন্সিল, খুলনা জেলা, খুলনা বিভাগ, বাংলাদেশ",Dacope,বাংলাদেশ,খুলনা বিভাগ,local_admin,boundaries,['government'],[],Bangladesh,Khulna,Khulna,Dacope,Kamarkhola,38071f4ab84b55b5f1950f0dd9314772
6029932291.0,893cf35063bffff,22.5333182,89.4850092,Kalinagar Bazer,"['logic_undp', 'Aila & Sidr']","Kalinagar Bazer, Dacope, Khulna District, Khulna Division, Bangladesh","কালিনগর বাজার, খুলনা জেলা, খুলনা বিভাগ, বাংলাদেশ",Dacope,বাংলাদেশ,খুলনা বিভাগ,local_admin,boundaries,['supermarket'],[],Bangladesh,Khulna,Khulna,Dacope,Kamarkhola,38071f4ab84b55b5f1950f0dd9314772
6029932292.0,893cf35063bffff,22.5333665,89.4844446,Kalinagar Bazer Khaddobandar,"['logic_undp', 'Aila & Sidr']","Kalinagar Bazer Khaddobandar, Dacope, Khulna District, Khulna Division, Bangladesh","কালিনগর বাজর খদ্দোবন্দর, খুলনা জেলা, খুলনা বিভাগ, বাংলাদেশ",Dacope,বাংলাদেশ,খুলনা বিভাগ,local_admin,boundaries,['supermarket'],[],Bangladesh,Khulna,Khulna,Dacope,Kamarkhola,38071f4ab84b55b5f1950f0dd9314772
6029932293.0,893cf35063bffff,22.5341073,89.4847745,Church's Community Center,['logic_undp'],"Church's Community Center, Dacope, Khulna District, Khulna Division, Bangladesh","গির্জার সম্প্রদায় কেন্দ্র, খুলনা জেলা, খুলনা বিভাগ, বাংলাদেশ",Dacope,বাংলাদেশ,খুলনা বিভাগ,local_admin,boundaries,['clinic'],[],Bangladesh,Khulna,Khulna,Dacope,Kamarkhola,38071f4ab84b55b5f1950f0dd9314772
6029932294.0,893cf353383ffff,22.5353683,89.4489804,Parjoy Nagor Community Clinic,['logic_undp'],"Parjoy Nagor Community Clinic, Dacope, Khulna District, Khulna Division, Bangladesh","পারজয় নাগোর কমিউনিটি ক্লিনিক, খুলনা জেলা, খুলনা বিভাগ, বাংলাদেশ",Dacope,বাংলাদেশ,খুলনা বিভাগ,local_admin,boundaries,['clinic'],[],Bangladesh,Khulna,Khulna,Dacope,Kamarkhola,38071f4ab84b55b5f1950f0dd9314772
6030080185.0,893cf35235bffff,22.5695027,89.479681,Akhil Roy house's tubewell,['logic_undp'],"Akhil Roy house's tubewell, Dacope, Khulna District, Khulna Division, Bangladesh","আখিল রায় হাউসের টিউবেল, খুলনা জেলা, খুলনা বিভাগ, বাংলাদেশ",Dacope,বাংলাদেশ,খুলনা বিভাগ,local_admin,boundaries,['drinking_water'],[],Bangladesh,Khulna,Khulna,Dacope,Kamarkhola,38071f4ab84b55b5f1950f0dd9314772
6030080186.0,893cf350497ffff,22.5675213,89.4788602,Asutush Babu house's tubewell,['logic_undp'],"Asutush Babu house's tubewell, Dacope, Khulna District, Khulna Division, Bangladesh","অসুতুশ বাবু হাউসের টিউবেল, খুলনা জেলা, খুলনা বিভাগ, বাংলাদেশ",Dacope,বাংলাদেশ,খুলনা বিভাগ,local_admin,boundaries,['drinking_water'],[],Bangladesh,Khulna,Khulna,Dacope,Kamarkhola,38071f4ab84b55b5f1950f0dd9314772
6030080189.0,893cf350483ffff,22.5626653,89.4790667,Diponkar Monddal's tubewell,['logic_undp'],"Diponkar Monddal's tubewell, Dacope, Khulna District, Khulna Division, Bangladesh","ডিপোনকার মন্ডডালের টিউবওয়েল, খুলনা জেলা, খুলনা বিভাগ, বাংলাদেশ",Dacope,বাংলাদেশ,খুলনা বিভাগ,local_admin,boundaries,['drinking_water'],[],Bangladesh,Khulna,Khulna,Dacope,Kamarkhola,38071f4ab84b55b5f1950f0dd9314772
6030080190.0,893cf35044fffff,22.5479851,89.4818026,Bikash Roy house's tubewell,['logic_undp'],"Bikash Roy house's tubewell, Dacope, Khulna District, Khulna Division, Bangladesh","বিকশ রায় হাউসের টিউবেল, খুলনা জেলা, খুলনা বিভাগ, বাংলাদেশ",Dacope,বাংলাদেশ,খুলনা বিভাগ,local_admin,boundaries,['drinking_water'],[],Bangladesh,Khulna,Khulna,Dacope,Kamarkhola,38071f4ab84b55b5f1950f0dd9314772
6030080224.0,893cf35159bffff,22.5195541,89.4640517,Porajoy Nagar Mosjid r paser tubewell,['logic_undp'],"Porajoy Nagar Mosjid r paser tubewell, Dacope, Khulna District, Khulna Division, Bangladesh","পোরজয় নগর মোসজিদ আর পেজার টিউবেল, খুলনা জেলা, খুলনা বিভাগ, বাংলাদেশ",Dacope,বাংলাদেশ,খুলনা বিভাগ,local_admin,boundaries,['drinking_water'],[],Bangladesh,Khulna,Khulna,Dacope,Kamarkhola,38071f4ab84b55b5f1950f0dd9314772
6030080229.0,893cf351583ffff,22.5191168,89.4665945,Porajoy Nagar Mosque's tubewell,['logic_undp'],"Porajoy Nagar Mosque's tubewell, Dacope, Khulna District, Khulna Division, Bangladesh","পোরজয় নগর মসজিদের টিউবওয়েল, খুলনা জেলা, খুলনা বিভাগ, বাংলাদেশ",Dacope,বাংলাদেশ,খুলনা বিভাগ,local_admin,boundaries,['drinking_water'],[],Bangladesh,Khulna,Khulna,Dacope,Kamarkhola,38071f4ab84b55b5f1950f0dd9314772
6030080528.0,893cf351517ffff,22.5142865,89.4725114,Norendro roy house's tubewell,"['logic_undp', 'Aila']","Norendro roy house's tubewell, Dacope, Khulna District, Khulna Division, Bangladesh","নরেন্দ্রো রায় হাউসের টিউবেল, খুলনা জেলা, খুলনা বিভাগ, বাংলাদেশ",Dacope,বাংলাদেশ,খুলনা বিভাগ,local_admin,boundaries,['drinking_water'],[],Bangladesh,Khulna,Khulna,Dacope,Kamarkhola,38071f4ab84b55b5f1950f0dd9314772
6030080549.0,893cf3515bbffff,22.5189892,89.4722083,Khalek chana House's Tubewell,"['logic_undp', 'Aila']","Khalek chana House's Tubewell, Dacope, Khulna District, Khulna Division, Bangladesh","খালেক চানা হাউসের টিউবেল, খুলনা জেলা, খুলনা বিভাগ, বাংলাদেশ",Dacope,বাংলাদেশ,খুলনা বিভাগ,local_admin,boundaries,['drinking_water'],[],Bangladesh,Khulna,Khulna,Dacope,Kamarkhola,38071f4ab84b55b5f1950f0dd9314772
6030080550.0,893cf350643ffff,22.5273784,89.4738632,Subashcandra House's Tubewall,"['logic_undp', 'Aila & Sidr']","Subashcandra House's Tubewall, Dacope, Khulna District, Khulna Division, Bangladesh","সুবাশকন্দ্র বাড়ির টিউবওয়াল, খুলনা জেলা, খুলনা বিভাগ, বাংলাদেশ",Dacope,বাংলাদেশ,খুলনা বিভাগ,local_admin,boundaries,['drinking_water'],[],Bangladesh,Khulna,Khulna,Dacope,Kamarkhola,38071f4ab84b55b5f1950f0dd9314772
6030081101.0,893cf35068fffff,22.5402351,89.474114,Majhi Bari Tubewell,['logic_undp'],"Majhi Bari Tubewell, Dacope, Khulna District, Khulna Division, Bangladesh","মাজি বারী টিউবেল, খুলনা জেলা, খুলনা বিভাগ, বাংলাদেশ",Dacope,বাংলাদেশ,খুলনা বিভাগ,local_admin,boundaries,['drinking_water'],[],Bangladesh,Khulna,Khulna,Dacope,Kamarkhola,38071f4ab84b55b5f1950f0dd9314772
6030081115.0,893cf352253ffff,22.5663002,89.4583131,Sham Mondal house's tube well,"['logic_undp', 'Salinity']","Sham Mondal house's tube well, Dacope, Khulna District, Khulna Division, Bangladesh","শাম মন্ডাল হাউসের টিউব ভালভাবে, খুলনা জেলা, খুলনা বিভাগ, বাংলাদেশ",Dacope,বাংলাদেশ,খুলনা বিভাগ,local_admin,boundaries,['drinking_water'],[],Bangladesh,Khulna,Khulna,Dacope,Tildanga,c6f5336f6ce8c8d0e95610ac824b1431
6031472184.0,893cf353393ffff,22.5380321,89.4472846,Joy Nagar ferry Ghat,['logic_undp'],"Joy Nagar ferry Ghat, Dacope, Khulna District, Khulna Division, Bangladesh","জয় নাগর ফেরি ঘাট, খুলনা জেলা, খুলনা বিভাগ, বাংলাদেশ",Dacope,বাংলাদেশ,খুলনা বিভাগ,local_admin,boundaries,['ferry_terminal'],[],Bangladesh,Khulna,Khulna,Dacope,Kamarkhola,38071f4ab84b55b5f1950f0dd9314772
6112309322.0,893cf224bc3ffff,22.4770627,89.4070145,hadda primary girls school,"['logic_undp', 'Aila']","hadda primary girls school, Paikgachha Upazila, Khulna District, Khulna Division, Bangladesh","হাদদা প্রাথমিক মেয়েদের স্কুল, পাইকগাছা উপজেলা, খুলনা জেলা, খুলনা বিভাগ, বাংলাদেশ",পাইকগাছা উপজেলা,বাংলাদেশ,খুলনা বিভাগ,local_admin,boundaries,['school'],[],Bangladesh,Khulna,Khulna,Koyra,Maheshwaripur,19e1c73c55a11f0c566a20e6b19792b4
6112309323.0,893cf224bcbffff,22.4719991,89.405365,81no gangring govt primary school,"['logic_undp', 'Aila']","81no gangring govt primary school, Koyra, Khulna District, Khulna Division, Bangladesh","81 কোনও গ্যাংরিং গভর্ন্ট প্রাথমিক বিদ্যালয়, কয়রা উপজেলা, খুলনা জেলা, খুলনা বিভাগ, বাংলাদেশ",কয়রা উপজেলা,বাংলাদেশ,খুলনা বিভাগ,local_admin,boundaries,['school'],[],Bangladesh,Khulna,Khulna,Koyra,Maheshwaripur,19e1c73c55a11f0c566a20e6b19792b4
6112309324.0,893cf224a67ffff,22.4612518,89.4003734,hadda chok govt primary school and cyclone,"['logic_undp', 'Aila']","hadda chok govt primary school and cyclone, Koyra, Khulna District, Khulna Division, Bangladesh","হাদদা চক সরকার প্রাথমিক বিদ্যালয় এবং ঘূর্ণিঝড়, কয়রা উপজেলা, খুলনা জেলা, খুলনা বিভাগ, বাংলাদেশ",কয়রা উপজেলা,বাংলাদেশ,খুলনা বিভাগ,local_admin,boundaries,['school'],[],Bangladesh,Khulna,Khulna,Koyra,Maheshwaripur,19e1c73c55a11f0c566a20e6b19792b4
6112309325.0,893cf35a457ffff,22.4500227,89.407028,south hadda polli unnoyon govt primary school,"['logic_undp', 'Aila']","south hadda polli unnoyon govt primary school, Koyra, Khulna District, Khulna Division, Bangladesh","দক্ষিণ হাদদা পোলি আনোয়ান গভঃ প্রাথমিক বিদ্যালয়, কয়রা উপজেলা, খুলনা জেলা, খুলনা বিভাগ, বাংলাদেশ",কয়রা উপজেলা,বাংলাদেশ,খুলনা বিভাগ,local_admin,boundaries,['school'],[],Bangladesh,Khulna,Khulna,Koyra,Maheshwaripur,19e1c73c55a11f0c566a20e6b19792b4
6112757196.0,893cf224a2fffff,22.4670965,89.4043082,Hadda chok kali temple,"['logic_undp', 'Aila']","Hadda chok kali temple, Koyra, Khulna District, Khulna Division, Bangladesh","হাদদা ছক কালী মন্দির, কয়রা উপজেলা, খুলনা জেলা, খুলনা বিভাগ, বাংলাদেশ",কয়রা উপজেলা,বাংলাদেশ,খুলনা বিভাগ,local_admin,boundaries,['place_of_worship'],[],Bangladesh,Khulna,Khulna,Koyra,Maheshwaripur,19e1c73c55a11f0c566a20e6b19792b4
6112757197.0,893cf35a497ffff,22.4648806,89.4060543,Hadda chok shib temple,"['logic_undp', 'Aila']","Hadda chok shib temple, Koyra, Khulna District, Khulna Division, Bangladesh","হাদদা চোক শিব মন্দির, কয়রা উপজেলা, খুলনা জেলা, খুলনা বিভাগ, বাংলাদেশ",কয়রা উপজেলা,বাংলাদেশ,খুলনা বিভাগ,local_admin,boundaries,['place_of_worship'],[],Bangladesh,Khulna,Khulna,Koyra,Maheshwaripur,19e1c73c55a11f0c566a20e6b19792b4
6112757198.0,893cf224a67ffff,22.4614166,89.4004767,Hadda chok jogdhatri temple,"['logic_undp', 'Aila']","Hadda chok jogdhatri temple, Koyra, Khulna District, Khulna Division, Bangladesh","হাদদা চৌক জগধাত্রী মন্দির, কয়রা উপজেলা, খুলনা জেলা, খুলনা বিভাগ, বাংলাদেশ",কয়রা উপজেলা,বাংলাদেশ,খুলনা বিভাগ,local_admin,boundaries,['place_of_worship'],[],Bangladesh,Khulna,Khulna,Koyra,Maheshwaripur,19e1c73c55a11f0c566a20e6b19792b4
6112758428.0,893cf35a457ffff,22.4501342,89.4071594,South hadda kali and durga temple,"['logic_undp', 'Aila']","South hadda kali and durga temple, Koyra, Khulna District, Khulna Division, Bangladesh","দক্ষিণ হাদদা কালী এবং দুর্গা মন্দির, কয়রা উপজেলা, খুলনা জেলা, খুলনা বিভাগ, বাংলাদেশ",কয়রা উপজেলা,বাংলাদেশ,খুলনা বিভাগ,local_admin,boundaries,['place_of_worship'],[],Bangladesh,Khulna,Khulna,Koyra,Maheshwaripur,19e1c73c55a11f0c566a20e6b19792b4
6112758429.0,893cf35a40bffff,22.4513092,89.4095036,South hadda bonobibi mondir,"['logic_undp', 'Aila']","South hadda bonobibi mondir, Koyra, Khulna District, Khulna Division, Bangladesh","দক্ষিণ হাদদা বনবিবি মন্দির, কয়রা উপজেলা, খুলনা জেলা, খুলনা বিভাগ, বাংলাদেশ",কয়রা উপজেলা,বাংলাদেশ,খুলনা বিভাগ,local_admin,boundaries,['place_of_worship'],[],Bangladesh,Khulna,Khulna,Koyra,Maheshwaripur,19e1c73c55a11f0c566a20e6b19792b4
6112758429.0,893cf35a40bffff,22.4513092,89.4095036,South hadda bonobibi mondir,"['logic_undp', 'Aila']","South hadda bonobibi mondir, Koyra, Khulna District, Khulna Division, Bangladesh","দক্ষিণ হাদদা বনবিবি মন্দির, কয়রা উপজেলা, খুলনা জেলা, খুলনা বিভাগ, বাংলাদেশ",কয়রা উপজেলা,বাংলাদেশ,খুলনা বিভাগ,local_admin,boundaries,['place_of_worship'],[],Bangladesh,Khulna,Khulna,Koyra,NalianRange,62c06f79df1a7462f8bafa61b91a5cf4
6112758431.0,893cf224aafffff,22.4727352,89.4011915,Hadda govt bari matri mondir,"['logic_undp', 'Aila']","Hadda govt bari matri mondir, Koyra, Khulna District, Khulna Division, Bangladesh","হাদদা সরকারি বারী ম্যাট্রি মন্দির, কয়রা উপজেলা, খুলনা জেলা, খুলনা বিভাগ, বাংলাদেশ",কয়রা উপজেলা,বাংলাদেশ,খুলনা বিভাগ,local_admin,boundaries,['place_of_worship'],[],Bangladesh,Khulna,Khulna,Koyra,Maheshwaripur,19e1c73c55a11f0c566a20e6b19792b4
6112758432.0,893cf224aa7ffff,22.4758582,89.4021758,hadda kali mondir,['logic_undp'],"hadda kali mondir, Koyra, Khulna District, Khulna Division, Bangladesh","হাদদা কালী মন্ডির, কয়রা উপজেলা, খুলনা জেলা, খুলনা বিভাগ, বাংলাদেশ",কয়রা উপজেলা,বাংলাদেশ,খুলনা বিভাগ,local_admin,boundaries,['place_of_worship'],[],Bangladesh,Khulna,Khulna,Paikgachha,Garuikhali,a66bf0446f335e90f408036a9f05f0cd
6112758433.0,893cf224b47ffff,22.4711366,89.4158444,east hadda durga mondir,"['logic_undp', 'Aila']","east hadda durga mondir, Koyra, Khulna District, Khulna Division, Bangladesh","পূর্ব হাদদা দুর্গা মন্ডির, কয়রা উপজেলা, খুলনা জেলা, খুলনা বিভাগ, বাংলাদেশ",কয়রা উপজেলা,বাংলাদেশ,খুলনা বিভাগ,local_admin,boundaries,['place_of_worship'],[],Bangladesh,Khulna,Khulna,Koyra,Maheshwaripur,19e1c73c55a11f0c566a20e6b19792b4
6112758434.0,893cf35a4a3ffff,22.4625407,89.4167429,south hadda mondir,"['logic_undp', 'Aila']","south hadda mondir, Koyra, Khulna District, Khulna Division, Bangladesh","দক্ষিণ হাদদা মন্ডির, কয়রা উপজেলা, খুলনা জেলা, খুলনা বিভাগ, বাংলাদেশ",কয়রা উপজেলা,বাংলাদেশ,খুলনা বিভাগ,local_admin,boundaries,['place_of_worship'],[],Bangladesh,Khulna,Khulna,Koyra,Maheshwaripur,19e1c73c55a11f0c566a20e6b19792b4
6112891102.0,893cf35a4b7ffff,22.4632422,89.4164948,South hadda primary and high school,"['logic_undp', 'Aila']","South hadda primary and high school, Koyra, Khulna District, Khulna Division, Bangladesh","দক্ষিণ হাদদা প্রাথমিক ও উচ্চ বিদ্যালয়, কয়রা উপজেলা, খুলনা জেলা, খুলনা বিভাগ, বাংলাদেশ",কয়রা উপজেলা,বাংলাদেশ,খুলনা বিভাগ,local_admin,boundaries,['school'],[],Bangladesh,Khulna,Khulna,Koyra,Maheshwaripur,19e1c73c55a11f0c566a20e6b19792b4
6112891103.0,893cf224a6fffff,22.4607387,89.4001937,hadda chok clinic,"['logic_undp', 'Aila']","hadda chok clinic, Koyra, Khulna District, Khulna Division, Bangladesh","হাদদা চোক ক্লিনিক, কয়রা উপজেলা, খুলনা জেলা, খুলনা বিভাগ, বাংলাদেশ",কয়রা উপজেলা,বাংলাদেশ,খুলনা বিভাগ,local_admin,boundaries,['clinic'],[],Bangladesh,Khulna,Khulna,Koyra,Maheshwaripur,19e1c73c55a11f0c566a20e6b19792b4
6113665111.0,893cf353067ffff,22.5375311,89.4426423,Kaminibasiya Tetultola bazar,"['logic_undp', 'Ayla']","Kaminibasiya Tetultola bazar, Dacope, Khulna District, Khulna Division, Bangladesh","কামিনিবাসিয়া টেটল্টোলা বাজার, খুলনা জেলা, খুলনা বিভাগ, বাংলাদেশ",Dacope,বাংলাদেশ,খুলনা বিভাগ,local_admin,boundaries,['marketplace'],[],Bangladesh,Khulna,Khulna,Dacope,Kamarkhola,38071f4ab84b55b5f1950f0dd9314772
6113665112.0,893cf3522cfffff,22.5696191,89.4590762,Bodbuniya Bazar,"['logic_undp', 'Ayla']","Bodbuniya Bazar, Dacope, Khulna District, Khulna Division, Bangladesh","বোডবুনিয়া বাজার, খুলনা জেলা, খুলনা বিভাগ, বাংলাদেশ",Dacope,বাংলাদেশ,খুলনা বিভাগ,local_admin,boundaries,['marketplace'],[],Bangladesh,Khulna,Khulna,Dacope,Tildanga,c6f5336f6ce8c8d0e95610ac824b1431
6113665113.0,893cf3534abffff,22.5611037,89.4223299,Mojamnagar Bazar,"['logic_undp', 'Sidr/Ayla/Mohasen']","Mojamnagar Bazar, Paikgachha Upazila, Khulna District, Khulna Division, Bangladesh","মোজামনগর বাজার, পাইকগাছা উপজেলা, খুলনা জেলা, খুলনা বিভাগ, বাংলাদেশ",পাইকগাছা উপজেলা,বাংলাদেশ,খুলনা বিভাগ,local_admin,boundaries,['marketplace'],[],Bangladesh,Khulna,Khulna,Dacope,Tildanga,c6f5336f6ce8c8d0e95610ac824b1431
6116328323.0,893cf35320bffff,22.5189037,89.429293,DolKhola Govt. Primary School,"['logic_undp', 'Ayla']","DolKhola Govt. Primary School, Dacope, Khulna District, Khulna Division, Bangladesh","ডলখোলা সরকারপ্রাথমিক বিদ্যালয়, খুলনা জেলা, খুলনা বিভাগ, বাংলাদেশ",Dacope,বাংলাদেশ,খুলনা বিভাগ,local_admin,boundaries,['school'],[],Bangladesh,Khulna,Khulna,Dacope,Tildanga,c6f5336f6ce8c8d0e95610ac824b1431
6116328324.0,893cf35329bffff,22.527781,89.4214207,primary School,"['logic_undp', 'Ayla']","primary School, Dacope, Khulna District, Khulna Division, Bangladesh","প্রাথমিক বিদ্যালয়, খুলনা জেলা, খুলনা বিভাগ, বাংলাদেশ",Dacope,বাংলাদেশ,খুলনা বিভাগ,local_admin,boundaries,['school'],[],Bangladesh,Khulna,Khulna,Dacope,Tildanga,c6f5336f6ce8c8d0e95610ac824b1431
6116328325.0,893cf35329bffff,22.5279879,89.4214783,High School,"['logic_undp', 'Ayla']","High School, Dacope, Khulna District, Khulna Division, Bangladesh","উচ্চ বিদ্যালয, খুলনা জেলা, খুলনা বিভাগ, বাংলাদেশ",Dacope,বাংলাদেশ,খুলনা বিভাগ,local_admin,boundaries,['school'],[],Bangladesh,Khulna,Khulna,Dacope,Tildanga,c6f5336f6ce8c8d0e95610ac824b1431
6116328326.0,893cf3530cfffff,22.5407887,89.4295122,Radha Gobindra Govt. primary school,"['logic_undp', 'Ayla']","Radha Gobindra Govt. primary school, Dacope, Khulna District, Khulna Division, Bangladesh","রাধা গোবিন্দ্র সরকার।প্রাথমিক বিদ্যালয়, খুলনা জেলা, খুলনা বিভাগ, বাংলাদেশ",Dacope,বাংলাদেশ,খুলনা বিভাগ,local_admin,boundaries,['school'],[],Bangladesh,Khulna,Khulna,Dacope,Tildanga,c6f5336f6ce8c8d0e95610ac824b1431
6116328327.0,893cf353067ffff,22.537567,89.4420174,Kakrabuniya Govt Primary School,"['logic_undp', 'Ayla']","Kakrabuniya Govt Primary School, Dacope, Khulna District, Khulna Division, Bangladesh","কাকরাবুনিয়া সরকারী প্রাথমিক বিদ্যালয়, খুলনা জেলা, খুলনা বিভাগ, বাংলাদেশ",Dacope,বাংলাদেশ,খুলনা বিভাগ,local_admin,boundaries,['school'],[],Bangladesh,Khulna,Khulna,Dacope,Kamarkhola,38071f4ab84b55b5f1950f0dd9314772
6116328328.0,893cf352217ffff,22.5741491,89.4675359,Tildanga Union Prostabik girls high school+cyclone center,"['logic_undp', 'Ayla']","Tildanga Union Prostabik girls high school+cyclone center, Dacope, Khulna District, Khulna Division, Bangladesh","টিল্ডাঙ্গা ইউনিয়ন প্রোস্টাবিক গার্লস হাই স্কুল+সাইক্লোন সেন্টার, খুলনা জেলা, খুলনা বিভাগ, বাংলাদেশ",Dacope,বাংলাদেশ,খুলনা বিভাগ,local_admin,boundaries,['school'],[],Bangladesh,Khulna,Khulna,Dacope,Tildanga,c6f5336f6ce8c8d0e95610ac824b1431
6116328329.0,893cf3531d3ffff,22.5523399,89.4483152,Arakhali Govt. Primary School,"['logic_undp', 'Ayla']","Arakhali Govt. Primary School, Dacope, Khulna District, Khulna Division, Bangladesh","আরাখালী সরকারপ্রাথমিক বিদ্যালয়, খুলনা জেলা, খুলনা বিভাগ, বাংলাদেশ",Dacope,বাংলাদেশ,খুলনা বিভাগ,local_admin,boundaries,['school'],[],Bangladesh,Khulna,Khulna,Dacope,Tildanga,c6f5336f6ce8c8d0e95610ac824b1431
6116328330.0,893cf3c9b67ffff,22.5728017,89.4308379,Kakrabuniya Govt Primary School,"['logic_undp', 'Ayla']","Kakrabuniya Govt Primary School, Dacope, Khulna District, Khulna Division, Bangladesh","কাকরাবুনিয়া সরকারী প্রাথমিক বিদ্যালয়, খুলনা জেলা, খুলনা বিভাগ, বাংলাদেশ",Dacope,বাংলাদেশ,খুলনা বিভাগ,local_admin,boundaries,['school'],[],Bangladesh,Khulna,Khulna,Dacope,Tildanga,c6f5336f6ce8c8d0e95610ac824b1431
6116328331.0,893cf3c9b67ffff,22.5737751,89.4305831,Kakrabuniya Alia Madrasha and Orphanage,"['logic_undp', 'Ayla']","Kakrabuniya Alia Madrasha and Orphanage, Dacope, Khulna District, Khulna Division, Bangladesh","কাকরাবুনিয়া আলিয়া মাদ্রাশা এবং এতিমখানা, খুলনা জেলা, খুলনা বিভাগ, বাংলাদেশ",Dacope,বাংলাদেশ,খুলনা বিভাগ,local_admin,boundaries,['school'],[],Bangladesh,Khulna,Khulna,Dacope,Tildanga,c6f5336f6ce8c8d0e95610ac824b1431
4511602489.0,893cf2261a3ffff,22.559346,89.3319902,,['Sluice'],"Paikgachha Upazila, Khulna District, Khulna Division, Bangladesh","পাইকগাছা উপজেলা, খুলনা জেলা, খুলনা বিভাগ, বাংলাদেশ",পাইকগাছা উপজেলা,বাংলাদেশ,খুলনা বিভাগ,local_admin,boundaries,['post_office'],[],Bangladesh,Khulna,Khulna,Paikgachha,Laskar,60e9867e788269b19337f3dfa803a122
6116328332.0,893cf3c9b67ffff,22.573681,89.430221,Kakrabuniya darul ulum Mohamaddiya Madrasha,"['logic_undp', 'Ayla']","Kakrabuniya darul ulum Mohamaddiya Madrasha, Dacope, Khulna District, Khulna Division, Bangladesh","কাকরাবুনিয়া দারুল উলুম মোহামাদদিয়া মাদ্রাশা, খুলনা জেলা, খুলনা বিভাগ, বাংলাদেশ",Dacope,বাংলাদেশ,খুলনা বিভাগ,local_admin,boundaries,['school'],[],Bangladesh,Khulna,Khulna,Dacope,Tildanga,c6f5336f6ce8c8d0e95610ac824b1431
4548722689.0,893cd497297ffff,22.2176552,89.3413507,,['BWDB Rest House'],"Koyra, Khulna District, Khulna Division, Bangladesh","কয়রা উপজেলা, খুলনা জেলা, খুলনা বিভাগ, বাংলাদেশ",কয়রা উপজেলা,বাংলাদেশ,খুলনা বিভাগ,local_admin,boundaries,['post_office'],[],Bangladesh,Khulna,Khulna,Koyra,DakshinBedkashi,042cde6a06bbc3709355cff1f818f4a7
6116328333.0,893cf3c9b8bffff,22.5850685,89.4179875,Gorkhali Polli mongal Govt primary School,"['logic_undp', '_']","Gorkhali Polli mongal Govt primary School, Dacope, Khulna District, Khulna Division, Bangladesh","গোর্খালি পোলি মঙ্গাল সরকার প্রাথমিক বিদ্যালয়, খুলনা জেলা, খুলনা বিভাগ, বাংলাদেশ",Dacope,বাংলাদেশ,খুলনা বিভাগ,local_admin,boundaries,['school'],[],Bangladesh,Khulna,Khulna,Dacope,Tildanga,c6f5336f6ce8c8d0e95610ac824b1431
4586442089.0,893cd4c594fffff,21.7024941,89.3402243,বঙ্গবন্ধু দ্বীপ,['Bangobandhu Iceland'],"Bangabandhu Island, Koyra, Khulna District, Khulna Division, Bangladesh","বঙ্গবন্ধু দ্বীপ, কয়রা উপজেলা, খুলনা জেলা, খুলনা বিভাগ, বাংলাদেশ",কয়রা উপজেলা,বাংলাদেশ,খুলনা বিভাগ,local_admin,boundaries,['viewpoint'],[],Bangladesh,Khulna,Khulna,Koyra,NalianRange,62c06f79df1a7462f8bafa61b91a5cf4
6116328334.0,893cf3534abffff,22.5612424,89.4221945,Mojamnagar high School,"['logic_undp', 'Sidr/Ayla/Mohasen']","Mojamnagar high School, Paikgachha Upazila, Khulna District, Khulna Division, Bangladesh","মোজামনগর উচ্চ বিদ্যালয়, পাইকগাছা উপজেলা, খুলনা জেলা, খুলনা বিভাগ, বাংলাদেশ",পাইকগাছা উপজেলা,বাংলাদেশ,খুলনা বিভাগ,local_admin,boundaries,['school'],[],Bangladesh,Khulna,Khulna,Dacope,Tildanga,c6f5336f6ce8c8d0e95610ac824b1431
6116328335.0,893cf3534abffff,22.5616164,89.4219089,Hamida Khatun Govt. Primary School,"['logic_undp', '_']","Hamida Khatun Govt. Primary School, Paikgachha Upazila, Khulna District, Khulna Division, Bangladesh","হামিদা খাতুন সরকারপ্রাথমিক বিদ্যালয়, পাইকগাছা উপজেলা, খুলনা জেলা, খুলনা বিভাগ, বাংলাদেশ",পাইকগাছা উপজেলা,বাংলাদেশ,খুলনা বিভাগ,local_admin,boundaries,['school'],[],Bangladesh,Khulna,Khulna,Dacope,Tildanga,c6f5336f6ce8c8d0e95610ac824b1431
6116328336.0,893cf3535cfffff,22.5639509,89.4328161,North Kamini Basiya Govt. Primary school/Cyclone center,"['logic_undp', '_']","North Kamini Basiya Govt. Primary school/Cyclone center, Dacope, Khulna District, Khulna Division, Bangladesh","উত্তর কামিনী বাসিয়া সরকার।প্রাথমিক বিদ্যালয়/ঘূর্ণিঝড় কেন্দ্র, খুলনা জেলা, খুলনা বিভাগ, বাংলাদেশ",Dacope,বাংলাদেশ,খুলনা বিভাগ,local_admin,boundaries,['school'],[],Bangladesh,Khulna,Khulna,Dacope,Tildanga,c6f5336f6ce8c8d0e95610ac824b1431
6116328337.0,893cf3535c3ffff,22.5661169,89.4309103,Jalalabad madrasha,"['logic_undp', 'Ayla']","Jalalabad madrasha, Dacope, Khulna District, Khulna Division, Bangladesh","জালালাবাদ মাদ্রাশা, খুলনা জেলা, খুলনা বিভাগ, বাংলাদেশ",Dacope,বাংলাদেশ,খুলনা বিভাগ,local_admin,boundaries,['school'],[],Bangladesh,Khulna,Khulna,Dacope,Tildanga,c6f5336f6ce8c8d0e95610ac824b1431
6116328338.0,893cf3534abffff,22.5628078,89.4203398,Mojamnagar Hafejiya Madrasa,"['logic_undp', 'Sidr/Ayla/Mohasen']","Mojamnagar Hafejiya Madrasa, Paikgachha Upazila, Khulna District, Khulna Division, Bangladesh","মোজামনগর হাফেজিয়া মাদ্রাস, পাইকগাছা উপজেলা, খুলনা জেলা, খুলনা বিভাগ, বাংলাদেশ",পাইকগাছা উপজেলা,বাংলাদেশ,খুলনা বিভাগ,local_admin,boundaries,['school'],[],Bangladesh,Khulna,Khulna,Dacope,Tildanga,c6f5336f6ce8c8d0e95610ac824b1431
6116328339.0,893cf353483ffff,22.5670358,89.4135618,Sabila Khatun Aftedayi Madrasa,"['logic_undp', 'Sidr/Ayla/Mohasen']","Sabila Khatun Aftedayi Madrasa, Paikgachha Upazila, Khulna District, Khulna Division, Bangladesh","সাবিলা খাতুন আফটাদাই মাদ্রাসা, পাইকগাছা উপজেলা, খুলনা জেলা, খুলনা বিভাগ, বাংলাদেশ",পাইকগাছা উপজেলা,বাংলাদেশ,খুলনা বিভাগ,local_admin,boundaries,['school'],[],Bangladesh,Khulna,Khulna,Dacope,Tildanga,c6f5336f6ce8c8d0e95610ac824b1431
6116328340.0,893cf352677ffff,22.5822737,89.4525652,Bodbuniya J N govt primary school+cyclone center,"['logic_undp', '_']","Bodbuniya J N govt primary school+cyclone center, Dacope, Khulna District, Khulna Division, Bangladesh","বোডবুনিয়া জে এন সরকার প্রাথমিক বিদ্যালয়+ঘূর্ণিঝড় কেন্দ্র, খুলনা জেলা, খুলনা বিভাগ, বাংলাদেশ",Dacope,বাংলাদেশ,খুলনা বিভাগ,local_admin,boundaries,['school'],[],Bangladesh,Khulna,Khulna,Dacope,Tildanga,c6f5336f6ce8c8d0e95610ac824b1431
6116328341.0,893cf35201bffff,22.5938486,89.4683835,Tildanga non-govt. nimno maddomik Biddaloy,"['logic_undp', '_']","Tildanga non-govt. nimno maddomik Biddaloy, Dacope, Khulna District, Khulna Division, Bangladesh","টিল্ডাঙ্গা নন-গভ্ট।নিম্নো ম্যাডডমিক বিদলয়, খুলনা জেলা, খুলনা বিভাগ, বাংলাদেশ",Dacope,বাংলাদেশ,খুলনা বিভাগ,local_admin,boundaries,['school'],[],Bangladesh,Khulna,Khulna,Dacope,Tildanga,c6f5336f6ce8c8d0e95610ac824b1431
6116328342.0,893cf35207bffff,22.5862621,89.4717067,South Tildanga Primary School,"['logic_undp', '_']","South Tildanga Primary School, Dacope, Khulna District, Khulna Division, Bangladesh","দক্ষিণ টিল্ডাঙ্গা প্রাথমিক বিদ্যালয়, খুলনা জেলা, খুলনা বিভাগ, বাংলাদেশ",Dacope,বাংলাদেশ,খুলনা বিভাগ,local_admin,boundaries,['school'],[],Bangladesh,Khulna,Khulna,Dacope,Tildanga,c6f5336f6ce8c8d0e95610ac824b1431
6116328343.0,893cf35208bffff,22.5978615,89.46675,Tildanga Govt. Primary School,"['logic_undp', '_']","Tildanga Govt. Primary School, Dacope, Khulna District, Khulna Division, Bangladesh","টিলডাঙ্গা সরকারপ্রাথমিক বিদ্যালয়, খুলনা জেলা, খুলনা বিভাগ, বাংলাদেশ",Dacope,বাংলাদেশ,খুলনা বিভাগ,local_admin,boundaries,['school'],[],Bangladesh,Khulna,Khulna,Dacope,Tildanga,c6f5336f6ce8c8d0e95610ac824b1431
6116540436.0,893cf3520c7ffff,22.5959238,89.4672543,Community clinic of Tildanga Kachari Bari,"['logic_undp', '_']","Community clinic of Tildanga Kachari Bari, Dacope, Khulna District, Khulna Division, Bangladesh","তিলদঙ্গা কাচারি বারির কমিউনিটি ক্লিনিক, খুলনা জেলা, খুলনা বিভাগ, বাংলাদেশ",Dacope,বাংলাদেশ,খুলনা বিভাগ,local_admin,boundaries,['clinic'],[],Bangladesh,Khulna,Khulna,Dacope,Tildanga,c6f5336f6ce8c8d0e95610ac824b1431
6116540468.0,893cf3535c3ffff,22.5639447,89.4324982,North kamini Basiya community clinic,"['logic_undp', '_']","North kamini Basiya community clinic, Dacope, Khulna District, Khulna Division, Bangladesh","উত্তর কামিনী বাসিয়া কমিউনিটি ক্লিনিক, খুলনা জেলা, খুলনা বিভাগ, বাংলাদেশ",Dacope,বাংলাদেশ,খুলনা বিভাগ,local_admin,boundaries,['clinic'],[],Bangladesh,Khulna,Khulna,Dacope,Tildanga,c6f5336f6ce8c8d0e95610ac824b1431
6116540470.0,893cf3534abffff,22.5625849,89.4223568,Tildanga Health and Family Planning center,"['logic_undp', '_']","Tildanga Health and Family Planning center, Dacope, Khulna District, Khulna Division, Bangladesh","টিলডাঙ্গা স্বাস্থ্য ও পরিবার পরিকল্পনা কেন্দ্র, খুলনা জেলা, খুলনা বিভাগ, বাংলাদেশ",Dacope,বাংলাদেশ,খুলনা বিভাগ,local_admin,boundaries,['clinic'],[],Bangladesh,Khulna,Khulna,Dacope,Tildanga,c6f5336f6ce8c8d0e95610ac824b1431
6116779170.0,893cf35208bffff,22.597968,89.4664094,Sree Sree Durga Temple,"['logic_undp', 'Sidr/Ayla/Mohasen']","Sree Sree Durga Temple, Dacope, Khulna District, Khulna Division, Bangladesh","শ্রী শ্রী দুর্গা মন্দির, খুলনা জেলা, খুলনা বিভাগ, বাংলাদেশ",Dacope,বাংলাদেশ,খুলনা বিভাগ,local_admin,boundaries,['place_of_worship'],[],Bangladesh,Khulna,Khulna,Dacope,Tildanga,c6f5336f6ce8c8d0e95610ac824b1431
6116779171.0,893cf352047ffff,22.5888352,89.4714439,Tildanga moddopara jame Mosque,"['logic_undp', '_']","Tildanga moddopara jame Mosque, Dacope, Khulna District, Khulna Division, Bangladesh","তিলদঙ্গা মোডডোপারা জামে মসজিদ, খুলনা জেলা, খুলনা বিভাগ, বাংলাদেশ",Dacope,বাংলাদেশ,খুলনা বিভাগ,local_admin,boundaries,['place_of_worship_muslim'],[],Bangladesh,Khulna,Khulna,Dacope,Tildanga,c6f5336f6ce8c8d0e95610ac824b1431
6116779172.0,893cf352007ffff,22.5954669,89.475089,Radhagobinda Temple,"['logic_undp', 'Sidr/Ayla/Mohasen']","Radhagobinda Temple, Dacope, Khulna District, Khulna Division, Bangladesh","রাধাগোবিন্দ মন্দির, খুলনা জেলা, খুলনা বিভাগ, বাংলাদেশ",Dacope,বাংলাদেশ,খুলনা বিভাগ,local_admin,boundaries,['place_of_worship'],[],Bangladesh,Khulna,Khulna,Dacope,Tildanga,c6f5336f6ce8c8d0e95610ac824b1431
6116779173.0,893cf3522b7ffff,22.5831863,89.4719374,Majher para Shiva temple,"['logic_undp', '_']","Majher para Shiva temple, Dacope, Khulna District, Khulna Division, Bangladesh","মেজর প্যারা শিব মন্দির, খুলনা জেলা, খুলনা বিভাগ, বাংলাদেশ",Dacope,বাংলাদেশ,খুলনা বিভাগ,local_admin,boundaries,['place_of_worship'],[],Bangladesh,Khulna,Khulna,Dacope,Tildanga,c6f5336f6ce8c8d0e95610ac824b1431
6116779174.0,893cf3520cfffff,22.5923071,89.46583269999999,Tildanga Gobinda Temple,"['logic_undp', 'Sidr/Ayla/Mohasen']","Tildanga Gobinda Temple, Dacope, Khulna District, Khulna Division, Bangladesh","তিলদঙ্গা গোবিন্দ মন্দির, খুলনা জেলা, খুলনা বিভাগ, বাংলাদেশ",Dacope,বাংলাদেশ,খুলনা বিভাগ,local_admin,boundaries,['place_of_worship'],[],Bangladesh,Khulna,Khulna,Dacope,Tildanga,c6f5336f6ce8c8d0e95610ac824b1431
6116779176.0,893cf352683ffff,22.5959845,89.4418457,Naldanga Moddopara Jame Mosque,"['logic_undp', 'Ayla']","Naldanga Moddopara Jame Mosque, Dacope, Khulna District, Khulna Division, Bangladesh","নালদঙ্গা মোডডোপারা জামে মসজিদ, খুলনা জেলা, খুলনা বিভাগ, বাংলাদেশ",Dacope,বাংলাদেশ,খুলনা বিভাগ,local_admin,boundaries,['place_of_worship_muslim'],[],Bangladesh,Khulna,Khulna,Dacope,Tildanga,c6f5336f6ce8c8d0e95610ac824b1431
6116779177.0,893cf3526c7ffff,22.5887609,89.4412637,Naldaga South para Jame mosque,"['logic_undp', 'Sidor,Ayla']","Naldaga South para Jame mosque, Dacope, Khulna District, Khulna Division, Bangladesh","নলদাগা দক্ষিণ প্যারা জামে মসজিদ, খুলনা জেলা, খুলনা বিভাগ, বাংলাদেশ",Dacope,বাংলাদেশ,খুলনা বিভাগ,local_admin,boundaries,['place_of_worship_muslim'],[],Bangladesh,Khulna,Khulna,Dacope,Tildanga,c6f5336f6ce8c8d0e95610ac824b1431
6116779178.0,893cf3c997bffff,22.5935651,89.4295263,Adharmanik Village thakur bari Sojbojanin Kali Mondir,"['logic_undp', 'Ayla']","Adharmanik Village thakur bari Sojbojanin Kali Mondir, Dacope, Khulna District, Khulna Division, Bangladesh","অন্ধরমিক গ্রাম ঠাকুর বারী সরবজনিন কালী মন্দির, খুলনা জেলা, খুলনা বিভাগ, বাংলাদেশ",Dacope,বাংলাদেশ,খুলনা বিভাগ,local_admin,boundaries,['place_of_worship'],[],Bangladesh,Khulna,Khulna,Dacope,Tildanga,c6f5336f6ce8c8d0e95610ac824b1431
6116779180.0,893cf3c9b97ffff,22.590061,89.4201681,Gorkhali Kachari para Matri mondir,"['logic_undp', '_']","Gorkhali Kachari para Matri mondir, Paikgachha Upazila, Khulna District, Khulna Division, Bangladesh","গোর্খালি কাচারি প্যারা মাত্রি মন্দির, পাইকগাছা উপজেলা, খুলনা জেলা, খুলনা বিভাগ, বাংলাদেশ",পাইকগাছা উপজেলা,বাংলাদেশ,খুলনা বিভাগ,local_admin,boundaries,['place_of_worship'],[],Bangladesh,Khulna,Khulna,Dacope,Tildanga,c6f5336f6ce8c8d0e95610ac824b1431
6116779181.0,893cf3c994fffff,22.5938301,89.4276528,Adharmanik Village Sree Sree Sojbojanin Mondir,"['logic_undp', 'Ayla']","Adharmanik Village Sree Sree Sojbojanin Mondir, Dacope, Khulna District, Khulna Division, Bangladesh","আধারমানিক ভিলেজ শ্রী শ্রী সরবজনিন মন্ডির, খুলনা জেলা, খুলনা বিভাগ, বাংলাদেশ",Dacope,বাংলাদেশ,খুলনা বিভাগ,local_admin,boundaries,['place_of_worship'],[],Bangladesh,Khulna,Khulna,Dacope,Tildanga,c6f5336f6ce8c8d0e95610ac824b1431
6116779182.0,893cf3c994fffff,22.5938152,89.4275764,Adharmanik Village Sorbojonin Durga Mondir,"['logic_undp', 'Ayla']","Adharmanik Village Sorbojonin Durga Mondir, Dacope, Khulna District, Khulna Division, Bangladesh","আধারমানিক ভিলেজ সোর্বোজোনিন দুর্গা মন্ডির, খুলনা জেলা, খুলনা বিভাগ, বাংলাদেশ",Dacope,বাংলাদেশ,খুলনা বিভাগ,local_admin,boundaries,['place_of_worship'],[],Bangladesh,Khulna,Khulna,Dacope,Tildanga,c6f5336f6ce8c8d0e95610ac824b1431
6116779183.0,893cf3c9b3bffff,22.5790071,89.4278687,Kakrabuniya Agakhal Jame mosque,"['logic_undp', 'Ayla']","Kakrabuniya Agakhal Jame mosque, Dacope, Khulna District, Khulna Division, Bangladesh","কাকরাবুনিয়া আগখল জামে মসজিদ, খুলনা জেলা, খুলনা বিভাগ, বাংলাদেশ",Dacope,বাংলাদেশ,খুলনা বিভাগ,local_admin,boundaries,['place_of_worship_muslim'],[],Bangladesh,Khulna,Khulna,Dacope,Tildanga,c6f5336f6ce8c8d0e95610ac824b1431
6116779184.0,893cf3c9b2bffff,22.5769948,89.4302492,Kakrabuniya Old jame mosque,"['logic_undp', 'Ayla']","Kakrabuniya Old jame mosque, Dacope, Khulna District, Khulna Division, Bangladesh","কাকরাবুনিয়া পুরাতন জামে মসজিদ, খুলনা জেলা, খুলনা বিভাগ, বাংলাদেশ",Dacope,বাংলাদেশ,খুলনা বিভাগ,local_admin,boundaries,['place_of_worship_muslim'],[],Bangladesh,Khulna,Khulna,Dacope,Tildanga,c6f5336f6ce8c8d0e95610ac824b1431
6116779886.0,893cf3c9b67ffff,22.5735819,89.4298455,Kakrabuniya Jannatul bag jame Mosque,"['logic_undp', 'Ayla']","Kakrabuniya Jannatul bag jame Mosque, Dacope, Khulna District, Khulna Division, Bangladesh","কাকরাবুনিয়া জান্নাতুল ব্যাগ জামে মসজিদ, খুলনা জেলা, খুলনা বিভাগ, বাংলাদেশ",Dacope,বাংলাদেশ,খুলনা বিভাগ,local_admin,boundaries,['place_of_worship_muslim'],[],Bangladesh,Khulna,Khulna,Dacope,Tildanga,c6f5336f6ce8c8d0e95610ac824b1431
6116779887.0,893cf353587ffff,22.5725442,89.4414166,Kali mondir,"['logic_undp', 'Ayla']","Kali mondir, Dacope, Khulna District, Khulna Division, Bangladesh","কালী মন্ডির, খুলনা জেলা, খুলনা বিভাগ, বাংলাদেশ",Dacope,বাংলাদেশ,খুলনা বিভাগ,local_admin,boundaries,['place_of_worship'],[],Bangladesh,Khulna,Khulna,Dacope,Tildanga,c6f5336f6ce8c8d0e95610ac824b1431
6116779888.0,893cf3522afffff,22.5760016,89.4731095,Sree Sree Tildanga Sarbojonin Temple,"['logic_undp', '_']","Sree Sree Tildanga Sarbojonin Temple, Dacope, Khulna District, Khulna Division, Bangladesh","শ্রী শ্রী তিলদঙ্গা সার্বোজোনিন মন্দির, খুলনা জেলা, খুলনা বিভাগ, বাংলাদেশ",Dacope,বাংলাদেশ,খুলনা বিভাগ,local_admin,boundaries,['place_of_worship'],[],Bangladesh,Khulna,Khulna,Dacope,Tildanga,c6f5336f6ce8c8d0e95610ac824b1431
6116779889.0,893cf3522d3ffff,22.5738791,89.4548263,Bodbuniya Kali mondir,"['logic_undp', '_']","Bodbuniya Kali mondir, Dacope, Khulna District, Khulna Division, Bangladesh","বোডবুনিয়া কালী মন্ডির, খুলনা জেলা, খুলনা বিভাগ, বাংলাদেশ",Dacope,বাংলাদেশ,খুলনা বিভাগ,local_admin,boundaries,['place_of_worship'],[],Bangladesh,Khulna,Khulna,Dacope,Tildanga,c6f5336f6ce8c8d0e95610ac824b1431
6116779890.0,893cf3522cbffff,22.5687671,89.4564933,Hori Shova Temple,"['logic_undp', 'Sidr/Ayla/Mohasen']","Hori Shova Temple, Dacope, Khulna District, Khulna Division, Bangladesh","হরি শিব মন্দির, খুলনা জেলা, খুলনা বিভাগ, বাংলাদেশ",Dacope,বাংলাদেশ,খুলনা বিভাগ,local_admin,boundaries,['place_of_worship'],[],Bangladesh,Khulna,Khulna,Dacope,Tildanga,c6f5336f6ce8c8d0e95610ac824b1431
6116779891.0,893cf353027ffff,22.5424547,89.4474381,Kakrabuniya Sojbojanin Kali Temple,"['logic_undp', 'River Bank Erosion']","Kakrabuniya Sojbojanin Kali Temple, Dacope, Khulna District, Khulna Division, Bangladesh","কাকরাবুনিয়া সোজবোজানিন কালী মন্দির, খুলনা জেলা, খুলনা বিভাগ, বাংলাদেশ",Dacope,বাংলাদেশ,খুলনা বিভাগ,local_admin,boundaries,['place_of_worship'],[],Bangladesh,Khulna,Khulna,Dacope,Tildanga,c6f5336f6ce8c8d0e95610ac824b1431
6116779892.0,893cf353077ffff,22.5377193,89.4419637,Kaminibasiya Tetultola Radhakrishna sebasram and Kali temple,"['logic_undp', 'Ayla']","Kaminibasiya Tetultola Radhakrishna sebasram and Kali temple, Dacope, Khulna District, Khulna Division, Bangladesh","কামিনিবাসিয়া তেতলতোলা রাধাকৃষ্ণ সেবাস্রম ও কালী মন্দির, খুলনা জেলা, খুলনা বিভাগ, বাংলাদেশ",Dacope,বাংলাদেশ,খুলনা বিভাগ,local_admin,boundaries,['place_of_worship'],[],Bangladesh,Khulna,Khulna,Dacope,Tildanga,c6f5336f6ce8c8d0e95610ac824b1431
6116779893.0,893cf353067ffff,22.5368262,89.4426772,Kaminibasiya Tetultola Durga Temple,"['logic_undp', 'Ayla']","Kaminibasiya Tetultola Durga Temple, Dacope, Khulna District, Khulna Division, Bangladesh","কামিনিবাসিয়া তেতলতোলা দুর্গা মন্দির, খুলনা জেলা, খুলনা বিভাগ, বাংলাদেশ",Dacope,বাংলাদেশ,খুলনা বিভাগ,local_admin,boundaries,['place_of_worship'],[],Bangladesh,Khulna,Khulna,Dacope,Kamarkhola,38071f4ab84b55b5f1950f0dd9314772
6116779894.0,893cf35320bffff,22.517406,89.4290395,Police camp jame mosque,"['logic_undp', 'Ayla']","Police camp jame mosque, Dacope, Khulna District, Khulna Division, Bangladesh","পুলিশ ক্যাম্প জামে মসজিদ, খুলনা জেলা, খুলনা বিভাগ, বাংলাদেশ",Dacope,বাংলাদেশ,খুলনা বিভাগ,local_admin,boundaries,['place_of_worship_muslim'],[],Bangladesh,Khulna,Khulna,Dacope,Tildanga,c6f5336f6ce8c8d0e95610ac824b1431
6116779895.0,893cf353203ffff,22.5194042,89.4292246,Sree Sree Sorbojanin Kali temple,"['logic_undp', 'Ayla']","Sree Sree Sorbojanin Kali temple, Dacope, Khulna District, Khulna Division, Bangladesh","শ্রী শ্রী সরবজনিন কালী মন্দির, খুলনা জেলা, খুলনা বিভাগ, বাংলাদেশ",Dacope,বাংলাদেশ,খুলনা বিভাগ,local_admin,boundaries,['place_of_worship'],[],Bangladesh,Khulna,Khulna,Dacope,Tildanga,c6f5336f6ce8c8d0e95610ac824b1431
6116779896.0,893cf353203ffff,22.5204523,89.4297315,Sree Sree Laxmi Kali Thakur Temple,"['logic_undp', 'Ayla']","Sree Sree Laxmi Kali Thakur Temple, Dacope, Khulna District, Khulna Division, Bangladesh","শ্রী শ্রী লক্ষ্মী কালী ঠাকুর মন্দির, খুলনা জেলা, খুলনা বিভাগ, বাংলাদেশ",Dacope,বাংলাদেশ,খুলনা বিভাগ,local_admin,boundaries,['place_of_worship'],[],Bangladesh,Khulna,Khulna,Dacope,Tildanga,c6f5336f6ce8c8d0e95610ac824b1431
6116779897.0,893cf353203ffff,22.5214074,89.4281611,Jame Mosque in front of Sana Para,"['logic_undp', '_']","Jame Mosque in front of Sana Para, Dacope, Khulna District, Khulna Division, Bangladesh","সানা প্যারা সামনে জামে মসজিদ, খুলনা জেলা, খুলনা বিভাগ, বাংলাদেশ",Dacope,বাংলাদেশ,খুলনা বিভাগ,local_admin,boundaries,['place_of_worship_muslim'],[],Bangladesh,Khulna,Khulna,Dacope,Tildanga,c6f5336f6ce8c8d0e95610ac824b1431
6116779898.0,893cf35329bffff,22.5265794,89.4209191,Kamini basiya Taltala Jame Mosque,"['logic_undp', 'Ayla']","Kamini basiya Taltala Jame Mosque, Dacope, Khulna District, Khulna Division, Bangladesh","কামিনী বাসিয়া তালতলা জামে মসজিদ, খুলনা জেলা, খুলনা বিভাগ, বাংলাদেশ",Dacope,বাংলাদেশ,খুলনা বিভাগ,local_admin,boundaries,['place_of_worship_muslim'],[],Bangladesh,Khulna,Khulna,Dacope,Tildanga,c6f5336f6ce8c8d0e95610ac824b1431
6116779899.0,893cf35329bffff,22.5276671,89.4214891,kamini basiya sree Sree Radh Gobinda temple,"['logic_undp', 'Ayla']","kamini basiya sree Sree Radh Gobinda temple, Dacope, Khulna District, Khulna Division, Bangladesh","কামিনী বাসিয়া শ্রী শ্রী রাধা গোবিন্দ মন্দির, খুলনা জেলা, খুলনা বিভাগ, বাংলাদেশ",Dacope,বাংলাদেশ,খুলনা বিভাগ,local_admin,boundaries,['place_of_worship'],[],Bangladesh,Khulna,Khulna,Dacope,Tildanga,c6f5336f6ce8c8d0e95610ac824b1431
6116779900.0,893cf35329bffff,22.5279508,89.4215816,Sree sree Durga temple,"['logic_undp', 'Ayla']","Sree sree Durga temple, Dacope, Khulna District, Khulna Division, Bangladesh","শ্রী শ্রী দুর্গা মন্দির, খুলনা জেলা, খুলনা বিভাগ, বাংলাদেশ",Dacope,বাংলাদেশ,খুলনা বিভাগ,local_admin,boundaries,['place_of_worship'],[],Bangladesh,Khulna,Khulna,Dacope,Tildanga,c6f5336f6ce8c8d0e95610ac824b1431
6116779901.0,893cf353297ffff,22.5317128,89.4239701,Kamini basiya Sree Sree Horiguru Chand temple,"['logic_undp', 'Ayla']","Kamini basiya Sree Sree Horiguru Chand temple, Dacope, Khulna District, Khulna Division, Bangladesh","কামিনী বাসিয়া শ্রী শ্রী হরিগুরু চাঁদ মন্দির, খুলনা জেলা, খুলনা বিভাগ, বাংলাদেশ",Dacope,বাংলাদেশ,খুলনা বিভাগ,local_admin,boundaries,['place_of_worship'],[],Bangladesh,Khulna,Khulna,Dacope,Tildanga,c6f5336f6ce8c8d0e95610ac824b1431
6116779902.0,893cf3530bbffff,22.5493649,89.438847,Tetultola NoboBrindabon Sorbojonin Mondir,"['logic_undp', 'Ayla']","Tetultola NoboBrindabon Sorbojonin Mondir, Dacope, Khulna District, Khulna Division, Bangladesh","তেতুলটা নোবোব্রিন্দাবন সোর্বোজোনিন মন্ডির, খুলনা জেলা, খুলনা বিভাগ, বাংলাদেশ",Dacope,বাংলাদেশ,খুলনা বিভাগ,local_admin,boundaries,['place_of_worship'],[],Bangladesh,Khulna,Khulna,Dacope,Tildanga,c6f5336f6ce8c8d0e95610ac824b1431
6116779903.0,893cf3531d3ffff,22.5522359,89.4485164,Aarakhali Sorbojanin Kali mondir,"['logic_undp', 'Ayla']","Aarakhali Sorbojanin Kali mondir, Dacope, Khulna District, Khulna Division, Bangladesh","আরখালী সরবজনিন কালী মন্দির, খুলনা জেলা, খুলনা বিভাগ, বাংলাদেশ",Dacope,বাংলাদেশ,খুলনা বিভাগ,local_admin,boundaries,['place_of_worship'],[],Bangladesh,Khulna,Khulna,Dacope,Tildanga,c6f5336f6ce8c8d0e95610ac824b1431
6116779905.0,893cf3535c3ffff,22.5659014,89.4308688,Jalalabad jame mosque,"['logic_undp', 'Ayla']","Jalalabad jame mosque, Dacope, Khulna District, Khulna Division, Bangladesh","জালালাবাদ জামে মসজিদ, খুলনা জেলা, খুলনা বিভাগ, বাংলাদেশ",Dacope,বাংলাদেশ,খুলনা বিভাগ,local_admin,boundaries,['place_of_worship_muslim'],[],Bangladesh,Khulna,Khulna,Dacope,Tildanga,c6f5336f6ce8c8d0e95610ac824b1431
6116779906.0,893cf3535cbffff,22.5611544,89.4319564,Kamini Bariya Biswas Bari Temple,"['logic_undp', '_']","Kamini Bariya Biswas Bari Temple, Dacope, Khulna District, Khulna Division, Bangladesh","কামিনী বারিয়া বিশ্বস বারী মন্দির, খুলনা জেলা, খুলনা বিভাগ, বাংলাদেশ",Dacope,বাংলাদেশ,খুলনা বিভাগ,local_admin,boundaries,['place_of_worship'],[],Bangladesh,Khulna,Khulna,Dacope,Tildanga,c6f5336f6ce8c8d0e95610ac824b1431
6116779907.0,893cf353497ffff,22.567977,89.4128162,Gorkhali Sabila Khatun Mosque,"['logic_undp', 'Sidr/Ayla/Mohasen']","Gorkhali Sabila Khatun Mosque, Paikgachha Upazila, Khulna District, Khulna Division, Bangladesh","গোর্খালি সাবিলা খাতুন মসজিদ, পাইকগাছা উপজেলা, খুলনা জেলা, খুলনা বিভাগ, বাংলাদেশ",পাইকগাছা উপজেলা,বাংলাদেশ,খুলনা বিভাগ,local_admin,boundaries,['place_of_worship_muslim'],[],Bangladesh,Khulna,Khulna,Dacope,Tildanga,c6f5336f6ce8c8d0e95610ac824b1431
6116779910.0,893cf3c9a33ffff,22.5765539,89.4054723,Saddarpara Jame Mosque,"['logic_undp', 'Sidr/Ayla/Mohasen']","Saddarpara Jame Mosque, Paikgachha Upazila, Khulna District, Khulna Division, Bangladesh","সাদ্দারপেরা জামে মসজিদ, পাইকগাছা উপজেলা, খুলনা জেলা, খুলনা বিভাগ, বাংলাদেশ",পাইকগাছা উপজেলা,বাংলাদেশ,খুলনা বিভাগ,local_admin,boundaries,['place_of_worship_muslim'],[],Bangladesh,Khulna,Khulna,Dacope,Tildanga,c6f5336f6ce8c8d0e95610ac824b1431
6116779911.0,893cf3c9a33ffff,22.5769849,89.4063172,Baitus Salam Jame Mosque,"['logic_undp', '_']","Baitus Salam Jame Mosque, Paikgachha Upazila, Khulna District, Khulna Division, Bangladesh","বাইটাস সালাম জামে মসজিদ, পাইকগাছা উপজেলা, খুলনা জেলা, খুলনা বিভাগ, বাংলাদেশ",পাইকগাছা উপজেলা,বাংলাদেশ,খুলনা বিভাগ,local_admin,boundaries,['place_of_worship_muslim'],[],Bangladesh,Khulna,Khulna,Dacope,Tildanga,c6f5336f6ce8c8d0e95610ac824b1431
6119713900.0,893cf353067ffff,22.5367135,89.4419503,Alok Ujjol Youth Club besise Tetultola bazar,"['logic_undp', 'Ayla']","Alok Ujjol Youth Club besise Tetultola bazar, Dacope, Khulna District, Khulna Division, Bangladesh","অলোক উজ্জল যুব ক্লাবের পাশের তেতলুলা বাজার, খুলনা জেলা, খুলনা বিভাগ, বাংলাদেশ",Dacope,বাংলাদেশ,খুলনা বিভাগ,local_admin,boundaries,['marketplace'],[],Bangladesh,Khulna,Khulna,Dacope,Kamarkhola,38071f4ab84b55b5f1950f0dd9314772
6119713901.0,893cf35302bffff,22.539342,89.4449463,"Kakrabuniya EV branch Post office, khulna-9270","['logic_undp', '_']","Kakrabuniya EV branch Post office khulna-9270, Dacope, Khulna District, Khulna Division, Bangladesh","কাকরাবুনিয়া ইভি শাখা পোস্ট অফিস খুলনা -9270, খুলনা জেলা, খুলনা বিভাগ, বাংলাদেশ",Dacope,বাংলাদেশ,খুলনা বিভাগ,local_admin,boundaries,['post_office'],[],Bangladesh,Khulna,Khulna,Dacope,Tildanga,c6f5336f6ce8c8d0e95610ac824b1431
6119713902.0,893cf35208bffff,22.5978417,89.4664121,Tildanga Vhumi office,"['logic_undp', '_']","Tildanga Vhumi office, Dacope, Khulna District, Khulna Division, Bangladesh","তিলদঙ্গা ভিহুমি অফিস, খুলনা জেলা, খুলনা বিভাগ, বাংলাদেশ",Dacope,বাংলাদেশ,খুলনা বিভাগ,local_admin,boundaries,['government'],[],Bangladesh,Khulna,Khulna,Dacope,Tildanga,c6f5336f6ce8c8d0e95610ac824b1431
6120336749.0,893cf3522cfffff,22.569172,89.4580181,Botbuniya bazar tubewell,"['logic_undp', '_']","Botbuniya bazar tubewell, Dacope, Khulna District, Khulna Division, Bangladesh","বটবুনিয়া বাজার টিউবেল, খুলনা জেলা, খুলনা বিভাগ, বাংলাদেশ",Dacope,বাংলাদেশ,খুলনা বিভাগ,local_admin,boundaries,['water_well'],[],Bangladesh,Khulna,Khulna,Dacope,Tildanga,c6f5336f6ce8c8d0e95610ac824b1431
6120336750.0,893cf3522cbffff,22.5686643,89.4560373,Hori Shova Temple tubewell,"['logic_undp', '_']","Hori Shova Temple tubewell, Dacope, Khulna District, Khulna Division, Bangladesh","হরি শোভা মন্দির টিউবেল, খুলনা জেলা, খুলনা বিভাগ, বাংলাদেশ",Dacope,বাংলাদেশ,খুলনা বিভাগ,local_admin,boundaries,['water_well'],[],Bangladesh,Khulna,Khulna,Dacope,Tildanga,c6f5336f6ce8c8d0e95610ac824b1431
6120336751.0,893cf353437ffff,22.5622232,89.4268522,tubewell of Jame Mosque of Sana Para,"['logic_undp', '_']","tubewell of Jame Mosque of Sana Para, Dacope, Khulna District, Khulna Division, Bangladesh","সানা প্যারা এর জামে মসজিদের টিউবেল, খুলনা জেলা, খুলনা বিভাগ, বাংলাদেশ",Dacope,বাংলাদেশ,খুলনা বিভাগ,local_admin,boundaries,['water_well'],[],Bangladesh,Khulna,Khulna,Dacope,Tildanga,c6f5336f6ce8c8d0e95610ac824b1431
6120336752.0,893cf353067ffff,22.5374543,89.4419342,Tetultola Radhakrishna sebashram and kali mondir tubewell,"['logic_undp', 'Ayla']","Tetultola Radhakrishna sebashram and kali mondir tubewell, Dacope, Khulna District, Khulna Division, Bangladesh","তেতুলোলা রাধাকৃষ্ণ সেবাশ্রম এবং কালী মন্ডির টিউবেল, খুলনা জেলা, খুলনা বিভাগ, বাংলাদেশ",Dacope,বাংলাদেশ,খুলনা বিভাগ,local_admin,boundaries,['water_well'],[],Bangladesh,Khulna,Khulna,Dacope,Kamarkhola,38071f4ab84b55b5f1950f0dd9314772
6120336762.0,893cf353437ffff,22.5609773,89.4264203,Goutam Sana Tube well,"['logic_undp', '_']","Goutam Sana Tube well, Dacope, Khulna District, Khulna Division, Bangladesh","গুউটম সানা টিউব ভাল, খুলনা জেলা, খুলনা বিভাগ, বাংলাদেশ",Dacope,বাংলাদেশ,খুলনা বিভাগ,local_admin,boundaries,['water_well'],[],Bangladesh,Khulna,Khulna,Dacope,Tildanga,c6f5336f6ce8c8d0e95610ac824b1431
6120336767.0,893cf353597ffff,22.5757106,89.4399185,Tubewell of Sattapir para Shubash babu,"['logic_undp', 'Ayla']","Tubewell of Sattapir para Shubash babu, Dacope, Khulna District, Khulna Division, Bangladesh","সত্তাপির প্যারা শুবাশ বাবুর টিউবেল, খুলনা জেলা, খুলনা বিভাগ, বাংলাদেশ",Dacope,বাংলাদেশ,খুলনা বিভাগ,local_admin,boundaries,['water_well'],[],Bangladesh,Khulna,Khulna,Dacope,Tildanga,c6f5336f6ce8c8d0e95610ac824b1431
6120336772.0,893cf3c9a33ffff,22.5764623,89.4054589,tubewell of Saddarpara Jame Mosque,"['logic_undp', '_']","tubewell of Saddarpara Jame Mosque, Paikgachha Upazila, Khulna District, Khulna Division, Bangladesh","সাদ্দারপুরার টিউবেল জামে মসজিদ, পাইকগাছা উপজেলা, খুলনা জেলা, খুলনা বিভাগ, বাংলাদেশ",পাইকগাছা উপজেলা,বাংলাদেশ,খুলনা বিভাগ,local_admin,boundaries,['water_well'],[],Bangladesh,Khulna,Khulna,Dacope,Tildanga,c6f5336f6ce8c8d0e95610ac824b1431
6120336779.0,893cf3c994bffff,22.5918354,89.4250162,Tubewell in front of Gorkhali Khokon Gazi bari,"['logic_undp', 'Ayla']","Tubewell in front of Gorkhali Khokon Gazi bari, Dacope, Khulna District, Khulna Division, Bangladesh","গোর্খালি খোকন গাজি বারির সামনে টিউবেল, খুলনা জেলা, খুলনা বিভাগ, বাংলাদেশ",Dacope,বাংলাদেশ,খুলনা বিভাগ,local_admin,boundaries,['water_well'],[],Bangladesh,Khulna,Khulna,Dacope,Tildanga,c6f5336f6ce8c8d0e95610ac824b1431
6120336780.0,893cf3c994fffff,22.593055,89.4275951,Tubewell of Andharmanik Torun Shongho,"['logic_undp', '_']","Tubewell of Andharmanik Torun Shongho, Dacope, Khulna District, Khulna Division, Bangladesh","অন্ধর্মমানিক টরুন শংহোর টিউবেল, খুলনা জেলা, খুলনা বিভাগ, বাংলাদেশ",Dacope,বাংলাদেশ,খুলনা বিভাগ,local_admin,boundaries,['water_well'],[],Bangladesh,Khulna,Khulna,Dacope,Tildanga,c6f5336f6ce8c8d0e95610ac824b1431
6120336781.0,893cf352693ffff,22.5968561,89.441607,Naldanga Uttorpara Tubewell,"['logic_undp', 'Ayla']","Naldanga Uttorpara Tubewell, Dacope, Khulna District, Khulna Division, Bangladesh","নালদঙ্গা ইউটারপেরা টিউবেল, খুলনা জেলা, খুলনা বিভাগ, বাংলাদেশ",Dacope,বাংলাদেশ,খুলনা বিভাগ,local_admin,boundaries,['water_well'],[],Bangladesh,Khulna,Khulna,Dacope,Tildanga,c6f5336f6ce8c8d0e95610ac824b1431
6120336782.0,893cf352693ffff,22.5964748,89.4414836,Naldanga moddopara jame mosque Tubewell,"['logic_undp', 'Ayla']","Naldanga moddopara jame mosque Tubewell, Dacope, Khulna District, Khulna Division, Bangladesh","নালদঙ্গা মোডডোপারা জামে মসজিদ টিউবেল, খুলনা জেলা, খুলনা বিভাগ, বাংলাদেশ",Dacope,বাংলাদেশ,খুলনা বিভাগ,local_admin,boundaries,['water_well'],[],Bangladesh,Khulna,Khulna,Dacope,Tildanga,c6f5336f6ce8c8d0e95610ac824b1431
6120337089.0,893cf352697ffff,22.5983233,89.4427241,Naldanga Govt primary school Tubewell,"['logic_undp', 'Ayla']","Naldanga Govt primary school Tubewell, Dacope, Khulna District, Khulna Division, Bangladesh","নালদঙ্গা গভর্নমেন্ট প্রাথমিক বিদ্যালয় টিউবেল, খুলনা জেলা, খুলনা বিভাগ, বাংলাদেশ",Dacope,বাংলাদেশ,খুলনা বিভাগ,local_admin,boundaries,['water_well'],[],Bangladesh,Khulna,Khulna,Dacope,Tildanga,c6f5336f6ce8c8d0e95610ac824b1431
6120337090.0,893cf352697ffff,22.5983085,89.4447908,Motaleb Sheikh tubewell,"['logic_undp', '_']","Motaleb Sheikh tubewell, Dacope, Khulna District, Khulna Division, Bangladesh","মোটালেব শেখ টিউবেল, খুলনা জেলা, খুলনা বিভাগ, বাংলাদেশ",Dacope,বাংলাদেশ,খুলনা বিভাগ,local_admin,boundaries,['water_well'],[],Bangladesh,Khulna,Khulna,Dacope,Tildanga,c6f5336f6ce8c8d0e95610ac824b1431
6120337091.0,893cf352697ffff,22.5983902,89.4449128,Atiwar Sheikh tubewell,"['logic_undp', '_']","Atiwar Sheikh tubewell, Dacope, Khulna District, Khulna Division, Bangladesh","আতিওয়ার শেখ টিউবেল, খুলনা জেলা, খুলনা বিভাগ, বাংলাদেশ",Dacope,বাংলাদেশ,খুলনা বিভাগ,local_admin,boundaries,['water_well'],[],Bangladesh,Khulna,Khulna,Dacope,Tildanga,c6f5336f6ce8c8d0e95610ac824b1431
6120337096.0,893cf35200fffff,22.5924854,89.4751883,Shovas Roy tubewell,"['logic_undp', '_']","Shovas Roy tubewell, Dacope, Khulna District, Khulna Division, Bangladesh","শোভাস রায় টিউবেল, খুলনা জেলা, খুলনা বিভাগ, বাংলাদেশ",Dacope,বাংলাদেশ,খুলনা বিভাগ,local_admin,boundaries,['water_well'],[],Bangladesh,Khulna,Khulna,Dacope,Tildanga,c6f5336f6ce8c8d0e95610ac824b1431
6120337098.0,893cf35200bffff,22.5925845,89.4706848,Premondo Gain tubewell,"['logic_undp', '_']","Premondo Gain tubewell, Dacope, Khulna District, Khulna Division, Bangladesh","প্রিমন্ডো লাভ টিউবেল, খুলনা জেলা, খুলনা বিভাগ, বাংলাদেশ",Dacope,বাংলাদেশ,খুলনা বিভাগ,local_admin,boundaries,['water_well'],[],Bangladesh,Khulna,Khulna,Dacope,Tildanga,c6f5336f6ce8c8d0e95610ac824b1431
6121913271.0,893cf35326bffff,22.5104805,89.4341692,Kalibari Temple,"['logic_undp', 'Aila']","Kalibari Temple, Dacope, Khulna District, Khulna Division, Bangladesh","কালিবারি মন্দির, খুলনা জেলা, খুলনা বিভাগ, বাংলাদেশ",Dacope,বাংলাদেশ,খুলনা বিভাগ,local_admin,boundaries,['place_of_worship'],[],Bangladesh,Khulna,Khulna,Dacope,Sutarkhali,d47e9f5cf8217667a1cb5b58690cd79e
6121913272.0,893cf351173ffff,22.4921482,89.4907021,Fisheries,"['logic_undp', 'Aila']","Fisheries, Dacope, Khulna District, Khulna Division, Bangladesh","ফিশারি, খুলনা জেলা, খুলনা বিভাগ, বাংলাদেশ",Dacope,বাংলাদেশ,খুলনা বিভাগ,local_admin,boundaries,['fishing'],[],Bangladesh,Khulna,Khulna,Dacope,KhulnaRange,198fa9552de86d8f7352530961b8b895
6121913273.0,893cf35a307ffff,22.4242592,89.4495115,Kalabagi Thursday Hut,"['logic_undp', 'Aila']","Kalabagi Thursday Hut, Dacope, Khulna District, Khulna Division, Bangladesh","কালাবাগি বৃহস্পতিবার হাট, খুলনা জেলা, খুলনা বিভাগ, বাংলাদেশ",Dacope,বাংলাদেশ,খুলনা বিভাগ,local_admin,boundaries,['marketplace'],[],Bangladesh,Khulna,Khulna,Dacope,Sutarkhali,d47e9f5cf8217667a1cb5b58690cd79e
6121988040.0,893cf351203ffff,22.4661174,89.4603395,Gunari Dakhil Madrasha,"['logic_undp', 'Aila']","Gunari Dakhil Madrasha, Dacope, Khulna District, Khulna Division, Bangladesh","গুনারি দাখিল মাদ্রাশা, খুলনা জেলা, খুলনা বিভাগ, বাংলাদেশ",Dacope,বাংলাদেশ,খুলনা বিভাগ,local_admin,boundaries,['school'],[],Bangladesh,Khulna,Khulna,Dacope,Sutarkhali,d47e9f5cf8217667a1cb5b58690cd79e
6121988041.0,893cf351217ffff,22.4703286,89.4595402,Sutarkhali Darul-ul-Madrasha,"['logic_undp', 'Aila']","Sutarkhali Darul-ul-Madrasha, Dacope, Khulna District, Khulna Division, Bangladesh","সুতারখালি দারুল-উল-মাদ্রশা, খুলনা জেলা, খুলনা বিভাগ, বাংলাদেশ",Dacope,বাংলাদেশ,খুলনা বিভাগ,local_admin,boundaries,['school'],[],Bangladesh,Khulna,Khulna,Dacope,Sutarkhali,d47e9f5cf8217667a1cb5b58690cd79e
6121988042.0,893cf3512bbffff,22.4739819,89.4616672,Sutarkhali-2 Govt. Primary School,"['logic_undp', 'Aila']","Sutarkhali-2 Govt. Primary School, Dacope, Khulna District, Khulna Division, Bangladesh","সুতারখালি -২ সরকারপ্রাথমিক বিদ্যালয়, খুলনা জেলা, খুলনা বিভাগ, বাংলাদেশ",Dacope,বাংলাদেশ,খুলনা বিভাগ,local_admin,boundaries,['school'],[],Bangladesh,Khulna,Khulna,Dacope,Sutarkhali,d47e9f5cf8217667a1cb5b58690cd79e
6121988043.0,893cf35105bffff,22.4810058,89.4553131,Sutarkhali Bainpara Madar Nagar Govt. Primary School,"['logic_undp', 'Aila']","Sutarkhali Bainpara Madar Nagar Govt. Primary School, Dacope, Khulna District, Khulna Division, Bangladesh","সুতারখালি বাইনপেরা মাদার নগর সরকার।প্রাথমিক বিদ্যালয়, খুলনা জেলা, খুলনা বিভাগ, বাংলাদেশ",Dacope,বাংলাদেশ,খুলনা বিভাগ,local_admin,boundaries,['school'],[],Bangladesh,Khulna,Khulna,Dacope,Sutarkhali,d47e9f5cf8217667a1cb5b58690cd79e
6121988044.0,893cf351633ffff,22.4838906,89.4486961,Secondary School,"['logic_undp', 'Aila']","Secondary School, Dacope, Khulna District, Khulna Division, Bangladesh","মাধ্যমিক বিদ্যালয়, খুলনা জেলা, খুলনা বিভাগ, বাংলাদেশ",Dacope,বাংলাদেশ,খুলনা বিভাগ,local_admin,boundaries,['school'],[],Bangladesh,Khulna,Khulna,Dacope,Sutarkhali,d47e9f5cf8217667a1cb5b58690cd79e
6121988045.0,893cf22496fffff,22.4895535,89.4313958,5 No. Gonari Harimohon Govt. Primary School,"['logic_undp', 'Aila']","5 No. Gonari Harimohon Govt. Primary School, Dacope, Khulna District, Khulna Division, Bangladesh","5 নং গোনারি হারিমোহন সরকার।প্রাথমিক বিদ্যালয়, খুলনা জেলা, খুলনা বিভাগ, বাংলাদেশ",Dacope,বাংলাদেশ,খুলনা বিভাগ,local_admin,boundaries,['school'],[],Bangladesh,Khulna,Khulna,Dacope,Sutarkhali,d47e9f5cf8217667a1cb5b58690cd79e
6121988046.0,893cf351643ffff,22.4746462,89.437412,South Upennagar Govt. Primary School,"['logic_undp', 'Aila']","South Upennagar Govt. Primary School, Dacope, Khulna District, Khulna Division, Bangladesh","দক্ষিণ উপনগর সরকার।প্রাথমিক বিদ্যালয়, খুলনা জেলা, খুলনা বিভাগ, বাংলাদেশ",Dacope,বাংলাদেশ,খুলনা বিভাগ,local_admin,boundaries,['school'],[],Bangladesh,Khulna,Khulna,Dacope,Sutarkhali,d47e9f5cf8217667a1cb5b58690cd79e
6121988047.0,893cf35a507ffff,22.4626299,89.4384943,Naliyan Secondary School,"['logic_undp', 'Aila']","Naliyan Secondary School, Dacope, Khulna District, Khulna Division, Bangladesh","নালিয়ান মাধ্যমিক বিদ্যালয়, খুলনা জেলা, খুলনা বিভাগ, বাংলাদেশ",Dacope,বাংলাদেশ,খুলনা বিভাগ,local_admin,boundaries,['school'],[],Bangladesh,Khulna,Khulna,Dacope,Sutarkhali,d47e9f5cf8217667a1cb5b58690cd79e
6121988048.0,893cf35a507ffff,22.4625977,89.4387652,"Naliyan Forest Govt, Primary School","['logic_undp', 'Aila']","Naliyan Forest Govt Primary School, Dacope, Khulna District, Khulna Division, Bangladesh","নালিয়ান ফরেস্ট গভঃ প্রাথমিক বিদ্যালয়, খুলনা জেলা, খুলনা বিভাগ, বাংলাদেশ",Dacope,বাংলাদেশ,খুলনা বিভাগ,local_admin,boundaries,['school'],[],Bangladesh,Khulna,Khulna,Dacope,Sutarkhali,d47e9f5cf8217667a1cb5b58690cd79e
6121988049.0,893cf35a507ffff,22.4620747,89.437927,Naliyan Darul Madrasha,"['logic_undp', 'Aila']","Naliyan Darul Madrasha, Dacope, Khulna District, Khulna Division, Bangladesh","নালিয়ান দারুল মাদ্রাশা, খুলনা জেলা, খুলনা বিভাগ, বাংলাদেশ",Dacope,বাংলাদেশ,খুলনা বিভাগ,local_admin,boundaries,['school'],[],Bangladesh,Khulna,Khulna,Dacope,Sutarkhali,d47e9f5cf8217667a1cb5b58690cd79e
6121988050.0,893cf35142bffff,22.5016244,89.456052,Gonari Jogesh Chandra Govt. Primary School,"['logic_undp', 'Aila']","Gonari Jogesh Chandra Govt. Primary School, Dacope, Khulna District, Khulna Division, Bangladesh","গনারি জোগেশ চন্দ্র সরকার।প্রাথমিক বিদ্যালয়, খুলনা জেলা, খুলনা বিভাগ, বাংলাদেশ",Dacope,বাংলাদেশ,খুলনা বিভাগ,local_admin,boundaries,['school'],[],Bangladesh,Khulna,Khulna,Dacope,Sutarkhali,d47e9f5cf8217667a1cb5b58690cd79e
6121988051.0,893cf35154bffff,22.5014943,89.467269,Gainpara Govt. Primary School,"['logic_undp', 'Aila']","Gainpara Govt. Primary School, Dacope, Khulna District, Khulna Division, Bangladesh","গেইনপারা সরকারপ্রাথমিক বিদ্যালয়, খুলনা জেলা, খুলনা বিভাগ, বাংলাদেশ",Dacope,বাংলাদেশ,খুলনা বিভাগ,local_admin,boundaries,['school'],[],Bangladesh,Khulna,Khulna,Dacope,Sutarkhali,d47e9f5cf8217667a1cb5b58690cd79e
6121988052.0,893cf3511d7ffff,22.4998278,89.4796139,Sutarkhali Secondary School,"['logic_undp', 'Aila']","Sutarkhali Secondary School, Dacope, Khulna District, Khulna Division, Bangladesh","সুতারখালি মাধ্যমিক বিদ্যালয়, খুলনা জেলা, খুলনা বিভাগ, বাংলাদেশ",Dacope,বাংলাদেশ,খুলনা বিভাগ,local_admin,boundaries,['school'],[],Bangladesh,Khulna,Khulna,Dacope,KhulnaRange,198fa9552de86d8f7352530961b8b895
6121988053.0,893cf351243ffff,22.4591399,89.4545969,19 no. kalabagi Govt. Primary School,"['logic_undp', 'Aila']","19 no. kalabagi Govt. Primary School, Dacope, Khulna District, Khulna Division, Bangladesh","19 না।কালাবাগি সরকারপ্রাথমিক বিদ্যালয়, খুলনা জেলা, খুলনা বিভাগ, বাংলাদেশ",Dacope,বাংলাদেশ,খুলনা বিভাগ,local_admin,boundaries,['school'],[],Bangladesh,Khulna,Khulna,Dacope,Sutarkhali,d47e9f5cf8217667a1cb5b58690cd79e
6121988054.0,893cf35a113ffff,22.4476701,89.4505468,Kalabagi Ideal Govt. Primary School,"['logic_undp', 'Aila']","Kalabagi Ideal Govt. Primary School, Dacope, Khulna District, Khulna Division, Bangladesh","কালাবাগি আদর্শ সরকার।প্রাথমিক বিদ্যালয়, খুলনা জেলা, খুলনা বিভাগ, বাংলাদেশ",Dacope,বাংলাদেশ,খুলনা বিভাগ,local_admin,boundaries,['school'],[],Bangladesh,Khulna,Khulna,Dacope,Sutarkhali,d47e9f5cf8217667a1cb5b58690cd79e
6121988055.0,893cf35a1c3ffff,22.4465571,89.4450402,Naliyan Alim Madrasha,"['logic_undp', 'Aila']","Naliyan Alim Madrasha, Dacope, Khulna District, Khulna Division, Bangladesh","নালিয়ান আলিম মাদ্রাশা, খুলনা জেলা, খুলনা বিভাগ, বাংলাদেশ",Dacope,বাংলাদেশ,খুলনা বিভাগ,local_admin,boundaries,['college'],[],Bangladesh,Khulna,Khulna,Dacope,Sutarkhali,d47e9f5cf8217667a1cb5b58690cd79e
