osm_id,h3level9,lat,lon,name,alt_names,name_en,name_bn,local_admin_name,admin0_name,admin2_name,addr_level,poi_addr_match,poi_class,poi_keywords,country,division,district,thana,union,region_hash
9705706614.0,893cf08257bffff,23.9768767,88.7597313,Dharmadah High School,,"Dharmadah High School, Daulatpur Upazila (Kushtia), Kushtia District, Khulna Division, Bangladesh","ধর্মদাহ উচ্চ বিদ্যালয়, দৌলতপুর উপজেলা কুষ্টিয়া, কুষ্টিয়া জেলা, খুলনা বিভাগ, বাংলাদেশ",দৌলতপুর উপজেলা (কুষ্টিয়া),বাংলাদেশ,খুলনা বিভাগ,local_admin,boundaries,"['educational_institution', 'school']",[],Bangladesh,Khulna,Kushtia,Daulatpur,Adabaria,3db386410b5734f285dc70d78b5269eb
9705706615.0,893cf082183ffff,23.9767182,88.77365,D.G.T Junior Girls High School,,"D.G.T Junior Girls High School, Daulatpur Upazila (Kushtia), Kushtia District, Khulna Division, Bangladesh","ডিজি.টি জুনিয়র গার্লস হাই স্কুল, দৌলতপুর উপজেলা কুষ্টিয়া, কুষ্টিয়া জেলা, খুলনা বিভাগ, বাংলাদেশ",দৌলতপুর উপজেলা (কুষ্টিয়া),বাংলাদেশ,খুলনা বিভাগ,local_admin,boundaries,"['educational_institution', 'school']",[],Bangladesh,Khulna,Kushtia,Daulatpur,Adabaria,3db386410b5734f285dc70d78b5269eb
9705706616.0,893cf08252fffff,23.981368,88.7730764,D.G.T High School,,"D.G.T High School, Daulatpur Upazila (Kushtia), Kushtia District, Khulna Division, Bangladesh","ডিজি.টি উচ্চ বিদ্যালয়, দৌলতপুর উপজেলা কুষ্টিয়া, কুষ্টিয়া জেলা, খুলনা বিভাগ, বাংলাদেশ",দৌলতপুর উপজেলা (কুষ্টিয়া),বাংলাদেশ,খুলনা বিভাগ,local_admin,boundaries,"['educational_institution', 'school']",[],Bangladesh,Khulna,Kushtia,Daulatpur,Adabaria,3db386410b5734f285dc70d78b5269eb
9705759517.0,893cf082c83ffff,23.9840898,88.7981473,Adabaria High School,,"Adabaria High School, Daulatpur Upazila (Kushtia), Kushtia District, Khulna Division, Bangladesh","আদাবেরিয়া উচ্চ বিদ্যালয়, দৌলতপুর উপজেলা কুষ্টিয়া, কুষ্টিয়া জেলা, খুলনা বিভাগ, বাংলাদেশ",দৌলতপুর উপজেলা (কুষ্টিয়া),বাংলাদেশ,খুলনা বিভাগ,local_admin,boundaries,"['educational_institution', 'school']",[],Bangladesh,Khulna,Kushtia,Daulatpur,Adabaria,3db386410b5734f285dc70d78b5269eb
9705759523.0,893cf095083ffff,24.0209256,88.785412,Bagoan   K.  C. V. N. High School,,"Bagoan K. C. V. N. High School, Daulatpur Upazila (Kushtia), Kushtia District, Khulna Division, Bangladesh","বাগিয়ান কে সি ভি ভি এন। উচ্চ বিদ্যালয়, দৌলতপুর উপজেলা কুষ্টিয়া, কুষ্টিয়া জেলা, খুলনা বিভাগ, বাংলাদেশ",দৌলতপুর উপজেলা (কুষ্টিয়া),বাংলাদেশ,খুলনা বিভাগ,local_admin,boundaries,"['educational_institution', 'school']",[],Bangladesh,Khulna,Kushtia,Daulatpur,Mathurapur,eccabc0475079d71fb4a34fc791e927a
9705759523.0,893cf095083ffff,24.0209256,88.785412,Bagoan   K.  C. V. N. High School,,"Bagoan K. C. V. N. High School, Daulatpur Upazila (Kushtia), Kushtia District, Khulna Division, Bangladesh","বাগিয়ান কে সি ভি ভি এন। উচ্চ বিদ্যালয়, দৌলতপুর উপজেলা কুষ্টিয়া, কুষ্টিয়া জেলা, খুলনা বিভাগ, বাংলাদেশ",দৌলতপুর উপজেলা (কুষ্টিয়া),বাংলাদেশ,খুলনা বিভাগ,local_admin,boundaries,"['educational_institution', 'school']",[],Bangladesh,Khulna,Kushtia,Daulatpur,Prayagpur,d8f62b47673745259eb15f463da4bb61
9705759524.0,893cf095603ffff,24.0076995,88.7678438,Pragpur High School,,"Pragpur High School, Daulatpur Upazila (Kushtia), Kushtia District, Khulna Division, Bangladesh","প্রাগপুর উচ্চ বিদ্যালয়, দৌলতপুর উপজেলা কুষ্টিয়া, কুষ্টিয়া জেলা, খুলনা বিভাগ, বাংলাদেশ",দৌলতপুর উপজেলা (কুষ্টিয়া),বাংলাদেশ,খুলনা বিভাগ,local_admin,boundaries,"['educational_institution', 'school']",[],Bangladesh,Khulna,Kushtia,Daulatpur,Prayagpur,d8f62b47673745259eb15f463da4bb61
9705759525.0,893cf09568fffff,24.0125862,88.7627238,P.M. Ideal Girls High School,,"P.M. Ideal Girls High School, Daulatpur Upazila (Kushtia), Kushtia District, Khulna Division, Bangladesh","পি.এম.আদর্শ মেয়েরা উচ্চ বিদ্যালয়, দৌলতপুর উপজেলা কুষ্টিয়া, কুষ্টিয়া জেলা, খুলনা বিভাগ, বাংলাদেশ",দৌলতপুর উপজেলা (কুষ্টিয়া),বাংলাদেশ,খুলনা বিভাগ,local_admin,boundaries,"['educational_institution', 'school']",[],Bangladesh,Khulna,Kushtia,Daulatpur,Prayagpur,d8f62b47673745259eb15f463da4bb61
9705759526.0,893cf09094bffff,24.0120715,88.7421462,Bilgatua High School,,"Bilgatua High School, Daulatpur Upazila (Kushtia), Kushtia District, Khulna Division, Bangladesh","বিলগাতুয়া উচ্চ বিদ্যালয়, দৌলতপুর উপজেলা কুষ্টিয়া, কুষ্টিয়া জেলা, খুলনা বিভাগ, বাংলাদেশ",দৌলতপুর উপজেলা (কুষ্টিয়া),বাংলাদেশ,খুলনা বিভাগ,local_admin,boundaries,"['educational_institution', 'school']",[],Bangladesh,Khulna,Kushtia,Daulatpur,Prayagpur,d8f62b47673745259eb15f463da4bb61
9705759527.0,893cf0954a3ffff,24.0357588,88.7770726,J.M.G High School,,"J.M.G High School, Daulatpur Upazila (Kushtia), Kushtia District, Khulna Division, Bangladesh","জে.এম.জি হাই স্কুল, দৌলতপুর উপজেলা কুষ্টিয়া, কুষ্টিয়া জেলা, খুলনা বিভাগ, বাংলাদেশ",দৌলতপুর উপজেলা (কুষ্টিয়া),বাংলাদেশ,খুলনা বিভাগ,local_admin,boundaries,"['educational_institution', 'school']",[],Bangladesh,Khulna,Kushtia,Daulatpur,Prayagpur,d8f62b47673745259eb15f463da4bb61
9705759528.0,893cf097377ffff,24.0458031,88.7845932,,,"Daulatpur Upazila (Kushtia), Kushtia District, Khulna Division, Bangladesh","দৌলতপুর উপজেলা কুষ্টিয়া, কুষ্টিয়া জেলা, খুলনা বিভাগ, বাংলাদেশ",দৌলতপুর উপজেলা (কুষ্টিয়া),বাংলাদেশ,খুলনা বিভাগ,local_admin,boundaries,"['educational_institution', 'school']",[],Bangladesh,Khulna,Kushtia,Daulatpur,Prayagpur,d8f62b47673745259eb15f463da4bb61
9705759529.0,893cf0972afffff,24.0500948,88.7634464,Mohis Kundi High School,,"Mohis Kundi High School, Daulatpur Upazila (Kushtia), Kushtia District, Khulna Division, Bangladesh","মোহিস কুন্ডি উচ্চ বিদ্যালয়, দৌলতপুর উপজেলা কুষ্টিয়া, কুষ্টিয়া জেলা, খুলনা বিভাগ, বাংলাদেশ",দৌলতপুর উপজেলা (কুষ্টিয়া),বাংলাদেশ,খুলনা বিভাগ,local_admin,boundaries,"['educational_institution', 'school']",[],Bangladesh,Khulna,Kushtia,Daulatpur,Ramkrishnapur,877565fad37506c2e1ec57b4f58b2781
9705759530.0,893cf0972a7ffff,24.0511704,88.7624899,Fatema Yusuf Junior Girls High School,,"Fatema Yusuf Junior Girls High School, Daulatpur Upazila (Kushtia), Kushtia District, Khulna Division, Bangladesh","ফাতেমা ইউসুফ জুনিয়র গার্লস হাই স্কুল, দৌলতপুর উপজেলা কুষ্টিয়া, কুষ্টিয়া জেলা, খুলনা বিভাগ, বাংলাদেশ",দৌলতপুর উপজেলা (কুষ্টিয়া),বাংলাদেশ,খুলনা বিভাগ,local_admin,boundaries,"['educational_institution', 'school']",[],Bangladesh,Khulna,Kushtia,Daulatpur,Ramkrishnapur,877565fad37506c2e1ec57b4f58b2781
2344314708.0,893cf095b13ffff,24.0006974,88.8731064,Daulatpur Upazila Health Complex,,"Daulatpur Upazila Health Complex, Daulatpur Upazila (Kushtia), Kushtia District, Khulna Division, Bangladesh","দৌলতপুর উপজিলা স্বাস্থ্য কমপ্লেক্স, দৌলতপুর উপজেলা কুষ্টিয়া, কুষ্টিয়া জেলা, খুলনা বিভাগ, বাংলাদেশ",দৌলতপুর উপজেলা (কুষ্টিয়া),বাংলাদেশ,খুলনা বিভাগ,local_admin,boundaries,['hospital'],[],Bangladesh,Khulna,Kushtia,Daulatpur,Daulatpur,24bee97fa37aabff73c1a93a5d04dfb6
3448051873.0,893cf095197ffff,24.0318485,88.8110985,Mothurapur Bus Stop,,"Mothurapur Bus Stop, Daulatpur Upazila (Kushtia), Kushtia District, Khulna Division, Bangladesh","মথুরাপুর বাস স্টপ, দৌলতপুর উপজেলা কুষ্টিয়া, কুষ্টিয়া জেলা, খুলনা বিভাগ, বাংলাদেশ",দৌলতপুর উপজেলা (কুষ্টিয়া),বাংলাদেশ,খুলনা বিভাগ,street,boundaries,['bus_stop'],[],Bangladesh,Khulna,Kushtia,Daulatpur,Mathurapur,eccabc0475079d71fb4a34fc791e927a
3448192864.0,893cf095197ffff,24.0319014,88.8108667,"অগ্রণী ব্যাংক, মথুরাপুর শাখা","['Agrani bank, Mathurapur Branch']","Agrani Bank Mathurapur Branch, Daulatpur Upazila (Kushtia), Kushtia District, Khulna Division, Bangladesh","অগ্রণী ব্যাংক মথুরাপুর শাখা, দৌলতপুর উপজেলা কুষ্টিয়া, কুষ্টিয়া জেলা, খুলনা বিভাগ, বাংলাদেশ",দৌলতপুর উপজেলা (কুষ্টিয়া),বাংলাদেশ,খুলনা বিভাগ,local_admin,boundaries,['bank'],[],Bangladesh,Khulna,Kushtia,Daulatpur,Mathurapur,eccabc0475079d71fb4a34fc791e927a
3448195776.0,893cf095197ffff,24.0319154,88.8105077,KhasMathurapur Post office,,"KhasMathurapur Post office, Daulatpur Upazila (Kushtia), Kushtia District, Khulna Division, Bangladesh","খাশ মাথুরাপুর ডাকঘর, দৌলতপুর উপজেলা কুষ্টিয়া, কুষ্টিয়া জেলা, খুলনা বিভাগ, বাংলাদেশ",দৌলতপুর উপজেলা (কুষ্টিয়া),বাংলাদেশ,খুলনা বিভাগ,local_admin,boundaries,['post_office'],[],Bangladesh,Khulna,Kushtia,Daulatpur,Mathurapur,eccabc0475079d71fb4a34fc791e927a
6716387498.0,893cf08e483ffff,23.8800544,88.858214,,,"Daulatpur Upazila (Kushtia), Kushtia District, Khulna Division, Bangladesh","দৌলতপুর উপজেলা কুষ্টিয়া, কুষ্টিয়া জেলা, খুলনা বিভাগ, বাংলাদেশ",দৌলতপুর উপজেলা (কুষ্টিয়া),বাংলাদেশ,খুলনা বিভাগ,local_admin,boundaries,['ford'],[],Bangladesh,Khulna,Kushtia,Daulatpur,Khalishakundi,a0c111c883d31cb5b4da3507447647c2
8696303091.0,893cf08e4a3ffff,23.8782355,88.8681758,,,"Daulatpur Upazila (Kushtia), Kushtia District, Khulna Division, Bangladesh","দৌলতপুর উপজেলা কুষ্টিয়া, কুষ্টিয়া জেলা, খুলনা বিভাগ, বাংলাদেশ",দৌলতপুর উপজেলা (কুষ্টিয়া),বাংলাদেশ,খুলনা বিভাগ,local_admin,boundaries,['ford'],[],Bangladesh,Khulna,Kushtia,Daulatpur,Khalishakundi,a0c111c883d31cb5b4da3507447647c2
9705613301.0,893cf08e5d3ffff,23.8814145,88.8768442,Prantik Junior High School,,"Prantik Junior High School, Daulatpur Upazila (Kushtia), Kushtia District, Khulna Division, Bangladesh","প্রান্তিক জুনিয়র হাই স্কুল, দৌলতপুর উপজেলা কুষ্টিয়া, কুষ্টিয়া জেলা, খুলনা বিভাগ, বাংলাদেশ",দৌলতপুর উপজেলা (কুষ্টিয়া),বাংলাদেশ,খুলনা বিভাগ,local_admin,boundaries,"['educational_institution', 'school']",[],Bangladesh,Khulna,Kushtia,Daulatpur,Khalishakundi,a0c111c883d31cb5b4da3507447647c2
9705613304.0,893cf080d27ffff,23.9328414,88.8694734,Kamalpur High School,,"Kamalpur High School, Daulatpur Upazila (Kushtia), Kushtia District, Khulna Division, Bangladesh","কমলপুর উচ্চ বিদ্যালয়, দৌলতপুর উপজেলা কুষ্টিয়া, কুষ্টিয়া জেলা, খুলনা বিভাগ, বাংলাদেশ",দৌলতপুর উপজেলা (কুষ্টিয়া),বাংলাদেশ,খুলনা বিভাগ,local_admin,boundaries,"['educational_institution', 'school']",[],Bangladesh,Khulna,Kushtia,Daulatpur,Khalishakundi,a0c111c883d31cb5b4da3507447647c2
9705613305.0,893cf087067ffff,23.9538796,88.8950712,Aria United High School,,"Aria United High School, Daulatpur Upazila (Kushtia), Kushtia District, Khulna Division, Bangladesh","আরিয়া ইউনাইটেড হাই স্কুল, দৌলতপুর উপজেলা কুষ্টিয়া, কুষ্টিয়া জেলা, খুলনা বিভাগ, বাংলাদেশ",দৌলতপুর উপজেলা (কুষ্টিয়া),বাংলাদেশ,খুলনা বিভাগ,local_admin,boundaries,"['educational_institution', 'school']",[],Bangladesh,Khulna,Kushtia,Daulatpur,Aria,2e6bde99962aabd3a084363df5b5613f
9705613306.0,893cf08705bffff,23.9530439,88.8778482,Baragangdia Girls High School,,"Baragangdia Girls High School, Daulatpur Upazila (Kushtia), Kushtia District, Khulna Division, Bangladesh","বড়গংদিয়া গার্লস হাই স্কুল, দৌলতপুর উপজেলা কুষ্টিয়া, কুষ্টিয়া জেলা, খুলনা বিভাগ, বাংলাদেশ",দৌলতপুর উপজেলা (কুষ্টিয়া),বাংলাদেশ,খুলনা বিভাগ,local_admin,boundaries,"['educational_institution', 'school']",[],Bangladesh,Khulna,Kushtia,Daulatpur,Aria,2e6bde99962aabd3a084363df5b5613f
9705613310.0,893cf08709bffff,23.9679429,88.8799499,G. N. Junior High School,,"G. N. Junior High School, Daulatpur Upazila (Kushtia), Kushtia District, Khulna Division, Bangladesh","জি এন। জুনিয়র হাই স্কুল, দৌলতপুর উপজেলা কুষ্টিয়া, কুষ্টিয়া জেলা, খুলনা বিভাগ, বাংলাদেশ",দৌলতপুর উপজেলা (কুষ্টিয়া),বাংলাদেশ,খুলনা বিভাগ,local_admin,boundaries,"['educational_institution', 'school']",[],Bangladesh,Khulna,Kushtia,Daulatpur,Refayetpur,4e997cdde1ce865f8f1d2470b7d4556e
9705613311.0,893cf08744fffff,23.966694,88.8652479,B T P High School,,"B T P High School, Daulatpur Upazila (Kushtia), Kushtia District, Khulna Division, Bangladesh","বি টি পি হাই স্কুল, দৌলতপুর উপজেলা কুষ্টিয়া, কুষ্টিয়া জেলা, খুলনা বিভাগ, বাংলাদেশ",দৌলতপুর উপজেলা (কুষ্টিয়া),বাংলাদেশ,খুলনা বিভাগ,local_admin,boundaries,"['educational_institution', 'school']",[],Bangladesh,Khulna,Kushtia,Daulatpur,Refayetpur,4e997cdde1ce865f8f1d2470b7d4556e
9705732055.0,893cf082b27ffff,23.9484246,88.8530321,Boalia High School,,"Boalia High School, Daulatpur Upazila (Kushtia), Kushtia District, Khulna Division, Bangladesh","বোয়ালিয়া উচ্চ বিদ্যালয়, দৌলতপুর উপজেলা কুষ্টিয়া, কুষ্টিয়া জেলা, খুলনা বিভাগ, বাংলাদেশ",দৌলতপুর উপজেলা (কুষ্টিয়া),বাংলাদেশ,খুলনা বিভাগ,local_admin,boundaries,"['educational_institution', 'school']",[],Bangladesh,Khulna,Kushtia,Daulatpur,Boalia,0e27225ed912ce6cf16f5e9d0f983fda
9705732056.0,893cf082ba7ffff,23.9556965,88.8470364,Boalia Junior Girls High School,,"Boalia Junior Girls High School, Daulatpur Upazila (Kushtia), Kushtia District, Khulna Division, Bangladesh","বোয়ালিয়া জুনিয়র গার্লস হাই স্কুল, দৌলতপুর উপজেলা কুষ্টিয়া, কুষ্টিয়া জেলা, খুলনা বিভাগ, বাংলাদেশ",দৌলতপুর উপজেলা (কুষ্টিয়া),বাংলাদেশ,খুলনা বিভাগ,local_admin,boundaries,"['educational_institution', 'school']",[],Bangladesh,Khulna,Kushtia,Daulatpur,Boalia,0e27225ed912ce6cf16f5e9d0f983fda
9705759518.0,893cf0953cfffff,23.9955952,88.8008761,A M H Girls High School,,"A M H Girls High School, Daulatpur Upazila (Kushtia), Kushtia District, Khulna Division, Bangladesh","একটি এম এইচ গার্লস হাই স্কুল, দৌলতপুর উপজেলা কুষ্টিয়া, কুষ্টিয়া জেলা, খুলনা বিভাগ, বাংলাদেশ",দৌলতপুর উপজেলা (কুষ্টিয়া),বাংলাদেশ,খুলনা বিভাগ,local_admin,boundaries,"['educational_institution', 'school']",[],Bangladesh,Khulna,Kushtia,Daulatpur,Adabaria,3db386410b5734f285dc70d78b5269eb
9705759519.0,893cf095e0fffff,24.0050513,88.8350853,Daulat Khali High School,,"Daulat Khali High School, Daulatpur Upazila (Kushtia), Kushtia District, Khulna Division, Bangladesh","দৌলত খালি উচ্চ বিদ্যালয়, দৌলতপুর উপজেলা কুষ্টিয়া, কুষ্টিয়া জেলা, খুলনা বিভাগ, বাংলাদেশ",দৌলতপুর উপজেলা (কুষ্টিয়া),বাংলাদেশ,খুলনা বিভাগ,local_admin,boundaries,"['educational_institution', 'school']",[],Bangladesh,Khulna,Kushtia,Daulatpur,Daulatpur,24bee97fa37aabff73c1a93a5d04dfb6
9705759520.0,893cf0958cfffff,24.0115499,88.8497711,Chak Daulatpur High School,,"Chak Daulatpur High School, Daulatpur Upazila (Kushtia), Kushtia District, Khulna Division, Bangladesh","চক দৌলতপুর উচ্চ বিদ্যালয়, দৌলতপুর উপজেলা কুষ্টিয়া, কুষ্টিয়া জেলা, খুলনা বিভাগ, বাংলাদেশ",দৌলতপুর উপজেলা (কুষ্টিয়া),বাংলাদেশ,খুলনা বিভাগ,local_admin,boundaries,"['educational_institution', 'school']",[],Bangladesh,Khulna,Kushtia,Daulatpur,Daulatpur,24bee97fa37aabff73c1a93a5d04dfb6
9705759521.0,893cf095147ffff,24.0138404,88.8139622,D.G.M. High School,,"D.G.M. High School, Daulatpur Upazila (Kushtia), Kushtia District, Khulna Division, Bangladesh","D.g.m.উচ্চ বিদ্যালয, দৌলতপুর উপজেলা কুষ্টিয়া, কুষ্টিয়া জেলা, খুলনা বিভাগ, বাংলাদেশ",দৌলতপুর উপজেলা (কুষ্টিয়া),বাংলাদেশ,খুলনা বিভাগ,local_admin,boundaries,"['educational_institution', 'school']",[],Bangladesh,Khulna,Kushtia,Daulatpur,Daulatpur,24bee97fa37aabff73c1a93a5d04dfb6
9705759522.0,893cf0951c3ffff,24.0202881,88.8060309,M.G. Secondary Girls School,,"M.G. Secondary Girls School, Daulatpur Upazila (Kushtia), Kushtia District, Khulna Division, Bangladesh","এম.জি.মাধ্যমিক গার্লস স্কুল, দৌলতপুর উপজেলা কুষ্টিয়া, কুষ্টিয়া জেলা, খুলনা বিভাগ, বাংলাদেশ",দৌলতপুর উপজেলা (কুষ্টিয়া),বাংলাদেশ,খুলনা বিভাগ,local_admin,boundaries,['educational_institution'],[],Bangladesh,Khulna,Kushtia,Daulatpur,Mathurapur,eccabc0475079d71fb4a34fc791e927a
337766898.0,893cf095197ffff,24.03237964,88.81054459,Mathurapur Secondary school field.,,"Mathurapur Secondary school field., Daulatpur Upazila (Kushtia), Kushtia District, Khulna Division, Bangladesh","মাথুরাপুর মাধ্যমিক বিদ্যালয়ের ক্ষেত্র।, দৌলতপুর উপজেলা কুষ্টিয়া, কুষ্টিয়া জেলা, খুলনা বিভাগ, বাংলাদেশ",দৌলতপুর উপজেলা (কুষ্টিয়া),বাংলাদেশ,খুলনা বিভাগ,local_admin,boundaries,['playground'],[],Bangladesh,Khulna,Kushtia,Daulatpur,Mathurapur,eccabc0475079d71fb4a34fc791e927a
337772698.0,893cf095193ffff,24.03103588,88.80655292,College Field,,"College Field, Daulatpur Upazila (Kushtia), Kushtia District, Khulna Division, Bangladesh","কলেজ মাঠ, দৌলতপুর উপজেলা কুষ্টিয়া, কুষ্টিয়া জেলা, খুলনা বিভাগ, বাংলাদেশ",দৌলতপুর উপজেলা (কুষ্টিয়া),বাংলাদেশ,খুলনা বিভাগ,local_admin,boundaries,['playground'],[],Bangladesh,Khulna,Kushtia,Daulatpur,Mathurapur,eccabc0475079d71fb4a34fc791e927a
918558419.0,893cf096a57ffff,24.09045982,88.85299652,,,"Daulatpur Upazila (Kushtia), Kushtia District, Khulna Division, Bangladesh","দৌলতপুর উপজেলা কুষ্টিয়া, কুষ্টিয়া জেলা, খুলনা বিভাগ, বাংলাদেশ",দৌলতপুর উপজেলা (কুষ্টিয়া),বাংলাদেশ,খুলনা বিভাগ,local_admin,boundaries,['island'],[],Bangladesh,Khulna,Kushtia,Daulatpur,Maricha,ba982317f80bb5adb375a097e64e583f
9137640330.0,893cf095bbbffff,24.0033281,88.8765104,দৌলতপুর,"['দৌলতপুর', 'Doulatpur']","Daulatpur, Doulatpur, Daulatpur Upazila (Kushtia), Kushtia District, Khulna Division, Bangladesh","দৌলতপুর, দৌলতপুর উপজেলা কুষ্টিয়া, কুষ্টিয়া জেলা, খুলনা বিভাগ, বাংলাদেশ",দৌলতপুর উপজেলা (কুষ্টিয়া),বাংলাদেশ,খুলনা বিভাগ,locality,,,,Bangladesh,Khulna,Kushtia,Daulatpur,Daulatpur,24bee97fa37aabff73c1a93a5d04dfb6
2368363618.0,893cf0a36c3ffff,23.895771,89.1520862,লালন শাহ্‌ মাজার,['Lalon Shah Mazar'],"Lalon Shah Mazar, Kushtia District, Khulna Division, Bangladesh","লালন শাহ্‌ মাজার, কুষ্টিয়া জেলা, খুলনা বিভাগ, বাংলাদেশ",,বাংলাদেশ,খুলনা বিভাগ,admin2,boundaries,['memorial'],[],Bangladesh,Khulna,Kushtia,KushtiaSadar,KushtiaPaurashava,db4eecef193f5cb72db508bb4da7ea78
2571478484.0,893cf0ba837ffff,23.9070671,89.1282874,কুষ্টিয়া কোর্ট স্টেশন,"['কুষ্টিয়া আদালত স্টেশন', 'Kushtia Court Station']","Kushtia Court Station, Kushtia District, Khulna Division, Bangladesh","কুষ্টিয়া কোর্ট স্টেশন, কুষ্টিয়া জেলা, খুলনা বিভাগ, বাংলাদেশ",,বাংলাদেশ,খুলনা বিভাগ,admin2,boundaries,['railway_station'],[],Bangladesh,Khulna,Kushtia,KushtiaSadar,KushtiaPaurashava,db4eecef193f5cb72db508bb4da7ea78
2571478485.0,893cf0ba963ffff,23.9024718,89.1455608,কুষ্টিয়া,['Kushtia'],"Kushtia, Kushtia District, Khulna Division, Bangladesh","কুষ্টিয়া, কুষ্টিয়া জেলা, খুলনা বিভাগ, বাংলাদেশ",,বাংলাদেশ,খুলনা বিভাগ,admin2,boundaries,['railway_station'],[],Bangladesh,Khulna,Kushtia,KushtiaSadar,KushtiaPaurashava,db4eecef193f5cb72db508bb4da7ea78
3355384830.0,893cf0ba9c3ffff,23.9113099,89.1314736,Thanapara Temple,,"Thanapara Temple, Kushtia District, Khulna Division, Bangladesh","থানাপারা মন্দির, কুষ্টিয়া জেলা, খুলনা বিভাগ, বাংলাদেশ",,বাংলাদেশ,খুলনা বিভাগ,admin2,boundaries,['place_of_worship'],[],Bangladesh,Khulna,Kushtia,KushtiaSadar,KushtiaPaurashava,db4eecef193f5cb72db508bb4da7ea78
3355385227.0,893cf0ba9dbffff,23.911214,89.1285566,Thanapara Mosque,,"Thanapara Mosque, Kushtia District, Khulna Division, Bangladesh","থানাপারা মসজিদ, কুষ্টিয়া জেলা, খুলনা বিভাগ, বাংলাদেশ",,বাংলাদেশ,খুলনা বিভাগ,admin2,boundaries,['place_of_worship_muslim'],[],Bangladesh,Khulna,Kushtia,KushtiaSadar,KushtiaPaurashava,db4eecef193f5cb72db508bb4da7ea78
4748457569.0,893cf0ba8abffff,23.9080164,89.1223523,Hotel Ratul,,"Hotel Ratul, Kushtia District, Khulna Division, Bangladesh","হোটেল রতুল, কুষ্টিয়া জেলা, খুলনা বিভাগ, বাংলাদেশ",,বাংলাদেশ,খুলনা বিভাগ,admin2,boundaries,['hotel'],[],Bangladesh,Khulna,Kushtia,KushtiaSadar,KushtiaPaurashava,db4eecef193f5cb72db508bb4da7ea78
4748457576.0,893cf0ba8a3ffff,23.9112884,89.122328,Kushtia Municipality Museum,,"Kushtia Municipality Museum, Kushtia District, Khulna Division, Bangladesh","কুশিয়া পৌরসভা যাদুঘর, কুষ্টিয়া জেলা, খুলনা বিভাগ, বাংলাদেশ",,বাংলাদেশ,খুলনা বিভাগ,admin2,boundaries,['museum'],[],Bangladesh,Khulna,Kushtia,KushtiaSadar,KushtiaPaurashava,db4eecef193f5cb72db508bb4da7ea78
4748457618.0,893cf0ba9cbffff,23.9077276,89.1311098,Moubon Masala,,"Moubon Masala, Kushtia District, Khulna Division, Bangladesh","মাউবন মশালা, কুষ্টিয়া জেলা, খুলনা বিভাগ, বাংলাদেশ",,বাংলাদেশ,খুলনা বিভাগ,admin2,boundaries,['restaurant'],[],Bangladesh,Khulna,Kushtia,KushtiaSadar,KushtiaPaurashava,db4eecef193f5cb72db508bb4da7ea78
4748457619.0,893cf0ba957ffff,23.9059449,89.1359586,Shishir Bakery,,"Shishir Bakery, Kushtia District, Khulna Division, Bangladesh","শিশির বেকারি, কুষ্টিয়া জেলা, খুলনা বিভাগ, বাংলাদেশ",,বাংলাদেশ,খুলনা বিভাগ,admin2,boundaries,['restaurant'],[],Bangladesh,Khulna,Kushtia,KushtiaSadar,KushtiaPaurashava,db4eecef193f5cb72db508bb4da7ea78
4748457620.0,893cf0ba947ffff,23.9042535,89.139922,Asok Dodhi Vandar,,"Asok Dodhi Vandar, Kushtia District, Khulna Division, Bangladesh","আসোক দোধি ভান্ডার, কুষ্টিয়া জেলা, খুলনা বিভাগ, বাংলাদেশ",,বাংলাদেশ,খুলনা বিভাগ,admin2,boundaries,['restaurant'],[],Bangladesh,Khulna,Kushtia,KushtiaSadar,KushtiaPaurashava,db4eecef193f5cb72db508bb4da7ea78
4748459021.0,893cf0ba947ffff,23.9036791,89.1412478,Jagadish Mishtanno Vandar,,"Jagadish Mishtanno Vandar, Kushtia District, Khulna Division, Bangladesh","জগদীশ মিশনো ভান্দার, কুষ্টিয়া জেলা, খুলনা বিভাগ, বাংলাদেশ",,বাংলাদেশ,খুলনা বিভাগ,admin2,boundaries,['restaurant'],[],Bangladesh,Khulna,Kushtia,KushtiaSadar,KushtiaPaurashava,db4eecef193f5cb72db508bb4da7ea78
4748459026.0,893cf0ba947ffff,23.9039729,89.1410935,Gandhi Hotel,,"Gandhi Hotel, Kushtia District, Khulna Division, Bangladesh","গান্ধী হোটেল, কুষ্টিয়া জেলা, খুলনা বিভাগ, বাংলাদেশ",,বাংলাদেশ,খুলনা বিভাগ,admin2,boundaries,['restaurant'],[],Bangladesh,Khulna,Kushtia,KushtiaSadar,KushtiaPaurashava,db4eecef193f5cb72db508bb4da7ea78
4748459027.0,893cf0ba947ffff,23.9039329,89.1412899,Boro Bazar,,"Boro Bazar, Kushtia District, Khulna Division, Bangladesh","বোরো বাজার, কুষ্টিয়া জেলা, খুলনা বিভাগ, বাংলাদেশ",,বাংলাদেশ,খুলনা বিভাগ,admin2,boundaries,['marketplace'],[],Bangladesh,Khulna,Kushtia,KushtiaSadar,KushtiaPaurashava,db4eecef193f5cb72db508bb4da7ea78
4748459038.0,893cf0a365bffff,23.8875821,89.1525665,Dobir Mollar Gate Bus Stop,,"Dobir Mollar Gate Bus Stop, Kushtia District, Khulna Division, Bangladesh","ডোবির মোলার গেট বাস স্টপ, কুষ্টিয়া জেলা, খুলনা বিভাগ, বাংলাদেশ",,বাংলাদেশ,খুলনা বিভাগ,street,boundaries,['bus_stop'],[],Bangladesh,Khulna,Kushtia,KushtiaSadar,Mazampur,494137e50a370e9891ec77d90cc6d802
4748459039.0,893cf0bab23ffff,23.8883747,89.1469314,Lahini Bot Tola Bus Stop,,"Lahini Bot Tola Bus Stop, Kushtia District, Khulna Division, Bangladesh","লাহিনী বট টোলা বাস স্টপ, কুষ্টিয়া জেলা, খুলনা বিভাগ, বাংলাদেশ",,বাংলাদেশ,খুলনা বিভাগ,street,boundaries,['bus_stop'],[],Bangladesh,Khulna,Kushtia,KushtiaSadar,KushtiaPaurashava,db4eecef193f5cb72db508bb4da7ea78
4748459041.0,893cf0a32c7ffff,23.883063,89.1720191,Mir Mosharraf Hossain Museum & Library,,"Mir Mosharraf Hossain Museum & Library, Kumarkhali Upazila, Kushtia District, Khulna Division, Bangladesh","মীর মোশারফ হোসেন যাদুঘর ও গ্রন্থাগার, কুমারখালী উপজেলা, কুষ্টিয়া জেলা, খুলনা বিভাগ, বাংলাদেশ",কুমারখালী উপজেলা,বাংলাদেশ,খুলনা বিভাগ,local_admin,boundaries,['museum'],[],Bangladesh,Khulna,Kushtia,Kumarkhali,Chapra,99d1262c9e00d6d9a2750134d5463f66
4748459130.0,893cf0baab7ffff,23.8909973,89.1167997,Kushtia Central Bus Terminal,,"Kushtia Central Bus Terminal, Kushtia District, Khulna Division, Bangladesh","কুশিয়া সেন্ট্রাল বাস টার্মিনাল, কুষ্টিয়া জেলা, খুলনা বিভাগ, বাংলাদেশ",,বাংলাদেশ,খুলনা বিভাগ,admin2,boundaries,['bus_station'],[],Bangladesh,Khulna,Kushtia,KushtiaSadar,KushtiaPaurashava,db4eecef193f5cb72db508bb4da7ea78
4748459131.0,893cf0baa87ffff,23.8906382,89.1101436,Chourhash Mor Bus Stop,,"Chourhash Mor Bus Stop, Kushtia District, Khulna Division, Bangladesh","চৌরহাশ মুর বাস স্টপ, কুষ্টিয়া জেলা, খুলনা বিভাগ, বাংলাদেশ",,বাংলাদেশ,খুলনা বিভাগ,street,boundaries,['bus_stop'],[],Bangladesh,Khulna,Kushtia,KushtiaSadar,KushtiaPaurashava,db4eecef193f5cb72db508bb4da7ea78
4853090722.0,893cf0ba8afffff,23.9097644,89.1243998,,['Hotel River View'],"Kushtia District, Khulna Division, Bangladesh","কুষ্টিয়া জেলা, খুলনা বিভাগ, বাংলাদেশ",,বাংলাদেশ,খুলনা বিভাগ,admin2,boundaries,['hotel'],[],Bangladesh,Khulna,Kushtia,KushtiaSadar,KushtiaPaurashava,db4eecef193f5cb72db508bb4da7ea78
4853090921.0,893cf0ba8abffff,23.9079872,89.1225112,,['Hotel Gold Star (Residential)'],"Kushtia District, Khulna Division, Bangladesh","কুষ্টিয়া জেলা, খুলনা বিভাগ, বাংলাদেশ",,বাংলাদেশ,খুলনা বিভাগ,admin2,boundaries,['hotel'],[],Bangladesh,Khulna,Kushtia,KushtiaSadar,KushtiaPaurashava,db4eecef193f5cb72db508bb4da7ea78
5162386410.0,893cf0ba883ffff,23.913031,89.1123306,"Baitul Aman Jam-E Mosjid, Mongolbaria Bazar, Kushtia",,"Baitul Aman Jam-E Mosjid Mongolbaria Bazar Kushtia, Kushtia District, Khulna Division, Bangladesh","বেতুল আমান জাম-ই মোসজিড মঙ্গোলবারিয়া বাজার কুশটিয়া, কুষ্টিয়া জেলা, খুলনা বিভাগ, বাংলাদেশ",,বাংলাদেশ,খুলনা বিভাগ,admin2,boundaries,['place_of_worship_muslim'],[],Bangladesh,Khulna,Kushtia,KushtiaSadar,Barakhada,eefe64196817e90fc9ce89a82c962fc6
5162400378.0,893cf0bac3bffff,23.9192168,89.1042201,Jugia Palpara Jame Mosque And Lal Mohammad Hafijia Madrasa,,"Jugia Palpara Jame Mosque And Lal Mohammad Hafijia Madrasa, Kushtia District, Khulna Division, Bangladesh","জুগিয়া পালপারা জামে মসজিদ এবং লাল মোহাম্মদ হাফিজিয়া মাদ্রাস, কুষ্টিয়া জেলা, খুলনা বিভাগ, বাংলাদেশ",,বাংলাদেশ,খুলনা বিভাগ,admin2,boundaries,['place_of_worship_muslim'],[],Bangladesh,Khulna,Kushtia,KushtiaSadar,Barakhada,eefe64196817e90fc9ce89a82c962fc6
5162402980.0,893cf0ba893ffff,23.9153276,89.109716,Mama Tea Stal,,"Mama Tea Stal, Kushtia District, Khulna Division, Bangladesh","মামা চা স্টল, কুষ্টিয়া জেলা, খুলনা বিভাগ, বাংলাদেশ",,বাংলাদেশ,খুলনা বিভাগ,admin2,boundaries,['tea'],[],Bangladesh,Khulna,Kushtia,KushtiaSadar,Barakhada,eefe64196817e90fc9ce89a82c962fc6
5162403495.0,893cf0ba883ffff,23.9131393,89.1123814,Mongol Baria Bazar,,"Mongol Baria Bazar, Kushtia District, Khulna Division, Bangladesh","মঙ্গোল বারিয়া বাজার, কুষ্টিয়া জেলা, খুলনা বিভাগ, বাংলাদেশ",,বাংলাদেশ,খুলনা বিভাগ,admin2,boundaries,['marketplace'],[],Bangladesh,Khulna,Kushtia,KushtiaSadar,Barakhada,eefe64196817e90fc9ce89a82c962fc6
5162404754.0,893cf0ba897ffff,23.9133996,89.1129275,Pharmacy,,"Pharmacy, Kushtia District, Khulna Division, Bangladesh","ফার্মাসি, কুষ্টিয়া জেলা, খুলনা বিভাগ, বাংলাদেশ",,বাংলাদেশ,খুলনা বিভাগ,admin2,boundaries,['pharmacy'],[],Bangladesh,Khulna,Kushtia,KushtiaSadar,Barakhada,eefe64196817e90fc9ce89a82c962fc6
5162406549.0,893cf0ba883ffff,23.9112674,89.1148234,Khuchu Store,,"Khuchu Store, Kushtia District, Khulna Division, Bangladesh","খুচু স্টোর, কুষ্টিয়া জেলা, খুলনা বিভাগ, বাংলাদেশ",,বাংলাদেশ,খুলনা বিভাগ,admin2,boundaries,['marketplace'],[],Bangladesh,Khulna,Kushtia,KushtiaSadar,Barakhada,eefe64196817e90fc9ce89a82c962fc6
5162406811.0,893cf0ba883ffff,23.9113971,89.1146611,Shirazul Islam সিরাজুল ইসলাম,,"Shirazul Islam, Kushtia District, Khulna Division, Bangladesh","সিরাজুল ইসলাম, কুষ্টিয়া জেলা, খুলনা বিভাগ, বাংলাদেশ",,বাংলাদেশ,খুলনা বিভাগ,admin2,boundaries,['pharmacy'],[],Bangladesh,Khulna,Kushtia,KushtiaSadar,Barakhada,eefe64196817e90fc9ce89a82c962fc6
5162407496.0,893cf0ba88fffff,23.9102548,89.1171384,Police Line Post Office পুলিশ লাইন পোস্ট অফিস,,"Police Line Post Office, Kushtia District, Khulna Division, Bangladesh","পুলিশ লাইন পোস্ট অফিস, কুষ্টিয়া জেলা, খুলনা বিভাগ, বাংলাদেশ",,বাংলাদেশ,খুলনা বিভাগ,admin2,boundaries,['post_office'],[],Bangladesh,Khulna,Kushtia,KushtiaSadar,KushtiaPaurashava,db4eecef193f5cb72db508bb4da7ea78
5162414521.0,893cf0ba8bbffff,23.9087545,89.1195375,BRTC বিআরটিসি বিআরটিসি বিআরটিসি,,"BRTC, Kushtia District, Khulna Division, Bangladesh","বিআরটিসি বিআরটিসি বিআরটিসি, কুষ্টিয়া জেলা, খুলনা বিভাগ, বাংলাদেশ",,বাংলাদেশ,খুলনা বিভাগ,street,boundaries,['bus_stop'],[],Bangladesh,Khulna,Kushtia,KushtiaSadar,KushtiaPaurashava,db4eecef193f5cb72db508bb4da7ea78
5162466729.0,893cf0ba80fffff,23.9035223,89.1193534,Islamic University Bus Stoppage ইসলামী বিশ্ববিদ্যালয় বাস স্টপেজ,,"Islamic University Bus Stoppage, Kushtia District, Khulna Division, Bangladesh","ইসলামী বিশ্ববিদ্যালয় বাস স্টপেজ, কুষ্টিয়া জেলা, খুলনা বিভাগ, বাংলাদেশ",,বাংলাদেশ,খুলনা বিভাগ,street,boundaries,['bus_stop'],[],Bangladesh,Khulna,Kushtia,KushtiaSadar,KushtiaPaurashava,db4eecef193f5cb72db508bb4da7ea78
5162481117.0,893cf0ba8abffff,23.9083674,89.1220057,Jahangir Restaurant জাহাঙ্গির রেস্টুরেন্ট,,"Jahangir Restaurant, Kushtia District, Khulna Division, Bangladesh","জাহাঙ্গির রেস্টুরেন্ট, কুষ্টিয়া জেলা, খুলনা বিভাগ, বাংলাদেশ",,বাংলাদেশ,খুলনা বিভাগ,admin2,boundaries,['restaurant'],[],Bangladesh,Khulna,Kushtia,KushtiaSadar,KushtiaPaurashava,db4eecef193f5cb72db508bb4da7ea78
5162486740.0,893cf0ba8abffff,23.9076409,89.1215983,Bismilla Hotel & Restaurant বিসমিল্লাহ হোটেল এবং রেস্টুরেন্ট,,"Bismilla Hotel & Restaurant, Kushtia District, Khulna Division, Bangladesh","বিসমিল্লাহ হোটেল এবং রেস্টুরেন্ট, কুষ্টিয়া জেলা, খুলনা বিভাগ, বাংলাদেশ",,বাংলাদেশ,খুলনা বিভাগ,admin2,boundaries,['restaurant'],[],Bangladesh,Khulna,Kushtia,KushtiaSadar,KushtiaPaurashava,db4eecef193f5cb72db508bb4da7ea78
5162486881.0,893cf0ba8abffff,23.9079119,89.1217715,বাগাট রেস্টুরেন্ট,,"Bagat Restaurant, Kushtia District, Khulna Division, Bangladesh","বাগাট রেস্টুরেন্ট, কুষ্টিয়া জেলা, খুলনা বিভাগ, বাংলাদেশ",,বাংলাদেশ,খুলনা বিভাগ,admin2,boundaries,['restaurant'],[],Bangladesh,Khulna,Kushtia,KushtiaSadar,KushtiaPaurashava,db4eecef193f5cb72db508bb4da7ea78
5162487980.0,893cf0ba8abffff,23.9073528,89.1214709,Shilpi Hotel শিল্পী হোটেল,,"Shilpi Hotel, Kushtia District, Khulna Division, Bangladesh","শিল্পী হোটেল, কুষ্টিয়া জেলা, খুলনা বিভাগ, বাংলাদেশ",,বাংলাদেশ,খুলনা বিভাগ,admin2,boundaries,['restaurant'],[],Bangladesh,Khulna,Kushtia,KushtiaSadar,KushtiaPaurashava,db4eecef193f5cb72db508bb4da7ea78
5162487996.0,893cf0ba807ffff,23.9065919,89.1209898,Jhawtola bus stand,,"Jhawtola bus stand, Kushtia District, Khulna Division, Bangladesh","ঝাওতোলা বাস স্ট্যান্ড, কুষ্টিয়া জেলা, খুলনা বিভাগ, বাংলাদেশ",,বাংলাদেশ,খুলনা বিভাগ,street,boundaries,['bus_stop'],[],Bangladesh,Khulna,Kushtia,KushtiaSadar,KushtiaPaurashava,db4eecef193f5cb72db508bb4da7ea78
5162489766.0,893cf0ba807ffff,23.906284,89.1209039,Shuruj Tea Stall,,"Shuruj Tea Stall, Kushtia District, Khulna Division, Bangladesh","শুরুজ চা স্টল, কুষ্টিয়া জেলা, খুলনা বিভাগ, বাংলাদেশ",,বাংলাদেশ,খুলনা বিভাগ,admin2,boundaries,['tea'],[],Bangladesh,Khulna,Kushtia,KushtiaSadar,KushtiaPaurashava,db4eecef193f5cb72db508bb4da7ea78
5162491216.0,893cf0ba807ffff,23.9058039,89.1206115,CNG Autorickshaw Stand,,"CNG Autorickshaw Stand, Kushtia District, Khulna Division, Bangladesh","সিএনজি অটোরিকশা স্ট্যান্ড, কুষ্টিয়া জেলা, খুলনা বিভাগ, বাংলাদেশ",,বাংলাদেশ,খুলনা বিভাগ,street,boundaries,['bus_stop'],[],Bangladesh,Khulna,Kushtia,KushtiaSadar,KushtiaPaurashava,db4eecef193f5cb72db508bb4da7ea78
5162491815.0,893cf0ba807ffff,23.9051842,89.1200172,Mouchak Food Corner মৌচাক ফুড কর্নার,,"Mouchak Food Corner, Kushtia District, Khulna Division, Bangladesh","মৌচাক ফুড কর্নার, কুষ্টিয়া জেলা, খুলনা বিভাগ, বাংলাদেশ",,বাংলাদেশ,খুলনা বিভাগ,admin2,boundaries,['restaurant'],[],Bangladesh,Khulna,Kushtia,KushtiaSadar,KushtiaPaurashava,db4eecef193f5cb72db508bb4da7ea78
5162495670.0,893cf0ba807ffff,23.9042177,89.1194807,Maya Pharmacy মায়া ফার্মেসি,,"Maya Pharmacy, Kushtia District, Khulna Division, Bangladesh","মায়া ফার্মেসি, কুষ্টিয়া জেলা, খুলনা বিভাগ, বাংলাদেশ",,বাংলাদেশ,খুলনা বিভাগ,admin2,boundaries,['pharmacy'],[],Bangladesh,Khulna,Kushtia,KushtiaSadar,KushtiaPaurashava,db4eecef193f5cb72db508bb4da7ea78
5162507334.0,893cf0ba80fffff,23.9014128,89.120157,সোনালী ব্যাংক লিমিটেড,['Sonali Bank Limited'],"Sonali Bank Limited, Kushtia District, Khulna Division, Bangladesh","সোনালী ব্যাংক লিমিটেড, কুষ্টিয়া জেলা, খুলনা বিভাগ, বাংলাদেশ",,বাংলাদেশ,খুলনা বিভাগ,admin2,boundaries,['bank'],[],Bangladesh,Khulna,Kushtia,KushtiaSadar,KushtiaPaurashava,db4eecef193f5cb72db508bb4da7ea78
5162507335.0,893cf0ba80fffff,23.9012579,89.1201293,জনতা ব্যাংক লিমিটেড,['Janata Bank Limited'],"Janata Bank Limited, Kushtia District, Khulna Division, Bangladesh","জনতা ব্যাংক লিমিটেড, কুষ্টিয়া জেলা, খুলনা বিভাগ, বাংলাদেশ",,বাংলাদেশ,খুলনা বিভাগ,admin2,boundaries,['bank'],[],Bangladesh,Khulna,Kushtia,KushtiaSadar,KushtiaPaurashava,db4eecef193f5cb72db508bb4da7ea78
5162509213.0,893cf0ba80fffff,23.9017644,89.118209,Ostad-Vi Market,,"Ostad-Vi Market, Kushtia District, Khulna Division, Bangladesh","অস্টাদ-ভি মার্কেট, কুষ্টিয়া জেলা, খুলনা বিভাগ, বাংলাদেশ",,বাংলাদেশ,খুলনা বিভাগ,admin2,boundaries,['marketplace'],[],Bangladesh,Khulna,Kushtia,KushtiaSadar,KushtiaPaurashava,db4eecef193f5cb72db508bb4da7ea78
5162513819.0,893cf0ba80bffff,23.9001351,89.117065,Bhai Bhai Torkari Pharmacy,,"Bhai Bhai Torkari Pharmacy, Kushtia District, Khulna Division, Bangladesh","ভাই ভাই টোরকারি ফার্মাসি, কুষ্টিয়া জেলা, খুলনা বিভাগ, বাংলাদেশ",,বাংলাদেশ,খুলনা বিভাগ,admin2,boundaries,['pharmacy'],[],Bangladesh,Khulna,Kushtia,KushtiaSadar,KushtiaPaurashava,db4eecef193f5cb72db508bb4da7ea78
5162517702.0,893cf0ba847ffff,23.8971271,89.1152532,কাস্টম মোড়,,"Custom, Kushtia District, Khulna Division, Bangladesh","কাস্টম মোড়, কুষ্টিয়া জেলা, খুলনা বিভাগ, বাংলাদেশ",,বাংলাদেশ,খুলনা বিভাগ,street,boundaries,['bus_stop'],[],Bangladesh,Khulna,Kushtia,KushtiaSadar,KushtiaPaurashava,db4eecef193f5cb72db508bb4da7ea78
5162518555.0,893cf0ba80bffff,23.9000897,89.1173828,উপজেলা মোড়,,"Upazila turn, Kushtia District, Khulna Division, Bangladesh","উপজেলা মোড়, কুষ্টিয়া জেলা, খুলনা বিভাগ, বাংলাদেশ",,বাংলাদেশ,খুলনা বিভাগ,street,boundaries,['bus_stop'],[],Bangladesh,Khulna,Kushtia,KushtiaSadar,KushtiaPaurashava,db4eecef193f5cb72db508bb4da7ea78
5162519469.0,893cf0ba80bffff,23.9000958,89.1176858,যমুনা ব্যাংক লিমিটেড এটিএম,['Jamuna Bank Limited ATM'],"Jamuna Bank Limited ATM, Kushtia District, Khulna Division, Bangladesh","যমুনা ব্যাংক লিমিটেড এটিএম, কুষ্টিয়া জেলা, খুলনা বিভাগ, বাংলাদেশ",,বাংলাদেশ,খুলনা বিভাগ,admin2,boundaries,['bank'],[],Bangladesh,Khulna,Kushtia,KushtiaSadar,KushtiaPaurashava,db4eecef193f5cb72db508bb4da7ea78
5162519579.0,893cf0ba80bffff,23.8997014,89.1172925,Badshahi Restora বাদশা রেস্তোঁরা,,"Badshahi Restora, Kushtia District, Khulna Division, Bangladesh","বাদশা রেস্তোঁরা, কুষ্টিয়া জেলা, খুলনা বিভাগ, বাংলাদেশ",,বাংলাদেশ,খুলনা বিভাগ,admin2,boundaries,['restaurant'],[],Bangladesh,Khulna,Kushtia,KushtiaSadar,KushtiaPaurashava,db4eecef193f5cb72db508bb4da7ea78
5162520372.0,893cf0ba80bffff,23.8997845,89.1175142,স্ট্যান্ডার্ড ব্যাংক এটিএম,['Standerd Bank ATM'],"Standard Bank ATM, Kushtia District, Khulna Division, Bangladesh","স্ট্যান্ডার্ড ব্যাংক এটিএম, কুষ্টিয়া জেলা, খুলনা বিভাগ, বাংলাদেশ",,বাংলাদেশ,খুলনা বিভাগ,admin2,boundaries,['bank'],[],Bangladesh,Khulna,Kushtia,KushtiaSadar,KushtiaPaurashava,db4eecef193f5cb72db508bb4da7ea78
5162525411.0,893cf0baa87ffff,23.8904209,89.1103587,Lemon Tea and Shorbat House আরিফের চা দোকান,,"Lemon Tea and Shorbat House, Kushtia District, Khulna Division, Bangladesh","আরিফের চা দোকান, কুষ্টিয়া জেলা, খুলনা বিভাগ, বাংলাদেশ",,বাংলাদেশ,খুলনা বিভাগ,admin2,boundaries,['tea'],[],Bangladesh,Khulna,Kushtia,KushtiaSadar,KushtiaPaurashava,db4eecef193f5cb72db508bb4da7ea78
5162531772.0,893cf0ba84fffff,23.8954086,89.1137472,Lal store,,"Lal store, Kushtia District, Khulna Division, Bangladesh","লাল স্টোর, কুষ্টিয়া জেলা, খুলনা বিভাগ, বাংলাদেশ",,বাংলাদেশ,খুলনা বিভাগ,admin2,boundaries,['bakery'],[],Bangladesh,Khulna,Kushtia,KushtiaSadar,KushtiaPaurashava,db4eecef193f5cb72db508bb4da7ea78
5162533802.0,893cf0ba84fffff,23.8958042,89.1139639,Nurany Bakery নুরানী বেকারী,,"Nurany Bakery, Kushtia District, Khulna Division, Bangladesh","নুরানী বেকারী, কুষ্টিয়া জেলা, খুলনা বিভাগ, বাংলাদেশ",,বাংলাদেশ,খুলনা বিভাগ,admin2,boundaries,['restaurant'],[],Bangladesh,Khulna,Kushtia,KushtiaSadar,KushtiaPaurashava,db4eecef193f5cb72db508bb4da7ea78
5162537140.0,893cf0ba84bffff,23.8922758,89.1109431,চৌড়হাস কাচা বাজার,,"Charuthus raw market, Kushtia District, Khulna Division, Bangladesh","চৌড়হাস কাচা বাজার, কুষ্টিয়া জেলা, খুলনা বিভাগ, বাংলাদেশ",,বাংলাদেশ,খুলনা বিভাগ,admin2,boundaries,['marketplace'],[],Bangladesh,Khulna,Kushtia,KushtiaSadar,KushtiaPaurashava,db4eecef193f5cb72db508bb4da7ea78
5162539613.0,893cf0baa87ffff,23.8917019,89.1105428,Jahangir Super Market জাহাঙ্গীর সুপার মার্কেট,,"Jahangir Super Market, Kushtia District, Khulna Division, Bangladesh","জাহাঙ্গীর সুপার মার্কেট, কুষ্টিয়া জেলা, খুলনা বিভাগ, বাংলাদেশ",,বাংলাদেশ,খুলনা বিভাগ,admin2,boundaries,['supermarket'],[],Bangladesh,Khulna,Kushtia,KushtiaSadar,KushtiaPaurashava,db4eecef193f5cb72db508bb4da7ea78
5162636390.0,893cf0baa8fffff,23.8879341,89.1096122,Chourhash Graveyard Mosque,,"Chourhash Graveyard Mosque, Kushtia District, Khulna Division, Bangladesh","সরহাশ কবরস্থান মসজিদ, কুষ্টিয়া জেলা, খুলনা বিভাগ, বাংলাদেশ",,বাংলাদেশ,খুলনা বিভাগ,admin2,boundaries,['place_of_worship_muslim'],[],Bangladesh,Khulna,Kushtia,KushtiaSadar,KushtiaPaurashava,db4eecef193f5cb72db508bb4da7ea78
5162636885.0,893cf0baa8bffff,23.8852684,89.1046701,Ataul Haque Super Market আতাউল হক সুপার মার্কেট,,"Ataul Haque Super Market, Kushtia District, Khulna Division, Bangladesh","আতাউল হক সুপার মার্কেট, কুষ্টিয়া জেলা, খুলনা বিভাগ, বাংলাদেশ",,বাংলাদেশ,খুলনা বিভাগ,admin2,boundaries,['marketplace'],[],Bangladesh,Khulna,Kushtia,KushtiaSadar,Jagati,484298c1ba0ee1e3f32aea73afcc234b
5162796681.0,893cf0b9dd3ffff,23.823853,89.1051346,Alampur Bazar,,"Alampur Bazar, Kushtia District, Khulna Division, Bangladesh","আলামপুর বাজার, কুষ্টিয়া জেলা, খুলনা বিভাগ, বাংলাদেশ",,বাংলাদেশ,খুলনা বিভাগ,admin2,boundaries,['marketplace'],[],Bangladesh,Khulna,Kushtia,KushtiaSadar,Alampur,b15fb2cb6a09b3085a2bccb544b4cda4
5162806968.0,893cf0b987bffff,23.7923782,89.1109737,Bittipara Bazar,,"Bittipara Bazar, Kushtia District, Khulna Division, Bangladesh","বিটিটিপারা বাজার, কুষ্টিয়া জেলা, খুলনা বিভাগ, বাংলাদেশ",,বাংলাদেশ,খুলনা বিভাগ,street,boundaries,['bus_stop'],[],Bangladesh,Khulna,Kushtia,KushtiaSadar,Ujangram,02871d4b55de44e3aee51d2e5082bd08
5162809026.0,893cf0b987bffff,23.7919223,89.1107351,Tofazzel Plaza,,"Tofazzel Plaza, Kushtia District, Khulna Division, Bangladesh","তোফাজেল প্লাজা, কুষ্টিয়া জেলা, খুলনা বিভাগ, বাংলাদেশ",,বাংলাদেশ,খুলনা বিভাগ,admin2,boundaries,['supermarket'],[],Bangladesh,Khulna,Kushtia,KushtiaSadar,Ujangram,02871d4b55de44e3aee51d2e5082bd08
5162827713.0,893cf0ab6b7ffff,23.7531772,89.1243493,Laxmipur Bazar,,"Laxmipur Bazar, Kushtia District, Khulna Division, Bangladesh","লক্ষ্মীপুর বাজার, কুষ্টিয়া জেলা, খুলনা বিভাগ, বাংলাদেশ",,বাংলাদেশ,খুলনা বিভাগ,admin2,boundaries,['marketplace'],[],Bangladesh,Khulna,Kushtia,KushtiaSadar,Abdulpur,dc94742ea916f2fc98a8b3e736a36895
5166859623.0,893cf0ab04bffff,23.7376334,89.1344289,Modhupur Bazar মধুপুর বাজার,,"Modhupur Bazar, Kushtia District, Khulna Division, Bangladesh","মধুপুর বাজার, কুষ্টিয়া জেলা, খুলনা বিভাগ, বাংলাদেশ",,বাংলাদেশ,খুলনা বিভাগ,admin2,boundaries,['marketplace'],[],Bangladesh,Khulna,Kushtia,KushtiaSadar,Harinarayanpur,af43bf8de69f923fe043f7bbf731aea9
5166863436.0,893cf0ab3cbffff,23.7305891,89.1498088,khokon tea stall,,"khokon tea stall, Kushtia District, Khulna Division, Bangladesh","খোকন চা স্টল, কুষ্টিয়া জেলা, খুলনা বিভাগ, বাংলাদেশ",,বাংলাদেশ,খুলনা বিভাগ,admin2,boundaries,['tea'],[],Bangladesh,Khulna,Kushtia,KushtiaSadar,Harinarayanpur,af43bf8de69f923fe043f7bbf731aea9
5549578444.0,893cf0ba9dbffff,23.9103714,89.1267932,খেয়া,,"Eaten, Kushtia District, Khulna Division, Bangladesh","খেয়া, কুষ্টিয়া জেলা, খুলনা বিভাগ, বাংলাদেশ",,বাংলাদেশ,খুলনা বিভাগ,admin2,boundaries,['restaurant'],[],Bangladesh,Khulna,Kushtia,KushtiaSadar,KushtiaPaurashava,db4eecef193f5cb72db508bb4da7ea78
6795009008.0,893cf0a348bffff,23.9210874,89.1619394,(জয় বাংলা বাজার),['Joy bangla bajar'],"Joy Bangla Bazar, Kumarkhali Upazila, Kushtia District, Khulna Division, Bangladesh","জয় বাংলা বাজার, কুমারখালী উপজেলা, কুষ্টিয়া জেলা, খুলনা বিভাগ, বাংলাদেশ",কুমারখালী উপজেলা,বাংলাদেশ,খুলনা বিভাগ,local_admin,boundaries,['beauty_salon'],[],Bangladesh,Khulna,Kushtia,Kumarkhali,Kaya,53bce7e8f888f3b4112c3cba1aa30d7a
8047210285.0,893cf0ba893ffff,23.9140776,89.1112262,,['Mongalbaria Bazar'],"Kushtia District, Khulna Division, Bangladesh","কুষ্টিয়া জেলা, খুলনা বিভাগ, বাংলাদেশ",,বাংলাদেশ,খুলনা বিভাগ,admin2,boundaries,['viewpoint'],[],Bangladesh,Khulna,Kushtia,KushtiaSadar,Barakhada,eefe64196817e90fc9ce89a82c962fc6
8153325617.0,893cf0ba893ffff,23.9137273,89.1107736,,['DBDL'],,,,বাংলাদেশ,খুলনা বিভাগ,housenumber,sameSource,['bank'],[],Bangladesh,Khulna,Kushtia,KushtiaSadar,Barakhada,eefe64196817e90fc9ce89a82c962fc6
9003411630.0,893cf0ba8abffff,23.9089891,89.121293,Kushtia Teletalk Customer Experience & Sales Center,['কুষ্টিয়া টেলিটক গ্রাহক অভিজ্ঞতা ও বিক্রয় কেন্দ্র'],"Kushtia Teletalk Customer Experience & Sales Center, ","কুশিয়া টেলিটালক গ্রাহক অভিজ্ঞতা ও বিক্রয় কেন্দ্র, ",,বাংলাদেশ,খুলনা বিভাগ,housenumber,sameSource,['telecommunication'],[],Bangladesh,Khulna,Kushtia,KushtiaSadar,KushtiaPaurashava,db4eecef193f5cb72db508bb4da7ea78
9584887627.0,893cf0ba84fffff,23.8943371,89.113077,"Protiti Biddaloy, Kushtia",,"Protiti Biddaloy Kushtia, Kushtia District, Khulna Division, Bangladesh","প্রোটিতি বিদলয় কুশটিয়া, কুষ্টিয়া জেলা, খুলনা বিভাগ, বাংলাদেশ",,বাংলাদেশ,খুলনা বিভাগ,admin2,boundaries,['school'],[],Bangladesh,Khulna,Kushtia,KushtiaSadar,KushtiaPaurashava,db4eecef193f5cb72db508bb4da7ea78
9584887628.0,893cf0ba807ffff,23.9037848,89.1194704,Alam Pharmacy,,"Alam Pharmacy, Kushtia District, Khulna Division, Bangladesh","আলম ফার্মাসি, কুষ্টিয়া জেলা, খুলনা বিভাগ, বাংলাদেশ",,বাংলাদেশ,খুলনা বিভাগ,admin2,boundaries,['pharmacy'],[],Bangladesh,Khulna,Kushtia,KushtiaSadar,KushtiaPaurashava,db4eecef193f5cb72db508bb4da7ea78
9584887629.0,893cf0ba807ffff,23.904158,89.1194073,,,"Kushtia District, Khulna Division, Bangladesh","কুষ্টিয়া জেলা, খুলনা বিভাগ, বাংলাদেশ",,বাংলাদেশ,খুলনা বিভাগ,admin2,boundaries,['pharmacy'],[],Bangladesh,Khulna,Kushtia,KushtiaSadar,KushtiaPaurashava,db4eecef193f5cb72db508bb4da7ea78
9584887630.0,893cf0ba807ffff,23.9042791,89.1194673,Life OK Drug House,,"Life OK Drug House, Kushtia District, Khulna Division, Bangladesh","লাইফ ওকে ড্রাগ হাউস, কুষ্টিয়া জেলা, খুলনা বিভাগ, বাংলাদেশ",,বাংলাদেশ,খুলনা বিভাগ,admin2,boundaries,['pharmacy'],[],Bangladesh,Khulna,Kushtia,KushtiaSadar,KushtiaPaurashava,db4eecef193f5cb72db508bb4da7ea78
9584887631.0,893cf0ba807ffff,23.9046073,89.1196306,New Appollo Diagonestic Center,,"New Appollo Diagonestic Center, Kushtia District, Khulna Division, Bangladesh","নতুন অ্যাপোলো ডায়াগনস্টিক সেন্টার, কুষ্টিয়া জেলা, খুলনা বিভাগ, বাংলাদেশ",,বাংলাদেশ,খুলনা বিভাগ,admin2,boundaries,['clinic'],[],Bangladesh,Khulna,Kushtia,KushtiaSadar,KushtiaPaurashava,db4eecef193f5cb72db508bb4da7ea78
9705442595.0,893cf0bad07ffff,23.9284815,89.1275929,The Old Kushtia High School,,"The Old Kushtia High School, Kushtia District, Khulna Division, Bangladesh","পুরাতন কুশিয়া উচ্চ বিদ্যালয়, কুষ্টিয়া জেলা, খুলনা বিভাগ, বাংলাদেশ",,বাংলাদেশ,খুলনা বিভাগ,admin2,boundaries,['educational_institution'],[],Bangladesh,Khulna,Kushtia,KushtiaSadar,HatasHaripur,9e1f3f6826c08a4c714e09b2594321a4
9705442596.0,893cf0bad37ffff,23.9286257,89.1323131,Shahid Hasan Foiz Girl's Hgih School,,"Shahid Hasan Foiz Girl's Hgih School, Kushtia District, Khulna Division, Bangladesh","শহীদ হাসান ফয়েজ গার্লস হাই স্কুল, কুষ্টিয়া জেলা, খুলনা বিভাগ, বাংলাদেশ",,বাংলাদেশ,খুলনা বিভাগ,admin2,boundaries,"['educational_institution', 'school']",[],Bangladesh,Khulna,Kushtia,KushtiaSadar,HatasHaripur,9e1f3f6826c08a4c714e09b2594321a4
9705442597.0,893cf0bac2bffff,23.9175076,89.1078769,Adarsha Madhamic Viddalay Kushtia,,"Adarsha Madhamic Viddalay Kushtia, Kushtia District, Khulna Division, Bangladesh","আদারশা মাধামিক ভিদলে কুশটিয়া, কুষ্টিয়া জেলা, খুলনা বিভাগ, বাংলাদেশ",,বাংলাদেশ,খুলনা বিভাগ,admin2,boundaries,"['educational_institution', 'school']",[],Bangladesh,Khulna,Kushtia,KushtiaSadar,Barakhada,eefe64196817e90fc9ce89a82c962fc6
9705482202.0,893cf0ba943ffff,23.902385,89.1354251,Chand Sultana Girls High School,,"Chand Sultana Girls High School, Kushtia District, Khulna Division, Bangladesh","চাঁদ সুলতানা গার্লস হাই স্কুল, কুষ্টিয়া জেলা, খুলনা বিভাগ, বাংলাদেশ",,বাংলাদেশ,খুলনা বিভাগ,admin2,boundaries,"['educational_institution', 'school']",[],Bangladesh,Khulna,Kushtia,KushtiaSadar,KushtiaPaurashava,db4eecef193f5cb72db508bb4da7ea78
9705482203.0,893cf0ba97bffff,23.9021633,89.1429327,Hasan Zaman Lalon Junior High School,,"Hasan Zaman Lalon Junior High School, Kushtia District, Khulna Division, Bangladesh","হাসান জামান লালন জুনিয়র হাই স্কুল, কুষ্টিয়া জেলা, খুলনা বিভাগ, বাংলাদেশ",,বাংলাদেশ,খুলনা বিভাগ,admin2,boundaries,"['educational_institution', 'school']",[],Bangladesh,Khulna,Kushtia,KushtiaSadar,KushtiaPaurashava,db4eecef193f5cb72db508bb4da7ea78
9705482204.0,893cf0ba957ffff,23.9066174,89.1369793,KUSTIA GOVT. GIRLS HIGH SCHOOL,,"KUSTIA GOVT. GIRLS HIGH SCHOOL, Kushtia District, Khulna Division, Bangladesh","কুশটিয়া সরকারগার্লস হাই স্কুল, কুষ্টিয়া জেলা, খুলনা বিভাগ, বাংলাদেশ",,বাংলাদেশ,খুলনা বিভাগ,admin2,boundaries,"['educational_institution', 'school']",[],Bangladesh,Khulna,Kushtia,KushtiaSadar,KushtiaPaurashava,db4eecef193f5cb72db508bb4da7ea78
9705482205.0,893cf0ba827ffff,23.905058,89.1309151,Shirajul Hoque Muslim High School,,"Shirajul Hoque Muslim High School, Kushtia District, Khulna Division, Bangladesh","শিরাজুল হক মুসলিম উচ্চ বিদ্যালয়, কুষ্টিয়া জেলা, খুলনা বিভাগ, বাংলাদেশ",,বাংলাদেশ,খুলনা বিভাগ,admin2,boundaries,"['educational_institution', 'school']",[],Bangladesh,Khulna,Kushtia,KushtiaSadar,KushtiaPaurashava,db4eecef193f5cb72db508bb4da7ea78
9705482206.0,893cf0ba823ffff,23.9045965,89.1284672,Educare Ideal School,,"Educare Ideal School, Kushtia District, Khulna Division, Bangladesh","আদর্শ স্কুল শিক্ষিত, কুষ্টিয়া জেলা, খুলনা বিভাগ, বাংলাদেশ",,বাংলাদেশ,খুলনা বিভাগ,admin2,boundaries,"['educational_institution', 'school']",[],Bangladesh,Khulna,Kushtia,KushtiaSadar,KushtiaPaurashava,db4eecef193f5cb72db508bb4da7ea78
9705482207.0,893cf0ba807ffff,23.9042162,89.1214636,Kalakakali Secondary School,,"Kalakakali Secondary School, Kushtia District, Khulna Division, Bangladesh","কালাকাকালি মাধ্যমিক বিদ্যালয়, কুষ্টিয়া জেলা, খুলনা বিভাগ, বাংলাদেশ",,বাংলাদেশ,খুলনা বিভাগ,admin2,boundaries,"['educational_institution', 'school']",[],Bangladesh,Khulna,Kushtia,KushtiaSadar,KushtiaPaurashava,db4eecef193f5cb72db508bb4da7ea78
9705482208.0,893cf0ba833ffff,23.9055139,89.123275,Sahittik Mir Mosharraf Hossain High School,,"Sahittik Mir Mosharraf Hossain High School, Kushtia District, Khulna Division, Bangladesh","সাহিতিক মীর মোশারফ হোসেন উচ্চ বিদ্যালয়, কুষ্টিয়া জেলা, খুলনা বিভাগ, বাংলাদেশ",,বাংলাদেশ,খুলনা বিভাগ,admin2,boundaries,"['educational_institution', 'school']",[],Bangladesh,Khulna,Kushtia,KushtiaSadar,KushtiaPaurashava,db4eecef193f5cb72db508bb4da7ea78
9705482209.0,893cf0ba833ffff,23.9061662,89.1229863,Merit Model School,,"Merit Model School, Kushtia District, Khulna Division, Bangladesh","মেধা মডেল স্কুল, কুষ্টিয়া জেলা, খুলনা বিভাগ, বাংলাদেশ",,বাংলাদেশ,খুলনা বিভাগ,admin2,boundaries,"['educational_institution', 'school']",[],Bangladesh,Khulna,Kushtia,KushtiaSadar,KushtiaPaurashava,db4eecef193f5cb72db508bb4da7ea78
9705482211.0,893cf0ba80fffff,23.9002998,89.1201761,Collectorate School And College,,"Collectorate School And College, Kushtia District, Khulna Division, Bangladesh","কালেক্টরেট স্কুল এবং কলেজ, কুষ্টিয়া জেলা, খুলনা বিভাগ, বাংলাদেশ",,বাংলাদেশ,খুলনা বিভাগ,admin2,boundaries,"['educational_institution', 'school']",[],Bangladesh,Khulna,Kushtia,KushtiaSadar,KushtiaPaurashava,db4eecef193f5cb72db508bb4da7ea78
9705482212.0,893cf0ba87bffff,23.8961207,89.1172497,Mir Abu Abdull Memorial Junior High School,,"Mir Abu Abdull Memorial Junior High School, Kushtia District, Khulna Division, Bangladesh","মীর আবু আবদুল মেমোরিয়াল জুনিয়র হাই স্কুল, কুষ্টিয়া জেলা, খুলনা বিভাগ, বাংলাদেশ",,বাংলাদেশ,খুলনা বিভাগ,admin2,boundaries,"['educational_institution', 'school']",[],Bangladesh,Khulna,Kushtia,KushtiaSadar,KushtiaPaurashava,db4eecef193f5cb72db508bb4da7ea78
9705485414.0,893cf0ba8a7ffff,23.9122839,89.1253562,G.K. High School,,"G.K. High School, Kushtia District, Khulna Division, Bangladesh","জি.কে.উচ্চ বিদ্যালয, কুষ্টিয়া জেলা, খুলনা বিভাগ, বাংলাদেশ",,বাংলাদেশ,খুলনা বিভাগ,admin2,boundaries,"['educational_institution', 'school']",[],Bangladesh,Khulna,Kushtia,KushtiaSadar,KushtiaPaurashava,db4eecef193f5cb72db508bb4da7ea78
9705513317.0,893cf0a36cfffff,23.8937434,89.1513219,Cheuria High School,,"Cheuria High School, Kushtia District, Khulna Division, Bangladesh","চুরিয়া উচ্চ বিদ্যালয়, কুষ্টিয়া জেলা, খুলনা বিভাগ, বাংলাদেশ",,বাংলাদেশ,খুলনা বিভাগ,admin2,boundaries,"['educational_institution', 'school']",[],Bangladesh,Khulna,Kushtia,KushtiaSadar,KushtiaPaurashava,db4eecef193f5cb72db508bb4da7ea78
9705513318.0,893cf0a36d3ffff,23.8974776,89.1481997,Mohini Mohan Vidyapith,,"Mohini Mohan Vidyapith, Kushtia District, Khulna Division, Bangladesh","মোহিনী মোহন বিদ্যাপাথ, কুষ্টিয়া জেলা, খুলনা বিভাগ, বাংলাদেশ",,বাংলাদেশ,খুলনা বিভাগ,admin2,boundaries,"['educational_institution', 'school']",[],Bangladesh,Khulna,Kushtia,KushtiaSadar,KushtiaPaurashava,db4eecef193f5cb72db508bb4da7ea78
9705513319.0,893cf0ba96fffff,23.9001543,89.1480477,Mill Para Girl's High School,,"Mill Para Girl's High School, Kushtia District, Khulna Division, Bangladesh","মিল প্যারা গার্লস হাই স্কুল, কুষ্টিয়া জেলা, খুলনা বিভাগ, বাংলাদেশ",,বাংলাদেশ,খুলনা বিভাগ,admin2,boundaries,"['educational_institution', 'school']",[],Bangladesh,Khulna,Kushtia,KushtiaSadar,KushtiaPaurashava,db4eecef193f5cb72db508bb4da7ea78
9705513320.0,893cf0baba7ffff,23.8983918,89.1436815,Arua Para Girls Hgih School,,"Arua Para Girls Hgih School, Kushtia District, Khulna Division, Bangladesh","আরুয়া প্যারা গার্লস হাই স্কুল, কুষ্টিয়া জেলা, খুলনা বিভাগ, বাংলাদেশ",,বাংলাদেশ,খুলনা বিভাগ,admin2,boundaries,"['educational_institution', 'school']",[],Bangladesh,Khulna,Kushtia,KushtiaSadar,KushtiaPaurashava,db4eecef193f5cb72db508bb4da7ea78
9705513321.0,893cf0ba96bffff,23.8991902,89.1435536,Dinomoni High School,,"Dinomoni High School, Kushtia District, Khulna Division, Bangladesh","ডিনোমনি উচ্চ বিদ্যালয়, কুষ্টিয়া জেলা, খুলনা বিভাগ, বাংলাদেশ",,বাংলাদেশ,খুলনা বিভাগ,admin2,boundaries,"['educational_institution', 'school']",[],Bangladesh,Khulna,Kushtia,KushtiaSadar,KushtiaPaurashava,db4eecef193f5cb72db508bb4da7ea78
9705617999.0,893cf0baa87ffff,23.8909214,89.1106147,Chourhash Mukul Sangha Girls Secondary School,,"Chourhash Mukul Sangha Girls Secondary School, Kushtia District, Khulna Division, Bangladesh","চৌরহাশ মুকুল সংঘা গার্লস মাধ্যমিক বিদ্যালয়, কুষ্টিয়া জেলা, খুলনা বিভাগ, বাংলাদেশ",,বাংলাদেশ,খুলনা বিভাগ,admin2,boundaries,"['educational_institution', 'school']",[],Bangladesh,Khulna,Kushtia,KushtiaSadar,KushtiaPaurashava,db4eecef193f5cb72db508bb4da7ea78
9705618000.0,893cf0baa83ffff,23.8903802,89.105589,Ibn Sina KG and Junior School,,"Ibn Sina KG and Junior School, Kushtia District, Khulna Division, Bangladesh","ইবনে সিনা কেজি এবং জুনিয়র স্কুল, কুষ্টিয়া জেলা, খুলনা বিভাগ, বাংলাদেশ",,বাংলাদেশ,খুলনা বিভাগ,admin2,boundaries,"['educational_institution', 'school']",[],Bangladesh,Khulna,Kushtia,KushtiaSadar,Jagati,484298c1ba0ee1e3f32aea73afcc234b
9705618001.0,893cf0bae2bffff,23.8925615,89.1012291,Jagati High School,,"Jagati High School, Kushtia District, Khulna Division, Bangladesh","জগাতি উচ্চ বিদ্যালয়, কুষ্টিয়া জেলা, খুলনা বিভাগ, বাংলাদেশ",,বাংলাদেশ,খুলনা বিভাগ,admin2,boundaries,"['educational_institution', 'school']",[],Bangladesh,Khulna,Kushtia,KushtiaSadar,Barakhada,eefe64196817e90fc9ce89a82c962fc6
9705618001.0,893cf0bae2bffff,23.8925615,89.1012291,Jagati High School,,"Jagati High School, Kushtia District, Khulna Division, Bangladesh","জগাতি উচ্চ বিদ্যালয়, কুষ্টিয়া জেলা, খুলনা বিভাগ, বাংলাদেশ",,বাংলাদেশ,খুলনা বিভাগ,admin2,boundaries,"['educational_institution', 'school']",[],Bangladesh,Khulna,Kushtia,KushtiaSadar,Jagati,484298c1ba0ee1e3f32aea73afcc234b
9705618003.0,893cf0bae23ffff,23.8964559,89.1035378,Baradi Secondary Girls School,,"Baradi Secondary Girls School, Kushtia District, Khulna Division, Bangladesh","বারাদি মাধ্যমিক গার্লস স্কুল, কুষ্টিয়া জেলা, খুলনা বিভাগ, বাংলাদেশ",,বাংলাদেশ,খুলনা বিভাগ,admin2,boundaries,"['educational_institution', 'school']",[],Bangladesh,Khulna,Kushtia,KushtiaSadar,Barakhada,eefe64196817e90fc9ce89a82c962fc6
9705618005.0,893cf0b8337ffff,23.8412082,89.1088953,Belghoria Rahima Khatun Junior Girls School,,"Belghoria Rahima Khatun Junior Girls School, Kushtia District, Khulna Division, Bangladesh","বেলঘোরিয়া রহিমা খাতুন জুনিয়র গার্লস স্কুল, কুষ্টিয়া জেলা, খুলনা বিভাগ, বাংলাদেশ",,বাংলাদেশ,খুলনা বিভাগ,admin2,boundaries,"['educational_institution', 'school']",[],Bangladesh,Khulna,Kushtia,KushtiaSadar,Jiarakhi,c235d333d4cf09f022eb3debfa2f3e46
9705618006.0,893cf0aa41bffff,23.8133208,89.1554189,Naturiya Girls High School,,"Naturiya Girls High School, Kushtia District, Khulna Division, Bangladesh","নাটুরিয়া গার্লস হাই স্কুল, কুষ্টিয়া জেলা, খুলনা বিভাগ, বাংলাদেশ",,বাংলাদেশ,খুলনা বিভাগ,admin2,boundaries,"['educational_institution', 'school']",[],Bangladesh,Khulna,Kushtia,Kumarkhali,Bagulat,a5763358d02a8c99af236edc5b20e95e
9705618007.0,893cf0aa543ffff,23.8136558,89.1771667,Bharuapara Junior High School,,"Bharuapara Junior High School, Kumarkhali Upazila, Kushtia District, Khulna Division, Bangladesh","ভারুয়াপারা জুনিয়র উচ্চ বিদ্যালয়, কুমারখালী উপজেলা, কুষ্টিয়া জেলা, খুলনা বিভাগ, বাংলাদেশ",কুমারখালী উপজেলা,বাংলাদেশ,খুলনা বিভাগ,local_admin,boundaries,"['educational_institution', 'school']",[],Bangladesh,Khulna,Kushtia,Kumarkhali,Bagulat,a5763358d02a8c99af236edc5b20e95e
9706366710.0,893cf0ab353ffff,23.7267253,89.1516998,Islamic University Laboratory School and College,,"Islamic University Laboratory School and College, Kushtia District, Khulna Division, Bangladesh","ইসলামিক বিশ্ববিদ্যালয় ল্যাবরেটরি স্কুল এবং কলেজ, কুষ্টিয়া জেলা, খুলনা বিভাগ, বাংলাদেশ",,বাংলাদেশ,খুলনা বিভাগ,admin2,boundaries,['educational_institution'],[],Bangladesh,Khulna,Kushtia,KushtiaSadar,Harinarayanpur,af43bf8de69f923fe043f7bbf731aea9
9706366711.0,893cf0ab05bffff,23.7400667,89.1325939,Madhupur Hodirannesa  Secondary School,,"Madhupur Hodirannesa Secondary School, Kushtia District, Khulna Division, Bangladesh","মাধুপুর হোদিরানেসা মাধ্যমিক বিদ্যালয়, কুষ্টিয়া জেলা, খুলনা বিভাগ, বাংলাদেশ",,বাংলাদেশ,খুলনা বিভাগ,admin2,boundaries,"['educational_institution', 'school']",[],Bangladesh,Khulna,Kushtia,KushtiaSadar,Abdulpur,dc94742ea916f2fc98a8b3e736a36895
9706366712.0,893cf0ab607ffff,23.742779,89.1187458,Luxmipur Hasan Bag Secondary Girls School,,"Luxmipur Hasan Bag Secondary Girls School, Kushtia District, Khulna Division, Bangladesh","লাক্সমিপুর হাসান ব্যাগ মাধ্যমিক গার্লস স্কুল, কুষ্টিয়া জেলা, খুলনা বিভাগ, বাংলাদেশ",,বাংলাদেশ,খুলনা বিভাগ,admin2,boundaries,"['educational_institution', 'school']",[],Bangladesh,Khulna,Kushtia,KushtiaSadar,Abdulpur,dc94742ea916f2fc98a8b3e736a36895
9706366713.0,893cf0ab08fffff,23.7545256,89.1392472,Harinarayanpur Girl's High School,,"Harinarayanpur Girl's High School, Kushtia District, Khulna Division, Bangladesh","হারিনারায়ণপুর মেয়েদের উচ্চ বিদ্যালয়, কুষ্টিয়া জেলা, খুলনা বিভাগ, বাংলাদেশ",,বাংলাদেশ,খুলনা বিভাগ,admin2,boundaries,"['educational_institution', 'school']",[],Bangladesh,Khulna,Kushtia,KushtiaSadar,Harinarayanpur,af43bf8de69f923fe043f7bbf731aea9
9706366714.0,893cf0ab087ffff,23.757989,89.1406015,Harinarayanpur M.L. High School,,"Harinarayanpur M.L. High School, Kushtia District, Khulna Division, Bangladesh","হারিনারায়ণপুর এম.এল.উচ্চ বিদ্যালয, কুষ্টিয়া জেলা, খুলনা বিভাগ, বাংলাদেশ",,বাংলাদেশ,খুলনা বিভাগ,admin2,boundaries,"['educational_institution', 'school']",[],Bangladesh,Khulna,Kushtia,Kumarkhali,Chandpur,745cf194d64813f4243d79e79ccb7051
9706366715.0,893cf0a8413ffff,23.764024,89.1871523,Mirpur High School,,"Mirpur High School, Kumarkhali Upazila, Kushtia District, Khulna Division, Bangladesh","মিরপুর উচ্চ বিদ্যালয়, কুমারখালী উপজেলা, কুষ্টিয়া জেলা, খুলনা বিভাগ, বাংলাদেশ",কুমারখালী উপজেলা,বাংলাদেশ,খুলনা বিভাগ,local_admin,boundaries,"['educational_institution', 'school']",[],Bangladesh,Khulna,Kushtia,Kumarkhali,Chandpur,745cf194d64813f4243d79e79ccb7051
9706366716.0,893cf0ab513ffff,23.7722273,89.1461481,Dhalnagar Junior High School,,"Dhalnagar Junior High School, Kumarkhali Upazila, Kushtia District, Khulna Division, Bangladesh","ধালনগর জুনিয়র উচ্চ বিদ্যালয়, কুমারখালী উপজেলা, কুষ্টিয়া জেলা, খুলনা বিভাগ, বাংলাদেশ",কুমারখালী উপজেলা,বাংলাদেশ,খুলনা বিভাগ,local_admin,boundaries,"['educational_institution', 'school']",[],Bangladesh,Khulna,Kushtia,Kumarkhali,Chandpur,745cf194d64813f4243d79e79ccb7051
9706383717.0,893cf0aa663ffff,23.7842518,89.1582138,Kushli Basa Secondary School,,"Kushli Basa Secondary School, Kushtia District, Khulna Division, Bangladesh","কুশলি বাসা মাধ্যমিক বিদ্যালয়, কুষ্টিয়া জেলা, খুলনা বিভাগ, বাংলাদেশ",,বাংলাদেশ,খুলনা বিভাগ,admin2,boundaries,"['educational_institution', 'school']",[],Bangladesh,Khulna,Kushtia,Kumarkhali,Chandpur,745cf194d64813f4243d79e79ccb7051
9929594018.0,893cf0ab04bffff,23.7385106,89.1346535,,,"Kushtia District, Khulna Division, Bangladesh","কুষ্টিয়া জেলা, খুলনা বিভাগ, বাংলাদেশ",,বাংলাদেশ,খুলনা বিভাগ,admin2,boundaries,['ford'],[],Bangladesh,Khulna,Kushtia,KushtiaSadar,Harinarayanpur,af43bf8de69f923fe043f7bbf731aea9
226044218.0,893cf0ba82bffff,23.90060895,89.12443833,Kushtia General Hospital,,"Kushtia General Hospital, Kushtia District, Khulna Division, Bangladesh","কুশিয়া জেনারেল হাসপাতাল, কুষ্টিয়া জেলা, খুলনা বিভাগ, বাংলাদেশ",,বাংলাদেশ,খুলনা বিভাগ,admin2,boundaries,['hospital'],[],Bangladesh,Khulna,Kushtia,KushtiaSadar,KushtiaPaurashava,db4eecef193f5cb72db508bb4da7ea78
226044320.0,893cf0ba82fffff,23.90212942,89.12862582,কুষ্টিয়া সরকারি কলেজ,['Kushtia Gov. College'],"Kushtia Government College, Kushtia District, Khulna Division, Bangladesh","কুষ্টিয়া সরকারি কলেজ, কুষ্টিয়া জেলা, খুলনা বিভাগ, বাংলাদেশ",,বাংলাদেশ,খুলনা বিভাগ,admin2,boundaries,['college'],[],Bangladesh,Khulna,Kushtia,KushtiaSadar,KushtiaPaurashava,db4eecef193f5cb72db508bb4da7ea78
226044428.0,893cf0ba95bffff,23.90229888,89.13357772,Kushtia Polytechnic Institute,,"Kushtia Polytechnic Institute, Kushtia District, Khulna Division, Bangladesh","কুশিয়া পলিটেকনিক ইনস্টিটিউট, কুষ্টিয়া জেলা, খুলনা বিভাগ, বাংলাদেশ",,বাংলাদেশ,খুলনা বিভাগ,admin2,boundaries,['college'],[],Bangladesh,Khulna,Kushtia,KushtiaSadar,KushtiaPaurashava,db4eecef193f5cb72db508bb4da7ea78
228198523.0,893cf0ba837ffff,23.9078763,89.12807976,Kushta Model Police Station,,"Kushta Model Police Station, Kushtia District, Khulna Division, Bangladesh","কুশতা মডেল থানা, কুষ্টিয়া জেলা, খুলনা বিভাগ, বাংলাদেশ",,বাংলাদেশ,খুলনা বিভাগ,admin2,boundaries,['police'],[],Bangladesh,Khulna,Kushtia,KushtiaSadar,KushtiaPaurashava,db4eecef193f5cb72db508bb4da7ea78
228199438.0,893cf0ba827ffff,23.90499859,89.13000596,Kushtia Children Park,['কুষ্টিয়া শিশু পার্ক'],"Kushtia Children Park, Kushtia District, Khulna Division, Bangladesh","কুশিয়া চিলড্রেন পার্ক, কুষ্টিয়া জেলা, খুলনা বিভাগ, বাংলাদেশ",,বাংলাদেশ,খুলনা বিভাগ,admin2,boundaries,['park'],[],Bangladesh,Khulna,Kushtia,KushtiaSadar,KushtiaPaurashava,db4eecef193f5cb72db508bb4da7ea78
228199926.0,893cf0ba86fffff,23.89582608,89.12441271,কুষ্টিয়া সরকারি মহিলা কলেজ,"['কুষ্টিয়া সরকারি মহিলা কলেজ', 'Kushtia Gov. Girls College']","Kushtia Government Women's College, Kushtia District, Khulna Division, Bangladesh","কুষ্টিয়া সরকারি মহিলা কলেজ, কুষ্টিয়া জেলা, খুলনা বিভাগ, বাংলাদেশ",,বাংলাদেশ,খুলনা বিভাগ,admin2,boundaries,['college'],[],Bangladesh,Khulna,Kushtia,KushtiaSadar,KushtiaPaurashava,db4eecef193f5cb72db508bb4da7ea78
228200161.0,893cf0ba80fffff,23.90310412,89.12057783,Zia Park,['জিয়া পার্ক'],"Zia Park, Kushtia District, Khulna Division, Bangladesh","জিয়া পার্ক, কুষ্টিয়া জেলা, খুলনা বিভাগ, বাংলাদেশ",,বাংলাদেশ,খুলনা বিভাগ,admin2,boundaries,['park'],[],Bangladesh,Khulna,Kushtia,KushtiaSadar,KushtiaPaurashava,db4eecef193f5cb72db508bb4da7ea78
228201691.0,893cf0ba807ffff,23.9051249,89.1208785,Kushtia Zilla School,,"Kushtia Zilla School, Kushtia District, Khulna Division, Bangladesh","কুশিয়া জিলা স্কুল, কুষ্টিয়া জেলা, খুলনা বিভাগ, বাংলাদেশ",,বাংলাদেশ,খুলনা বিভাগ,admin2,boundaries,['school'],[],Bangladesh,Khulna,Kushtia,KushtiaSadar,KushtiaPaurashava,db4eecef193f5cb72db508bb4da7ea78
228202743.0,893cf0bababffff,23.89245803,89.13850902,Housing Graveyard,,"Housing Graveyard, Kushtia District, Khulna Division, Bangladesh","আবাসন কবরস্থান, কুষ্টিয়া জেলা, খুলনা বিভাগ, বাংলাদেশ",,বাংলাদেশ,খুলনা বিভাগ,admin2,boundaries,['cemetery'],[],Bangladesh,Khulna,Kushtia,KushtiaSadar,KushtiaPaurashava,db4eecef193f5cb72db508bb4da7ea78
228202981.0,893cf0ba807ffff,23.90595174,89.12022077,"Church of Bangladesh, Kushtia Diosis",,"Church of Bangladesh Kushtia Diosis, Kushtia District, Khulna Division, Bangladesh","চার্চ অফ বাংলাদেশ কুশিয়া ডায়োসিস, কুষ্টিয়া জেলা, খুলনা বিভাগ, বাংলাদেশ",,বাংলাদেশ,খুলনা বিভাগ,admin2,boundaries,['place_of_worship'],[],Bangladesh,Khulna,Kushtia,KushtiaSadar,KushtiaPaurashava,db4eecef193f5cb72db508bb4da7ea78
228203402.0,893cf0ba80fffff,23.90123627,89.12055635,D C Court Kushtia,,"D C Court Kushtia, Kushtia District, Khulna Division, Bangladesh","ডি সি কোর্ট কুশটিয়া, কুষ্টিয়া জেলা, খুলনা বিভাগ, বাংলাদেশ",,বাংলাদেশ,খুলনা বিভাগ,admin2,boundaries,['courthouse'],[],Bangladesh,Khulna,Kushtia,KushtiaSadar,KushtiaPaurashava,db4eecef193f5cb72db508bb4da7ea78
481972944.0,893cf0ba96bffff,23.9016133,89.1462116,Thakur Lodge,,"Thakur Lodge, Kushtia District, Khulna Division, Bangladesh","ঠাকুর লজ, কুষ্টিয়া জেলা, খুলনা বিভাগ, বাংলাদেশ",,বাংলাদেশ,খুলনা বিভাগ,admin2,boundaries,['museum'],[],Bangladesh,Khulna,Kushtia,KushtiaSadar,KushtiaPaurashava,db4eecef193f5cb72db508bb4da7ea78
2571451237.0,893cf0a1b0fffff,23.8308846,89.3029737,খোকসা,['Khoksha'],"Khoksa, Khoksa Upazila, Kushtia District, Khulna Division, Bangladesh","খোকসা, খোকসা উপজেলা, কুষ্টিয়া জেলা, খুলনা বিভাগ, বাংলাদেশ",খোকসা উপজেলা,বাংলাদেশ,খুলনা বিভাগ,local_admin,boundaries,['railway_station'],[],Bangladesh,Khulna,Kushtia,Khoksa,Samaspur,d9752c913b2c55795d3d7179dd4b24db
531886350.0,893cf0bac2bffff,23.91718375,89.1072813,Baradi Jame Mosque,,"Baradi Jame Mosque, Kushtia District, Khulna Division, Bangladesh","বারাদি জামে মসজিদ, কুষ্টিয়া জেলা, খুলনা বিভাগ, বাংলাদেশ",,বাংলাদেশ,খুলনা বিভাগ,admin2,boundaries,['place_of_worship_muslim'],[],Bangladesh,Khulna,Kushtia,KushtiaSadar,Barakhada,eefe64196817e90fc9ce89a82c962fc6
531887293.0,893cf0ba88fffff,23.90945609,89.11729852,জনতা ব্যাংক লিমিটেড,['Janata Bank Limited'],"Janata Bank Limited, Kushtia District, Khulna Division, Bangladesh","জনতা ব্যাংক লিমিটেড, কুষ্টিয়া জেলা, খুলনা বিভাগ, বাংলাদেশ",,বাংলাদেশ,খুলনা বিভাগ,admin2,boundaries,['bank'],[],Bangladesh,Khulna,Kushtia,KushtiaSadar,KushtiaPaurashava,db4eecef193f5cb72db508bb4da7ea78
531887306.0,893cf0ba88fffff,23.90933622,89.1174138,বাংলাদেশ কৃষি ব্যাংক,['Bangladesh Krishi Bank'],"Bangladesh Agricultural Bank, Kushtia District, Khulna Division, Bangladesh","বাংলাদেশ কৃষি ব্যাংক, কুষ্টিয়া জেলা, খুলনা বিভাগ, বাংলাদেশ",,বাংলাদেশ,খুলনা বিভাগ,admin2,boundaries,['bank'],[],Bangladesh,Khulna,Kushtia,KushtiaSadar,KushtiaPaurashava,db4eecef193f5cb72db508bb4da7ea78
531887597.0,893cf0ba8bbffff,23.90925141,89.11844437,Punak Food Park,,"Punak Food Park, Kushtia District, Khulna Division, Bangladesh","পুনাক ফুড পার্ক, কুষ্টিয়া জেলা, খুলনা বিভাগ, বাংলাদেশ",,বাংলাদেশ,খুলনা বিভাগ,admin2,boundaries,['restaurant'],[],Bangladesh,Khulna,Kushtia,KushtiaSadar,KushtiaPaurashava,db4eecef193f5cb72db508bb4da7ea78
531887837.0,893cf0ba8bbffff,23.90929872,89.11900645,Kushtia Town Eletrical Substation,,"Kushtia Town Eletrical Substation, Kushtia District, Khulna Division, Bangladesh","কুশিয়া শহর বৈদ্যুতিক সাবস্টেশন, কুষ্টিয়া জেলা, খুলনা বিভাগ, বাংলাদেশ",,বাংলাদেশ,খুলনা বিভাগ,admin2,boundaries,['electrician'],[],Bangladesh,Khulna,Kushtia,KushtiaSadar,KushtiaPaurashava,db4eecef193f5cb72db508bb4da7ea78
531888018.0,893cf0ba8bbffff,23.90904034,89.11934086,MRS Filling Station কুতুব উদ্দীন ফিলিং স্টেশন,,"MRS Filling Station, Kushtia District, Khulna Division, Bangladesh","কুতুব উদ্দীন ফিলিং স্টেশন, কুষ্টিয়া জেলা, খুলনা বিভাগ, বাংলাদেশ",,বাংলাদেশ,খুলনা বিভাগ,admin2,boundaries,['fuel'],[],Bangladesh,Khulna,Kushtia,KushtiaSadar,KushtiaPaurashava,db4eecef193f5cb72db508bb4da7ea78
531889372.0,893cf0ba8abffff,23.90782658,89.1206341,Mojompur Bus Terminal,,"Mojompur Bus Terminal, Kushtia District, Khulna Division, Bangladesh","মোজামম্পুর বাস টার্মিনাল, কুষ্টিয়া জেলা, খুলনা বিভাগ, বাংলাদেশ",,বাংলাদেশ,খুলনা বিভাগ,admin2,boundaries,['bus_station'],[],Bangladesh,Khulna,Kushtia,KushtiaSadar,KushtiaPaurashava,db4eecef193f5cb72db508bb4da7ea78
531896973.0,893cf0ba8abffff,23.9088323,89.1224476,Aga Yousuf Market আগা ইউসুফ মার্কেট,,"Aga Yousuf Market, Kushtia District, Khulna Division, Bangladesh","আগা ইউসুফ মার্কেট, কুষ্টিয়া জেলা, খুলনা বিভাগ, বাংলাদেশ",,বাংলাদেশ,খুলনা বিভাগ,admin2,boundaries,['marketplace'],[],Bangladesh,Khulna,Kushtia,KushtiaSadar,KushtiaPaurashava,db4eecef193f5cb72db508bb4da7ea78
531897087.0,893cf0ba8abffff,23.90805709,89.1219377,ডাচ-বাংলা ব্যাংক লিমিটেড এটিএম,['Dutch-Bangla Bank Limited ATM'],"Dutch-Bangla Bank Ltd ATM, Kushtia District, Khulna Division, Bangladesh","ডাচ-বাংলা ব্যাংক লিমিটেড এটিএম, কুষ্টিয়া জেলা, খুলনা বিভাগ, বাংলাদেশ",,বাংলাদেশ,খুলনা বিভাগ,admin2,boundaries,['bank'],[],Bangladesh,Khulna,Kushtia,KushtiaSadar,KushtiaPaurashava,db4eecef193f5cb72db508bb4da7ea78
531897299.0,893cf0ba833ffff,23.90736175,89.12322924,Bonani Cinema Hall,,"Bonani Cinema Hall, Kushtia District, Khulna Division, Bangladesh","বোনানী সিনেমা হল, কুষ্টিয়া জেলা, খুলনা বিভাগ, বাংলাদেশ",,বাংলাদেশ,খুলনা বিভাগ,admin2,boundaries,['cinema'],[],Bangladesh,Khulna,Kushtia,KushtiaSadar,KushtiaPaurashava,db4eecef193f5cb72db508bb4da7ea78
531897556.0,893cf0ba8abffff,23.9074929,89.12163385,Mazampur Gate Mosque মজমপুর গেট জামে মসজিদ,,"Mazampur Gate Mosque, Kushtia District, Khulna Division, Bangladesh","মজমপুর গেট জামে মসজিদ, কুষ্টিয়া জেলা, খুলনা বিভাগ, বাংলাদেশ",,বাংলাদেশ,খুলনা বিভাগ,admin2,boundaries,['place_of_worship_muslim'],[],Bangladesh,Khulna,Kushtia,KushtiaSadar,KushtiaPaurashava,db4eecef193f5cb72db508bb4da7ea78
531897764.0,893cf0ba8abffff,23.9070943,89.12143524,অগ্রণী ব্যাংক লিমিটেড,['Agrani Bank Limited'],"Agrani Bank Limited, Kushtia District, Khulna Division, Bangladesh","অগ্রণী ব্যাংক লিমিটেড, কুষ্টিয়া জেলা, খুলনা বিভাগ, বাংলাদেশ",,বাংলাদেশ,খুলনা বিভাগ,admin2,boundaries,['bank'],[],Bangladesh,Khulna,Kushtia,KushtiaSadar,KushtiaPaurashava,db4eecef193f5cb72db508bb4da7ea78
531897892.0,893cf0ba807ffff,23.90664969,89.12114344,এবি ব্যাংক লিমিটেড এটিএম,['AB Bank Limited ATM'],"AB Bank Ltd ATM, Kushtia District, Khulna Division, Bangladesh","এবি ব্যাংক লিমিটেড এটিএম, কুষ্টিয়া জেলা, খুলনা বিভাগ, বাংলাদেশ",,বাংলাদেশ,খুলনা বিভাগ,admin2,boundaries,['bank'],[],Bangladesh,Khulna,Kushtia,KushtiaSadar,KushtiaPaurashava,db4eecef193f5cb72db508bb4da7ea78
531897974.0,893cf0ba807ffff,23.9060409,89.12148902,Rapid Action Battalion (RAB),['র্যাপিড অ্যাকশন ব্যাটালিয়ন'],"Rapid Action Battalion RAB, Kushtia District, Khulna Division, Bangladesh","র‌্যাপিড অ্যাকশন ব্যাটালিয়ন রব, কুষ্টিয়া জেলা, খুলনা বিভাগ, বাংলাদেশ",,বাংলাদেশ,খুলনা বিভাগ,admin2,boundaries,['police'],[],Bangladesh,Khulna,Kushtia,KushtiaSadar,KushtiaPaurashava,db4eecef193f5cb72db508bb4da7ea78
531898794.0,893cf0ba807ffff,23.90369194,89.12179392,Kushtia Medial College Temporary Boys Hostel কুষ্টিয়া মেডিকেল কলেজ অস্থায়ী বয়েজ হোস্টেল,,"Kushtia Medial College Temporary Boys Hostel, Kushtia District, Khulna Division, Bangladesh","কুষ্টিয়া মেডিকেল কলেজ অস্থায়ী বয়েজ হোস্টেল, কুষ্টিয়া জেলা, খুলনা বিভাগ, বাংলাদেশ",,বাংলাদেশ,খুলনা বিভাগ,admin2,boundaries,['hostel'],[],Bangladesh,Khulna,Kushtia,KushtiaSadar,KushtiaPaurashava,db4eecef193f5cb72db508bb4da7ea78
531898913.0,893cf0ba807ffff,23.90435097,89.12207185,"Milan Boys hostel, KuMC",,"Milan Boys hostel KuMC, Kushtia District, Khulna Division, Bangladesh","মিলান বয়েজ হোস্টেল কুমক, কুষ্টিয়া জেলা, খুলনা বিভাগ, বাংলাদেশ",,বাংলাদেশ,খুলনা বিভাগ,admin2,boundaries,['hostel'],[],Bangladesh,Khulna,Kushtia,KushtiaSadar,KushtiaPaurashava,db4eecef193f5cb72db508bb4da7ea78
531899016.0,893cf0ba807ffff,23.9044372,89.11959775,ডাচ্‌-বাংলা ব্যাংক লিমিটেড এটিএম,['Dutch-Bangla Bank Limited ATM'],"Dutch-Bangla Bank Limited ATM, Kushtia District, Khulna Division, Bangladesh","ডাচ্‌-বাংলা ব্যাংক লিমিটেড এটিএম, কুষ্টিয়া জেলা, খুলনা বিভাগ, বাংলাদেশ",,বাংলাদেশ,খুলনা বিভাগ,admin2,boundaries,['bank'],[],Bangladesh,Khulna,Kushtia,KushtiaSadar,KushtiaPaurashava,db4eecef193f5cb72db508bb4da7ea78
531899112.0,893cf0ba807ffff,23.90404137,89.11928418,Dar-Us Shefa Private Hospital,,"Dar-Us Shefa Private Hospital, Kushtia District, Khulna Division, Bangladesh","ডার-ইউ শেফা বেসরকারী হাসপাতাল, কুষ্টিয়া জেলা, খুলনা বিভাগ, বাংলাদেশ",,বাংলাদেশ,খুলনা বিভাগ,admin2,boundaries,['hospital'],[],Bangladesh,Khulna,Kushtia,KushtiaSadar,KushtiaPaurashava,db4eecef193f5cb72db508bb4da7ea78
531899664.0,893cf0ba80fffff,23.90317519,89.11885317,Kushtia Technical School কুষ্টিয়া টেকনিক্যাল স্কুল,,"Kushtia Technical School, Kushtia District, Khulna Division, Bangladesh","কুষ্টিয়া টেকনিক্যাল স্কুল, কুষ্টিয়া জেলা, খুলনা বিভাগ, বাংলাদেশ",,বাংলাদেশ,খুলনা বিভাগ,admin2,boundaries,['educational_institution'],[],Bangladesh,Khulna,Kushtia,KushtiaSadar,KushtiaPaurashava,db4eecef193f5cb72db508bb4da7ea78
531899846.0,893cf0ba80fffff,23.90187167,89.11873454,Shahid Minar Kushtia,,"Shahid Minar Kushtia, Kushtia District, Khulna Division, Bangladesh","শহীদ মিনার কুশটিয়া, কুষ্টিয়া জেলা, খুলনা বিভাগ, বাংলাদেশ",,বাংলাদেশ,খুলনা বিভাগ,admin2,boundaries,['monument'],[],Bangladesh,Khulna,Kushtia,KushtiaSadar,KushtiaPaurashava,db4eecef193f5cb72db508bb4da7ea78
531900721.0,893cf0ba80fffff,23.90069752,89.12049335,DC Court Masjid,,"DC Court Masjid, Kushtia District, Khulna Division, Bangladesh","ডিসি কোর্ট মসজিদ, কুষ্টিয়া জেলা, খুলনা বিভাগ, বাংলাদেশ",,বাংলাদেশ,খুলনা বিভাগ,admin2,boundaries,['place_of_worship_muslim'],[],Bangladesh,Khulna,Kushtia,KushtiaSadar,KushtiaPaurashava,db4eecef193f5cb72db508bb4da7ea78
531902036.0,893cf0ba80bffff,23.9006107,89.11680595,Advocate Para Mosquea,,"Advocate Para Mosquea, Kushtia District, Khulna Division, Bangladesh","অ্যাডভোকেট প্যারা মোস্কিয়া, কুষ্টিয়া জেলা, খুলনা বিভাগ, বাংলাদেশ",,বাংলাদেশ,খুলনা বিভাগ,admin2,boundaries,['place_of_worship_muslim'],[],Bangladesh,Khulna,Kushtia,KushtiaSadar,KushtiaPaurashava,db4eecef193f5cb72db508bb4da7ea78
531902321.0,893cf0ba80bffff,23.89972152,89.11755853,HOTEL NOOR INTERNATIONAL KUSHTIA,,"HOTEL NOOR INTERNATIONAL KUSHTIA, Kushtia District, Khulna Division, Bangladesh","হোটেল নূর আন্তর্জাতিক কুশটিয়া, কুষ্টিয়া জেলা, খুলনা বিভাগ, বাংলাদেশ",,বাংলাদেশ,খুলনা বিভাগ,admin2,boundaries,['hotel'],[],Bangladesh,Khulna,Kushtia,KushtiaSadar,KushtiaPaurashava,db4eecef193f5cb72db508bb4da7ea78
531902382.0,893cf0ba873ffff,23.89914682,89.11809525,Desha TARC দেশা টার্ক,,"Desha TARC, Kushtia District, Khulna Division, Bangladesh","দেশা টার্ক, কুষ্টিয়া জেলা, খুলনা বিভাগ, বাংলাদেশ",,বাংলাদেশ,খুলনা বিভাগ,admin2,boundaries,['hotel'],[],Bangladesh,Khulna,Kushtia,KushtiaSadar,KushtiaPaurashava,db4eecef193f5cb72db508bb4da7ea78
531902521.0,893cf0ba847ffff,23.89719805,89.1166517,Custom House শুল্কভবন,,"Custom House, Kushtia District, Khulna Division, Bangladesh","শুল্কভবন, কুষ্টিয়া জেলা, খুলনা বিভাগ, বাংলাদেশ",,বাংলাদেশ,খুলনা বিভাগ,admin2,boundaries,['community_centre'],[],Bangladesh,Khulna,Kushtia,KushtiaSadar,KushtiaPaurashava,db4eecef193f5cb72db508bb4da7ea78
531902604.0,893cf0ba847ffff,23.896879,89.11560385,Custom More Mosque Ashraf Rafiq,,"Custom More Mosque Ashraf Rafiq, Kushtia District, Khulna Division, Bangladesh","কাস্টম আরও মসজিদ আশরাফ রাফিক, কুষ্টিয়া জেলা, খুলনা বিভাগ, বাংলাদেশ",,বাংলাদেশ,খুলনা বিভাগ,admin2,boundaries,['place_of_worship_muslim'],[],Bangladesh,Khulna,Kushtia,KushtiaSadar,KushtiaPaurashava,db4eecef193f5cb72db508bb4da7ea78
531902761.0,893cf0ba84fffff,23.89523998,89.11567749,শেখ কামাল স্টেডিয়াম,"['কুষ্টিয়া স্টেডিয়াম', 'Kustia Stadium']","Sheikh Kamal Stadium, Kushtia District, Khulna Division, Bangladesh","শেখ কামাল স্টেডিয়াম, কুষ্টিয়া জেলা, খুলনা বিভাগ, বাংলাদেশ",,বাংলাদেশ,খুলনা বিভাগ,admin2,boundaries,['stadium'],[],Bangladesh,Khulna,Kushtia,KushtiaSadar,KushtiaPaurashava,db4eecef193f5cb72db508bb4da7ea78
531902776.0,893cf0ba847ffff,23.8964199,89.11542175,Swiming pool,,"Swiming pool, Kushtia District, Khulna Division, Bangladesh","সুইমিং পুল, কুষ্টিয়া জেলা, খুলনা বিভাগ, বাংলাদেশ",,বাংলাদেশ,খুলনা বিভাগ,admin2,boundaries,['swimming_pool'],[],Bangladesh,Khulna,Kushtia,KushtiaSadar,KushtiaPaurashava,db4eecef193f5cb72db508bb4da7ea78
531902973.0,893cf0ba87bffff,23.89631246,89.11681157,"স্বপ্নছোয়া ছাত্রাবাস, কাস্টমমোর, কুষ্টিয়া।",,"Dreamy hostel Custom twist Kushtia., Kushtia District, Khulna Division, Bangladesh","স্বপ্নছোয়া ছাত্রাবাস কাস্টমমোর কুষ্টিয়া।, কুষ্টিয়া জেলা, খুলনা বিভাগ, বাংলাদেশ",,বাংলাদেশ,খুলনা বিভাগ,admin2,boundaries,['hotel'],[],Bangladesh,Khulna,Kushtia,KushtiaSadar,KushtiaPaurashava,db4eecef193f5cb72db508bb4da7ea78
531903676.0,893cf0ba84bffff,23.89261802,89.11224307,আনসার ভিডিপি উন্নয়ন ব্যাংক,,"Ansar VDP Development Bank, Kushtia District, Khulna Division, Bangladesh","আনসার ভিডিপি উন্নয়ন ব্যাংক, কুষ্টিয়া জেলা, খুলনা বিভাগ, বাংলাদেশ",,বাংলাদেশ,খুলনা বিভাগ,admin2,boundaries,['bank'],[],Bangladesh,Khulna,Kushtia,KushtiaSadar,KushtiaPaurashava,db4eecef193f5cb72db508bb4da7ea78
531904061.0,893cf0baa87ffff,23.8918885,89.11126715,Self-Confidence Academic Education Center,,"Self-Confidence Academic Education Center, Kushtia District, Khulna Division, Bangladesh","আত্মবিশ্বাস একাডেমিক শিক্ষা কেন্দ্র, কুষ্টিয়া জেলা, খুলনা বিভাগ, বাংলাদেশ",,বাংলাদেশ,খুলনা বিভাগ,admin2,boundaries,['educational_institution'],[],Bangladesh,Khulna,Kushtia,KushtiaSadar,KushtiaPaurashava,db4eecef193f5cb72db508bb4da7ea78
531904327.0,893cf0baa87ffff,23.89138745,89.11031995,Dutch-Bangla Bank Limited Fast Track,,"Dutch-Bangla Bank Limited Fast Track, Kushtia District, Khulna Division, Bangladesh","ডাচ-ব্যাংলা ব্যাংক লিমিটেড দ্রুত ট্র্যাক, কুষ্টিয়া জেলা, খুলনা বিভাগ, বাংলাদেশ",,বাংলাদেশ,খুলনা বিভাগ,admin2,boundaries,['bank'],[],Bangladesh,Khulna,Kushtia,KushtiaSadar,KushtiaPaurashava,db4eecef193f5cb72db508bb4da7ea78
531904332.0,893cf0baa87ffff,23.89098927,89.11003448,জনতা ব্যাংক লিমিটেড,['Janata Bank Limited'],"Janata Bank Limited, Kushtia District, Khulna Division, Bangladesh","জনতা ব্যাংক লিমিটেড, কুষ্টিয়া জেলা, খুলনা বিভাগ, বাংলাদেশ",,বাংলাদেশ,খুলনা বিভাগ,admin2,boundaries,['bank'],[],Bangladesh,Khulna,Kushtia,KushtiaSadar,KushtiaPaurashava,db4eecef193f5cb72db508bb4da7ea78
531904382.0,893cf0baa87ffff,23.890706,89.111021,Chourhash Mosque,,"Chourhash Mosque, Kushtia District, Khulna Division, Bangladesh","চৌরহাশ মসজিদ, কুষ্টিয়া জেলা, খুলনা বিভাগ, বাংলাদেশ",,বাংলাদেশ,খুলনা বিভাগ,admin2,boundaries,['place_of_worship_muslim'],[],Bangladesh,Khulna,Kushtia,KushtiaSadar,KushtiaPaurashava,db4eecef193f5cb72db508bb4da7ea78
531904502.0,893cf0baab3ffff,23.89013309,89.11257337,Highway Police Station,,"Highway Police Station, Kushtia District, Khulna Division, Bangladesh","হাইওয়ে থানা, কুষ্টিয়া জেলা, খুলনা বিভাগ, বাংলাদেশ",,বাংলাদেশ,খুলনা বিভাগ,admin2,boundaries,['police'],[],Bangladesh,Khulna,Kushtia,KushtiaSadar,KushtiaPaurashava,db4eecef193f5cb72db508bb4da7ea78
531908041.0,893cf0baab3ffff,23.89087271,89.1131127,Kushtia Filling Station,,"Kushtia Filling Station, Kushtia District, Khulna Division, Bangladesh","কুশিয়া ফিলিং স্টেশন, কুষ্টিয়া জেলা, খুলনা বিভাগ, বাংলাদেশ",,বাংলাদেশ,খুলনা বিভাগ,admin2,boundaries,['fuel'],[],Bangladesh,Khulna,Kushtia,KushtiaSadar,KushtiaPaurashava,db4eecef193f5cb72db508bb4da7ea78
531916132.0,893cf0baa8fffff,23.88875942,89.10905299,Chourhash Eidgah,,"Chourhash Eidgah, Kushtia District, Khulna Division, Bangladesh","চুরহাশ ইডগাহ, কুষ্টিয়া জেলা, খুলনা বিভাগ, বাংলাদেশ",,বাংলাদেশ,খুলনা বিভাগ,admin2,boundaries,['place_of_worship'],[],Bangladesh,Khulna,Kushtia,KushtiaSadar,KushtiaPaurashava,db4eecef193f5cb72db508bb4da7ea78
531916482.0,893cf0baa83ffff,23.88780187,89.10735567,Anwar Automobile আনোয়ার অটোমোবাইল,,"Anwar Automobile, Kushtia District, Khulna Division, Bangladesh","আনোয়ার অটোমোবাইল, কুষ্টিয়া জেলা, খুলনা বিভাগ, বাংলাদেশ",,বাংলাদেশ,খুলনা বিভাগ,admin2,boundaries,['fuel'],[],Bangladesh,Khulna,Kushtia,KushtiaSadar,Jagati,484298c1ba0ee1e3f32aea73afcc234b
531936720.0,893cf0b9ddbffff,23.82337793,89.10493846,Alampur Mosque,,"Alampur Mosque, Kushtia District, Khulna Division, Bangladesh","আলামপুর মসজিদ, কুষ্টিয়া জেলা, খুলনা বিভাগ, বাংলাদেশ",,বাংলাদেশ,খুলনা বিভাগ,admin2,boundaries,['place_of_worship_muslim'],[],Bangladesh,Khulna,Kushtia,KushtiaSadar,Alampur,b15fb2cb6a09b3085a2bccb544b4cda4
1675547046.0,893cf0bb1d7ffff,23.8640867,89.0316196,পোড়াদহ জংশন,['Poradaha Junction'],"Porodah junction, Kushtia District, Khulna Division, Bangladesh","পোড়াদহ জংশন, কুষ্টিয়া জেলা, খুলনা বিভাগ, বাংলাদেশ",,বাংলাদেশ,খুলনা বিভাগ,admin2,boundaries,['railway_station'],[],Bangladesh,Khulna,Kushtia,Mirpur,Poradaha,c1f6a6b3c753a3c0a66743f4695e28f0
531937950.0,893cf0b980bffff,23.79733248,89.10984623,Lalon Filling Station লালন ফিলিং স্টেশনে,,"Lalon Filling Station, Kushtia District, Khulna Division, Bangladesh","লালন ফিলিং স্টেশনে, কুষ্টিয়া জেলা, খুলনা বিভাগ, বাংলাদেশ",,বাংলাদেশ,খুলনা বিভাগ,admin2,boundaries,['fuel'],[],Bangladesh,Khulna,Kushtia,KushtiaSadar,Ujangram,02871d4b55de44e3aee51d2e5082bd08
531938168.0,893cf0b987bffff,23.79270425,89.1107583,Bittipara Bazar Jame Mosque,,"Bittipara Bazar Jame Mosque, Kushtia District, Khulna Division, Bangladesh","বিটিটিপারা বাজার জামে মসজিদ, কুষ্টিয়া জেলা, খুলনা বিভাগ, বাংলাদেশ",,বাংলাদেশ,খুলনা বিভাগ,admin2,boundaries,['place_of_worship_muslim'],[],Bangladesh,Khulna,Kushtia,KushtiaSadar,Ujangram,02871d4b55de44e3aee51d2e5082bd08
531938292.0,893cf0b987bffff,23.79210555,89.1106822,অগ্রণী ব্যাংক লিমিটেড,['Agrani Bank Limited'],"Agrani Bank Limited, Kushtia District, Khulna Division, Bangladesh","অগ্রণী ব্যাংক লিমিটেড, কুষ্টিয়া জেলা, খুলনা বিভাগ, বাংলাদেশ",,বাংলাদেশ,খুলনা বিভাগ,admin2,boundaries,['place_of_worship_muslim'],[],Bangladesh,Khulna,Kushtia,KushtiaSadar,Ujangram,02871d4b55de44e3aee51d2e5082bd08
531938354.0,893cf0b9ab7ffff,23.78810783,89.11149646,PumaShamim Filling Station পেট্রোল পাম্প,,"PumaShamim Filling Station, Kushtia District, Khulna Division, Bangladesh","পেট্রোল পাম্প, কুষ্টিয়া জেলা, খুলনা বিভাগ, বাংলাদেশ",,বাংলাদেশ,খুলনা বিভাগ,admin2,boundaries,['fuel'],[],Bangladesh,Khulna,Kushtia,KushtiaSadar,Ujangram,02871d4b55de44e3aee51d2e5082bd08
531938403.0,893cf0ab48bffff,23.76858816,89.1172755,11 Mile Jame Mosque,,"11 Mile Jame Mosque, Kushtia District, Khulna Division, Bangladesh","11 মাইল জামে মসজিদ, কুষ্টিয়া জেলা, খুলনা বিভাগ, বাংলাদেশ",,বাংলাদেশ,খুলনা বিভাগ,admin2,boundaries,['place_of_worship_muslim'],[],Bangladesh,Khulna,Kushtia,KushtiaSadar,Harinarayanpur,af43bf8de69f923fe043f7bbf731aea9
531940961.0,893cf0ab6b7ffff,23.75299945,89.12425245,Laxmipur Mohammadia Jame Mosque,,"Laxmipur Mohammadia Jame Mosque, Kushtia District, Khulna Division, Bangladesh","লক্ষ্মীপুর মোহাম্মদিয়া জামে মসজিদ, কুষ্টিয়া জেলা, খুলনা বিভাগ, বাংলাদেশ",,বাংলাদেশ,খুলনা বিভাগ,admin2,boundaries,['place_of_worship_muslim'],[],Bangladesh,Khulna,Kushtia,KushtiaSadar,Abdulpur,dc94742ea916f2fc98a8b3e736a36895
531941125.0,893cf0ab04bffff,23.73821477,89.13331594,Modhupur Banana Market মধুপুর কলা বাজার,,"Modhupur Banana Market, Kushtia District, Khulna Division, Bangladesh","মধুপুর কলা বাজার, কুষ্টিয়া জেলা, খুলনা বিভাগ, বাংলাদেশ",,বাংলাদেশ,খুলনা বিভাগ,admin2,boundaries,['marketplace'],[],Bangladesh,Khulna,Kushtia,KushtiaSadar,Harinarayanpur,af43bf8de69f923fe043f7bbf731aea9
532463400.0,893cf0ab04bffff,23.73786481,89.13468908,Modhupur Bazar Mosque মধুপুর বাজার মসজিদ,,"Modhupur Bazar Mosque, Kushtia District, Khulna Division, Bangladesh","মধুপুর বাজার মসজিদ, কুষ্টিয়া জেলা, খুলনা বিভাগ, বাংলাদেশ",,বাংলাদেশ,খুলনা বিভাগ,admin2,boundaries,['place_of_worship_muslim'],[],Bangladesh,Khulna,Kushtia,KushtiaSadar,Harinarayanpur,af43bf8de69f923fe043f7bbf731aea9
532463431.0,893cf0ab04bffff,23.73717131,89.13495343,সোনালী ব্যাংক লিমিটেড,['Sonali Bank Limited'],"Sonali Bank Limited, Kushtia District, Khulna Division, Bangladesh","সোনালী ব্যাংক লিমিটেড, কুষ্টিয়া জেলা, খুলনা বিভাগ, বাংলাদেশ",,বাংলাদেশ,খুলনা বিভাগ,admin2,boundaries,['bank'],[],Bangladesh,Khulna,Kushtia,KushtiaSadar,Harinarayanpur,af43bf8de69f923fe043f7bbf731aea9
532463950.0,893cf0ab35bffff,23.72539666,89.15160801,Residential Park,,"Residential Park, Kushtia District, Khulna Division, Bangladesh","আবাসিক পার্ক, কুষ্টিয়া জেলা, খুলনা বিভাগ, বাংলাদেশ",,বাংলাদেশ,খুলনা বিভাগ,admin2,boundaries,['park'],[],Bangladesh,Khulna,Kushtia,KushtiaSadar,Harinarayanpur,af43bf8de69f923fe043f7bbf731aea9
532464097.0,893cf0ab35bffff,23.72394455,89.15038485,Central Library,,"Central Library, Kushtia District, Khulna Division, Bangladesh","কেন্দ্রীয় গ্রন্থাগার, কুষ্টিয়া জেলা, খুলনা বিভাগ, বাংলাদেশ",,বাংলাদেশ,খুলনা বিভাগ,admin2,boundaries,['library'],[],Bangladesh,Khulna,Kushtia,KushtiaSadar,Harinarayanpur,af43bf8de69f923fe043f7bbf731aea9
532464301.0,893cf0ab22fffff,23.72398221,89.1483218,Islamic University Medical Centre ইসলামী বিশ্ববিদ্যালয়ের মেডিকেল সেন্টার,,"Islamic University Medical Centre, Kushtia District, Khulna Division, Bangladesh","ইসলামী বিশ্ববিদ্যালয়ের মেডিকেল সেন্টার, কুষ্টিয়া জেলা, খুলনা বিভাগ, বাংলাদেশ",,বাংলাদেশ,খুলনা বিভাগ,admin2,boundaries,['hospital'],[],Bangladesh,Khulna,Kushtia,KushtiaSadar,Harinarayanpur,af43bf8de69f923fe043f7bbf731aea9
3219830246.0,893cf549c5bffff,24.0669203,89.0007238,,,"Bheramara Upazila, Kushtia District, Khulna Division, Bangladesh","ভেড়ামারা উপজেলা, কুষ্টিয়া জেলা, খুলনা বিভাগ, বাংলাদেশ",ভেড়ামারা উপজেলা,বাংলাদেশ,খুলনা বিভাগ,local_admin,boundaries,['transformer'],[],Bangladesh,Khulna,Kushtia,Bheramara,Mokarimpur,e1c6923b837fdaba0a37e8947ed31c5e
532464653.0,893cf0ab22fffff,23.72447968,89.14783386,Grarage,,"Grarage, Kushtia District, Khulna Division, Bangladesh","গ্যারেজ, কুষ্টিয়া জেলা, খুলনা বিভাগ, বাংলাদেশ",,বাংলাদেশ,খুলনা বিভাগ,admin2,boundaries,['bus_station'],[],Bangladesh,Khulna,Kushtia,KushtiaSadar,Harinarayanpur,af43bf8de69f923fe043f7bbf731aea9
3219830365.0,893cf549c5bffff,24.0671559,89.0002975,,,"Bheramara Upazila, Kushtia District, Khulna Division, Bangladesh","ভেড়ামারা উপজেলা, কুষ্টিয়া জেলা, খুলনা বিভাগ, বাংলাদেশ",ভেড়ামারা উপজেলা,বাংলাদেশ,খুলনা বিভাগ,local_admin,boundaries,['transformer'],[],Bangladesh,Khulna,Kushtia,Bheramara,Mokarimpur,e1c6923b837fdaba0a37e8947ed31c5e
3219830369.0,893cf549c5bffff,24.0671903,89.0004126,,,"Bheramara Upazila, Kushtia District, Khulna Division, Bangladesh","ভেড়ামারা উপজেলা, কুষ্টিয়া জেলা, খুলনা বিভাগ, বাংলাদেশ",ভেড়ামারা উপজেলা,বাংলাদেশ,খুলনা বিভাগ,local_admin,boundaries,['transformer'],[],Bangladesh,Khulna,Kushtia,Bheramara,Mokarimpur,e1c6923b837fdaba0a37e8947ed31c5e
3219830370.0,893cf549c5bffff,24.0672135,89.0005144,,,"Bheramara Upazila, Kushtia District, Khulna Division, Bangladesh","ভেড়ামারা উপজেলা, কুষ্টিয়া জেলা, খুলনা বিভাগ, বাংলাদেশ",ভেড়ামারা উপজেলা,বাংলাদেশ,খুলনা বিভাগ,local_admin,boundaries,['transformer'],[],Bangladesh,Khulna,Kushtia,Bheramara,Mokarimpur,e1c6923b837fdaba0a37e8947ed31c5e
3219830388.0,893cf549c5bffff,24.0674556,89.0001989,,,"Bheramara Upazila, Kushtia District, Khulna Division, Bangladesh","ভেড়ামারা উপজেলা, কুষ্টিয়া জেলা, খুলনা বিভাগ, বাংলাদেশ",ভেড়ামারা উপজেলা,বাংলাদেশ,খুলনা বিভাগ,local_admin,boundaries,['transformer'],[],Bangladesh,Khulna,Kushtia,Bheramara,Mokarimpur,e1c6923b837fdaba0a37e8947ed31c5e
3219830390.0,893cf549c5bffff,24.0674859,89.0003108,,,"Bheramara Upazila, Kushtia District, Khulna Division, Bangladesh","ভেড়ামারা উপজেলা, কুষ্টিয়া জেলা, খুলনা বিভাগ, বাংলাদেশ",ভেড়ামারা উপজেলা,বাংলাদেশ,খুলনা বিভাগ,local_admin,boundaries,['transformer'],[],Bangladesh,Khulna,Kushtia,Bheramara,Mokarimpur,e1c6923b837fdaba0a37e8947ed31c5e
3219830391.0,893cf549c5bffff,24.0675137,89.0004248,,,"Bheramara Upazila, Kushtia District, Khulna Division, Bangladesh","ভেড়ামারা উপজেলা, কুষ্টিয়া জেলা, খুলনা বিভাগ, বাংলাদেশ",ভেড়ামারা উপজেলা,বাংলাদেশ,খুলনা বিভাগ,local_admin,boundaries,['transformer'],[],Bangladesh,Khulna,Kushtia,Bheramara,Mokarimpur,e1c6923b837fdaba0a37e8947ed31c5e
532465104.0,893cf0ab34bffff,23.72174104,89.15352387,Sreeti Sowdho,,"Sreeti Sowdho, Kushtia District, Khulna Division, Bangladesh","শ্রীটি সোডিও, কুষ্টিয়া জেলা, খুলনা বিভাগ, বাংলাদেশ",,বাংলাদেশ,খুলনা বিভাগ,admin2,boundaries,['monument'],[],Bangladesh,Khulna,Kushtia,KushtiaSadar,Harinarayanpur,af43bf8de69f923fe043f7bbf731aea9
3219830407.0,893cf549c5bffff,24.0678573,89.0004205,,,"Bheramara Upazila, Kushtia District, Khulna Division, Bangladesh","ভেড়ামারা উপজেলা, কুষ্টিয়া জেলা, খুলনা বিভাগ, বাংলাদেশ",ভেড়ামারা উপজেলা,বাংলাদেশ,খুলনা বিভাগ,local_admin,boundaries,['transformer'],[],Bangladesh,Khulna,Kushtia,Bheramara,Mokarimpur,e1c6923b837fdaba0a37e8947ed31c5e
532465115.0,893cf0ab34bffff,23.72159913,89.15421446,Post Office Iu,,"Post Office Iu, Kushtia District, Khulna Division, Bangladesh","পোস্ট অফিস আইইউ, কুষ্টিয়া জেলা, খুলনা বিভাগ, বাংলাদেশ",,বাংলাদেশ,খুলনা বিভাগ,admin2,boundaries,['post_office'],[],Bangladesh,Khulna,Kushtia,KushtiaSadar,Harinarayanpur,af43bf8de69f923fe043f7bbf731aea9
3219870951.0,893cf5498c7ffff,24.0623149,89.0188404,,,"Bheramara Upazila, Kushtia District, Khulna Division, Bangladesh","ভেড়ামারা উপজেলা, কুষ্টিয়া জেলা, খুলনা বিভাগ, বাংলাদেশ",ভেড়ামারা উপজেলা,বাংলাদেশ,খুলনা বিভাগ,local_admin,boundaries,['toll_booth'],[],Bangladesh,Khulna,Kushtia,Bheramara,BahirChar,803825cbd7ca41e913d9b1b74cf2d5da
4748459133.0,893cf016c87ffff,23.7749584,89.0551566,Jhaudia Shahi Masjid,,"Jhaudia Shahi Masjid, Kushtia District, Khulna Division, Bangladesh","ঝৌদিয়া শাহি মসজিদ, কুষ্টিয়া জেলা, খুলনা বিভাগ, বাংলাদেশ",,বাংলাদেশ,খুলনা বিভাগ,admin2,boundaries,['place_of_worship_muslim'],[],Bangladesh,Khulna,Kushtia,KushtiaSadar,Jhaudia,de3ac9cc854b470c215dddaedfc1e2df
5160602637.0,893cf086917ffff,24.0201449,89.0157119,Baro Mile Bus Stop বার মাইল বাস স্টপ,,"Baro Mile Bus Stop, Bheramara Upazila, Kushtia District, Khulna Division, Bangladesh","বার মাইল বাস স্টপ, ভেড়ামারা উপজেলা, কুষ্টিয়া জেলা, খুলনা বিভাগ, বাংলাদেশ",ভেড়ামারা উপজেলা,বাংলাদেশ,খুলনা বিভাগ,street,boundaries,['bus_stop'],[],Bangladesh,Khulna,Kushtia,Bheramara,BahirChar,803825cbd7ca41e913d9b1b74cf2d5da
5162350318.0,893cf084d63ffff,23.9725906,89.0291723,Naoda khadimapura 8 miles Market,,"Naoda khadimapura 8 miles Market, Kushtia District, Khulna Division, Bangladesh","নাওদা খাদিমাপুরা 8 মাইল বাজার, কুষ্টিয়া জেলা, খুলনা বিভাগ, বাংলাদেশ",,বাংলাদেশ,খুলনা বিভাগ,admin2,boundaries,['marketplace'],[],Bangladesh,Khulna,Kushtia,Mirpur,Bahalbaria,bb1f782056ee59c4371eaae99566f39b
2344447497.0,893cf0af41bffff,23.8105835,89.288611,Khoksha Upazila Health Complex,,"Khoksha Upazila Health Complex, Khoksa Upazila, Kushtia District, Khulna Division, Bangladesh","খোকশা উপজিলা স্বাস্থ্য কমপ্লেক্স, খোকসা উপজেলা, কুষ্টিয়া জেলা, খুলনা বিভাগ, বাংলাদেশ",খোকসা উপজেলা,বাংলাদেশ,খুলনা বিভাগ,local_admin,boundaries,['hospital'],[],Bangladesh,Khulna,Kushtia,Khoksa,KhoksaPaurashava,16af417acba9f289a21ad70ec88e210b
5162357533.0,893cf0849d7ffff,23.9677743,89.0348303,Motorcycle Workshop,,"Motorcycle Workshop, Kushtia District, Khulna Division, Bangladesh","মোটরসাইকেলের কর্মশালা, কুষ্টিয়া জেলা, খুলনা বিভাগ, বাংলাদেশ",,বাংলাদেশ,খুলনা বিভাগ,admin2,boundaries,['motorcycle'],[],Bangladesh,Khulna,Kushtia,Mirpur,Bahalbaria,bb1f782056ee59c4371eaae99566f39b
5162359112.0,893cf0849d7ffff,23.9677449,89.0349137,"Bahalbaria,Mirpur,Kushtia",,"Bahalbaria Mirpur Kushtia, Kushtia District, Khulna Division, Bangladesh","বাহলবারিয়া মিরপুর কুশটিয়া, কুষ্টিয়া জেলা, খুলনা বিভাগ, বাংলাদেশ",,বাংলাদেশ,খুলনা বিভাগ,admin2,boundaries,['marketplace'],[],Bangladesh,Khulna,Kushtia,Mirpur,Bahalbaria,bb1f782056ee59c4371eaae99566f39b
2344447502.0,893cf0a1113ffff,23.8595981,89.2367708,Kumarkhali Upazila Health Complex,,"Kumarkhali Upazila Health Complex, Kumarkhali Upazila, Kushtia District, Khulna Division, Bangladesh","কুমারখালী উপজিলা স্বাস্থ্য কমপ্লেক্স, কুমারখালী উপজেলা, কুষ্টিয়া জেলা, খুলনা বিভাগ, বাংলাদেশ",কুমারখালী উপজেলা,বাংলাদেশ,খুলনা বিভাগ,local_admin,boundaries,['hospital'],[],Bangladesh,Khulna,Kushtia,Kumarkhali,KumarkhaliPaurashava,c13d5f35b2ad1a5f9ca3654c1a579338
5162359113.0,893cf0849d7ffff,23.9673169,89.0350519,Pharmacy,,"Pharmacy, Kushtia District, Khulna Division, Bangladesh","ফার্মাসি, কুষ্টিয়া জেলা, খুলনা বিভাগ, বাংলাদেশ",,বাংলাদেশ,খুলনা বিভাগ,admin2,boundaries,['pharmacy'],[],Bangladesh,Khulna,Kushtia,Mirpur,Bahalbaria,bb1f782056ee59c4371eaae99566f39b
5162359526.0,893cf0849d7ffff,23.9675954,89.0346752,বাংলাদেশ কৃষি ব্যাংক,"['বাংলাদেশ কৃষি ব্যাংক', 'Bangladesh Krishi Bank']","Bangladesh Agricultural Bank, Kushtia District, Khulna Division, Bangladesh","বাংলাদেশ কৃষি ব্যাংক, কুষ্টিয়া জেলা, খুলনা বিভাগ, বাংলাদেশ",,বাংলাদেশ,খুলনা বিভাগ,admin2,boundaries,['bank'],[],Bangladesh,Khulna,Kushtia,Mirpur,Bahalbaria,bb1f782056ee59c4371eaae99566f39b
5162359711.0,893cf0849d7ffff,23.9669864,89.0355249,Bahalbaria Bazar,,"Bahalbaria Bazar, Kushtia District, Khulna Division, Bangladesh","বাহলবারিয়া বাজার, কুষ্টিয়া জেলা, খুলনা বিভাগ, বাংলাদেশ",,বাংলাদেশ,খুলনা বিভাগ,admin2,boundaries,['marketplace'],[],Bangladesh,Khulna,Kushtia,Mirpur,Bahalbaria,bb1f782056ee59c4371eaae99566f39b
5162370231.0,893cf0b16a7ffff,23.958653,89.0712451,Ranakhoria Bazar,,"Ranakhoria Bazar, Kushtia District, Khulna Division, Bangladesh","রানাখোরিয়া বাজার, কুষ্টিয়া জেলা, খুলনা বিভাগ, বাংলাদেশ",,বাংলাদেশ,খুলনা বিভাগ,admin2,boundaries,['marketplace'],[],Bangladesh,Khulna,Kushtia,Mirpur,Talbaria,e391fe50318415568c7510a204117325
5162386375.0,893cf0b122bffff,23.9320273,89.0893342,Trimohoni Bus Stop,,"Trimohoni Bus Stop, Kushtia District, Khulna Division, Bangladesh","ট্রিমোহনি বাস স্টপ, কুষ্টিয়া জেলা, খুলনা বিভাগ, বাংলাদেশ",,বাংলাদেশ,খুলনা বিভাগ,street,boundaries,['bus_stop'],[],Bangladesh,Khulna,Kushtia,KushtiaSadar,Barakhada,eefe64196817e90fc9ce89a82c962fc6
5162394230.0,893cf0b122bffff,23.9318765,89.0889909,Meherpur-Trimohoni Bus Stop,,"Meherpur-Trimohoni Bus Stop, Kushtia District, Khulna Division, Bangladesh","মেহেরপুর-ত্রিমোহনি বাস স্টপ, কুষ্টিয়া জেলা, খুলনা বিভাগ, বাংলাদেশ",,বাংলাদেশ,খুলনা বিভাগ,street,boundaries,['bus_stop'],[],Bangladesh,Khulna,Kushtia,KushtiaSadar,Barakhada,eefe64196817e90fc9ce89a82c962fc6
5162645569.0,893cf0baad3ffff,23.8831204,89.0995166,,,"Kushtia District, Khulna Division, Bangladesh","কুষ্টিয়া জেলা, খুলনা বিভাগ, বাংলাদেশ",,বাংলাদেশ,খুলনা বিভাগ,admin2,boundaries,['atm'],[],Bangladesh,Khulna,Kushtia,KushtiaSadar,Jagati,484298c1ba0ee1e3f32aea73afcc234b
5162648540.0,893cf0baad3ffff,23.8831489,89.0995767,,,"Kushtia District, Khulna Division, Bangladesh","কুষ্টিয়া জেলা, খুলনা বিভাগ, বাংলাদেশ",,বাংলাদেশ,খুলনা বিভাগ,admin2,boundaries,['atm'],[],Bangladesh,Khulna,Kushtia,KushtiaSadar,Jagati,484298c1ba0ee1e3f32aea73afcc234b
5162685804.0,893cf0b85abffff,23.8799694,89.0922248,ঘোষ দধি ভান্ডার,,"Ghosh Dadhi Bhandar, Kushtia District, Khulna Division, Bangladesh","ঘোষ দধি ভান্ডার, কুষ্টিয়া জেলা, খুলনা বিভাগ, বাংলাদেশ",,বাংলাদেশ,খুলনা বিভাগ,admin2,boundaries,['restaurant'],[],Bangladesh,Khulna,Kushtia,KushtiaSadar,Jagati,484298c1ba0ee1e3f32aea73afcc234b
5162686341.0,893cf0b85abffff,23.8799559,89.0921349,বটতৈল মোড় বাস স্টপ,['Battail More Bus Stop'],"Battail Mora bus stop, Battail More Bus Stop, Kushtia District, Khulna Division, Bangladesh","বটতৈল মোড় বাস স্টপ, কুষ্টিয়া জেলা, খুলনা বিভাগ, বাংলাদেশ",,বাংলাদেশ,খুলনা বিভাগ,street,boundaries,['bus_stop'],[],Bangladesh,Khulna,Kushtia,KushtiaSadar,Jagati,484298c1ba0ee1e3f32aea73afcc234b
5162687025.0,893cf0b85abffff,23.8799841,89.0918425,মাসুদ চা স্টোর,,"Masud Tea Store, Kushtia District, Khulna Division, Bangladesh","মাসুদ চা স্টোর, কুষ্টিয়া জেলা, খুলনা বিভাগ, বাংলাদেশ",,বাংলাদেশ,খুলনা বিভাগ,admin2,boundaries,['tea'],[],Bangladesh,Khulna,Kushtia,KushtiaSadar,Jagati,484298c1ba0ee1e3f32aea73afcc234b
5162688065.0,893cf0b85abffff,23.8798725,89.0920839,আব্দুল্লা স্টোর,,"Abdullah Store, Kushtia District, Khulna Division, Bangladesh","আব্দুল্লা স্টোর, কুষ্টিয়া জেলা, খুলনা বিভাগ, বাংলাদেশ",,বাংলাদেশ,খুলনা বিভাগ,admin2,boundaries,['tea'],[],Bangladesh,Khulna,Kushtia,KushtiaSadar,Jagati,484298c1ba0ee1e3f32aea73afcc234b
5162689142.0,893cf0b85abffff,23.8798149,89.0921282,Jaman super market,,"Jaman super market, Kushtia District, Khulna Division, Bangladesh","জামান সুপার মার্কেট, কুষ্টিয়া জেলা, খুলনা বিভাগ, বাংলাদেশ",,বাংলাদেশ,খুলনা বিভাগ,admin2,boundaries,['supermarket'],[],Bangladesh,Khulna,Kushtia,KushtiaSadar,Jagati,484298c1ba0ee1e3f32aea73afcc234b
5162691314.0,893cf0b8507ffff,23.8756425,89.0913564,Jashim Store জসিম স্টোর,,"Jashim Store, Kushtia District, Khulna Division, Bangladesh","জসিম স্টোর, কুষ্টিয়া জেলা, খুলনা বিভাগ, বাংলাদেশ",,বাংলাদেশ,খুলনা বিভাগ,admin2,boundaries,['clothes'],[],Bangladesh,Khulna,Kushtia,KushtiaSadar,Jagati,484298c1ba0ee1e3f32aea73afcc234b
5162698877.0,893cf0b81d7ffff,23.8620828,89.0969417,Ansar Camp Mor Bus Stop,,"Ansar Camp Mor Bus Stop, Kushtia District, Khulna Division, Bangladesh","আনসার ক্যাম্প মোর বাস স্টপ, কুষ্টিয়া জেলা, খুলনা বিভাগ, বাংলাদেশ",,বাংলাদেশ,খুলনা বিভাগ,street,boundaries,['bus_stop'],[],Bangladesh,Khulna,Kushtia,KushtiaSadar,Jagati,484298c1ba0ee1e3f32aea73afcc234b
5162785821.0,893cf0b8383ffff,23.8462555,89.0962347,Alom Super Market.,,"Alom Super Market., Kushtia District, Khulna Division, Bangladesh","অ্যালম সুপার মার্কেট।, কুষ্টিয়া জেলা, খুলনা বিভাগ, বাংলাদেশ",,বাংলাদেশ,খুলনা বিভাগ,admin2,boundaries,['supermarket'],[],Bangladesh,Khulna,Kushtia,KushtiaSadar,Alampur,b15fb2cb6a09b3085a2bccb544b4cda4
5162786364.0,893cf0b8387ffff,23.845964,89.0970965,Vadaliya Bazar Bus Stop ভাদালিয়া বাজার বাস স্টপ,,"Vadaliya Bazar Bus Stop, Kushtia District, Khulna Division, Bangladesh","ভাদালিয়া বাজার বাস স্টপ, কুষ্টিয়া জেলা, খুলনা বিভাগ, বাংলাদেশ",,বাংলাদেশ,খুলনা বিভাগ,street,boundaries,['bus_stop'],[],Bangladesh,Khulna,Kushtia,KushtiaSadar,Alampur,b15fb2cb6a09b3085a2bccb544b4cda4
5162792187.0,893cf0b8387ffff,23.8458573,89.0969825,Vadaliya Bazar ভাদালিয়া বাজার,,"Vadaliya Bazar, Kushtia District, Khulna Division, Bangladesh","ভাদালিয়া বাজার, কুষ্টিয়া জেলা, খুলনা বিভাগ, বাংলাদেশ",,বাংলাদেশ,খুলনা বিভাগ,admin2,boundaries,['marketplace'],[],Bangladesh,Khulna,Kushtia,KushtiaSadar,Alampur,b15fb2cb6a09b3085a2bccb544b4cda4
5162794617.0,893cf0b8387ffff,23.8450153,89.0982775,Shimul Drug House Pharmacy শিমুল ঔষধ হাউস ফার্মেসী,,"Shimul Drug House Pharmacy, Kushtia District, Khulna Division, Bangladesh","শিমুল ঔষধ হাউস ফার্মেসী, কুষ্টিয়া জেলা, খুলনা বিভাগ, বাংলাদেশ",,বাংলাদেশ,খুলনা বিভাগ,admin2,boundaries,['pharmacy'],[],Bangladesh,Khulna,Kushtia,KushtiaSadar,Alampur,b15fb2cb6a09b3085a2bccb544b4cda4
2429286464.0,893cf0aa92fffff,23.803401,89.2822456,Janipur Pilot School,,"Janipur Pilot School, Khoksa Upazila, Kushtia District, Khulna Division, Bangladesh","জ্যানিপুর পাইলট স্কুল, খোকসা উপজেলা, কুষ্টিয়া জেলা, খুলনা বিভাগ, বাংলাদেশ",খোকসা উপজেলা,বাংলাদেশ,খুলনা বিভাগ,local_admin,boundaries,['school'],[],Bangladesh,Khulna,Kushtia,Khoksa,KhoksaPaurashava,16af417acba9f289a21ad70ec88e210b
2571469118.0,893cf0a1117ffff,23.8605756,89.2410244,কুমারখালী,['Kumarkhali'],"Kumarakhali, Kumarkhali Upazila, Kushtia District, Khulna Division, Bangladesh","কুমারখালী, কুমারখালী উপজেলা, কুষ্টিয়া জেলা, খুলনা বিভাগ, বাংলাদেশ",কুমারখালী উপজেলা,বাংলাদেশ,খুলনা বিভাগ,local_admin,boundaries,['railway_station'],[],Bangladesh,Khulna,Kushtia,Kumarkhali,KumarkhaliPaurashava,c13d5f35b2ad1a5f9ca3654c1a579338
537955797.0,893cf0ba823ffff,23.90383923,89.12780264,,,"Kushtia District, Khulna Division, Bangladesh","কুষ্টিয়া জেলা, খুলনা বিভাগ, বাংলাদেশ",,বাংলাদেশ,খুলনা বিভাগ,admin2,boundaries,['hospital'],[],Bangladesh,Khulna,Kushtia,KushtiaSadar,KushtiaPaurashava,db4eecef193f5cb72db508bb4da7ea78
537956557.0,893cf0ba823ffff,23.90437539,89.12849121,,,"Kushtia District, Khulna Division, Bangladesh","কুষ্টিয়া জেলা, খুলনা বিভাগ, বাংলাদেশ",,বাংলাদেশ,খুলনা বিভাগ,admin2,boundaries,['hospital'],[],Bangladesh,Khulna,Kushtia,KushtiaSadar,KushtiaPaurashava,db4eecef193f5cb72db508bb4da7ea78
6110782737.0,893cf549c4bffff,24.0674197,89.0023926,,,"Bheramara Upazila, Kushtia District, Khulna Division, Bangladesh","ভেড়ামারা উপজেলা, কুষ্টিয়া জেলা, খুলনা বিভাগ, বাংলাদেশ",ভেড়ামারা উপজেলা,বাংলাদেশ,খুলনা বিভাগ,local_admin,boundaries,['transformer'],[],Bangladesh,Khulna,Kushtia,Bheramara,Mokarimpur,e1c6923b837fdaba0a37e8947ed31c5e
6110782738.0,893cf549c4bffff,24.067378,89.0022276,,,"Bheramara Upazila, Kushtia District, Khulna Division, Bangladesh","ভেড়ামারা উপজেলা, কুষ্টিয়া জেলা, খুলনা বিভাগ, বাংলাদেশ",ভেড়ামারা উপজেলা,বাংলাদেশ,খুলনা বিভাগ,local_admin,boundaries,['transformer'],[],Bangladesh,Khulna,Kushtia,Bheramara,Mokarimpur,e1c6923b837fdaba0a37e8947ed31c5e
6110782760.0,893cf549c5bffff,24.0679058,89.0006626,,,"Bheramara Upazila, Kushtia District, Khulna Division, Bangladesh","ভেড়ামারা উপজেলা, কুষ্টিয়া জেলা, খুলনা বিভাগ, বাংলাদেশ",ভেড়ামারা উপজেলা,বাংলাদেশ,খুলনা বিভাগ,local_admin,boundaries,['transformer'],[],Bangladesh,Khulna,Kushtia,Bheramara,Mokarimpur,e1c6923b837fdaba0a37e8947ed31c5e
6110782761.0,893cf549c5bffff,24.0669752,89.0010273,,,"Bheramara Upazila, Kushtia District, Khulna Division, Bangladesh","ভেড়ামারা উপজেলা, কুষ্টিয়া জেলা, খুলনা বিভাগ, বাংলাদেশ",ভেড়ামারা উপজেলা,বাংলাদেশ,খুলনা বিভাগ,local_admin,boundaries,['transformer'],[],Bangladesh,Khulna,Kushtia,Bheramara,Mokarimpur,e1c6923b837fdaba0a37e8947ed31c5e
6110782762.0,893cf549c5bffff,24.0672996,89.0009227,,,"Bheramara Upazila, Kushtia District, Khulna Division, Bangladesh","ভেড়ামারা উপজেলা, কুষ্টিয়া জেলা, খুলনা বিভাগ, বাংলাদেশ",ভেড়ামারা উপজেলা,বাংলাদেশ,খুলনা বিভাগ,local_admin,boundaries,['transformer'],[],Bangladesh,Khulna,Kushtia,Bheramara,Mokarimpur,e1c6923b837fdaba0a37e8947ed31c5e
6110782764.0,893cf549c5bffff,24.0673339,89.0010314,,,"Bheramara Upazila, Kushtia District, Khulna Division, Bangladesh","ভেড়ামারা উপজেলা, কুষ্টিয়া জেলা, খুলনা বিভাগ, বাংলাদেশ",ভেড়ামারা উপজেলা,বাংলাদেশ,খুলনা বিভাগ,local_admin,boundaries,['transformer'],[],Bangladesh,Khulna,Kushtia,Bheramara,Mokarimpur,e1c6923b837fdaba0a37e8947ed31c5e
6110782766.0,893cf549c5bffff,24.0673634,89.0011403,,,"Bheramara Upazila, Kushtia District, Khulna Division, Bangladesh","ভেড়ামারা উপজেলা, কুষ্টিয়া জেলা, খুলনা বিভাগ, বাংলাদেশ",ভেড়ামারা উপজেলা,বাংলাদেশ,খুলনা বিভাগ,local_admin,boundaries,['transformer'],[],Bangladesh,Khulna,Kushtia,Bheramara,Mokarimpur,e1c6923b837fdaba0a37e8947ed31c5e
6475718479.0,893cf549c5bffff,24.0677209,89.0010582,,,"Bheramara Upazila, Kushtia District, Khulna Division, Bangladesh","ভেড়ামারা উপজেলা, কুষ্টিয়া জেলা, খুলনা বিভাগ, বাংলাদেশ",ভেড়ামারা উপজেলা,বাংলাদেশ,খুলনা বিভাগ,local_admin,boundaries,['transformer'],[],Bangladesh,Khulna,Kushtia,Bheramara,Mokarimpur,e1c6923b837fdaba0a37e8947ed31c5e
6475718480.0,893cf549c5bffff,24.0676841,89.0009563,,,"Bheramara Upazila, Kushtia District, Khulna Division, Bangladesh","ভেড়ামারা উপজেলা, কুষ্টিয়া জেলা, খুলনা বিভাগ, বাংলাদেশ",ভেড়ামারা উপজেলা,বাংলাদেশ,খুলনা বিভাগ,local_admin,boundaries,['transformer'],[],Bangladesh,Khulna,Kushtia,Bheramara,Mokarimpur,e1c6923b837fdaba0a37e8947ed31c5e
6475718481.0,893cf549c5bffff,24.0676548,89.0008476,,,"Bheramara Upazila, Kushtia District, Khulna Division, Bangladesh","ভেড়ামারা উপজেলা, কুষ্টিয়া জেলা, খুলনা বিভাগ, বাংলাদেশ",ভেড়ামারা উপজেলা,বাংলাদেশ,খুলনা বিভাগ,local_admin,boundaries,['transformer'],[],Bangladesh,Khulna,Kushtia,Bheramara,Mokarimpur,e1c6923b837fdaba0a37e8947ed31c5e
7537304277.0,893cf0bae63ffff,23.8906805,89.0988075,জগতি,,"To the jaggery, Kushtia District, Khulna Division, Bangladesh","জগতি, কুষ্টিয়া জেলা, খুলনা বিভাগ, বাংলাদেশ",,বাংলাদেশ,খুলনা বিভাগ,admin2,boundaries,['railway_station'],[],Bangladesh,Khulna,Kushtia,KushtiaSadar,Jagati,484298c1ba0ee1e3f32aea73afcc234b
7541804489.0,893cf0bae4bffff,23.8865497,89.0873513,Bappi Coffee House,,"Bappi Coffee House, Kushtia District, Khulna Division, Bangladesh","বাপ্পি কফি হাউস, কুষ্টিয়া জেলা, খুলনা বিভাগ, বাংলাদেশ",,বাংলাদেশ,খুলনা বিভাগ,admin2,boundaries,['cafe'],[],Bangladesh,Khulna,Kushtia,Mirpur,Poradaha,c1f6a6b3c753a3c0a66743f4695e28f0
9115344194.0,893cf086da3ffff,24.0406163,89.0023348,,,"Bheramara Upazila, Kushtia District, Khulna Division, Bangladesh","ভেড়ামারা উপজেলা, কুষ্টিয়া জেলা, খুলনা বিভাগ, বাংলাদেশ",ভেড়ামারা উপজেলা,বাংলাদেশ,খুলনা বিভাগ,local_admin,boundaries,['spring'],[],Bangladesh,Khulna,Kushtia,Bheramara,BahirChar,803825cbd7ca41e913d9b1b74cf2d5da
754189634.0,893cf0bab37ffff,23.8920754,89.1477234,Harishangkorpur Bazar,,"Harishangkorpur Bazar, Kushtia District, Khulna Division, Bangladesh","হরিশংকরপুর বাজার, কুষ্টিয়া জেলা, খুলনা বিভাগ, বাংলাদেশ",,বাংলাদেশ,খুলনা বিভাগ,admin2,boundaries,['marketplace'],[],Bangladesh,Khulna,Kushtia,KushtiaSadar,KushtiaPaurashava,db4eecef193f5cb72db508bb4da7ea78
918883104.0,893cf0aa56fffff,23.81160535,89.18985123,নাতুড়িয়া পশ্চিমপাড়া জামে মসজিদ,,"Naturia Westpara Jame Mosque, Kumarkhali Upazila, Kushtia District, Khulna Division, Bangladesh","নাতুড়িয়া পশ্চিমপাড়া জামে মসজিদ, কুমারখালী উপজেলা, কুষ্টিয়া জেলা, খুলনা বিভাগ, বাংলাদেশ",কুমারখালী উপজেলা,বাংলাদেশ,খুলনা বিভাগ,local_admin,boundaries,['place_of_worship_muslim'],[],Bangladesh,Khulna,Kushtia,Kumarkhali,Bagulat,a5763358d02a8c99af236edc5b20e95e
929489561.0,893cf0ba8bbffff,23.91010041,89.12036367,Punak Food Park,,"Punak Food Park, Kushtia District, Khulna Division, Bangladesh","পুনাক ফুড পার্ক, কুষ্টিয়া জেলা, খুলনা বিভাগ, বাংলাদেশ",,বাংলাদেশ,খুলনা বিভাগ,admin2,boundaries,['restaurant'],[],Bangladesh,Khulna,Kushtia,KushtiaSadar,KushtiaPaurashava,db4eecef193f5cb72db508bb4da7ea78
