osm_id,h3level9,lat,lon,name,alt_names,name_en,name_bn,local_admin_name,admin0_name,admin2_name,addr_level,poi_addr_match,poi_class,poi_keywords,country,division,district,thana,union,region_hash
2344154850.0,893cf02108bffff,23.4863527,89.4217504,Magura General Hospital,,"Magura General Hospital, Magura, Magura District, Khulna Division, Bangladesh","মাগুরা জেনারেল হাসপাতাল, মাগুরা জেলা, খুলনা বিভাগ, বাংলাদেশ",Magura,বাংলাদেশ,খুলনা বিভাগ,local_admin,boundaries,['hospital'],[],Bangladesh,Khulna,Magura,MaguraSadar,MaguraPaurashava,f64af54aa72a064b7288b63e87d9e0a8
2805657809.0,893cf02109bffff,23.4891247,89.4190109,Government Hossain Shaheed Sharwardi College,,"Government Hossain Shaheed Sharwardi College, Magura, Magura District, Khulna Division, Bangladesh","সরকারী হোসেন শহীদ শারওয়ার্ডী কলেজ, মাগুরা জেলা, খুলনা বিভাগ, বাংলাদেশ",Magura,বাংলাদেশ,খুলনা বিভাগ,local_admin,boundaries,['college'],[],Bangladesh,Khulna,Magura,MaguraSadar,MaguraPaurashava,f64af54aa72a064b7288b63e87d9e0a8
2805659180.0,893cf0210d3ffff,23.4862682,89.4131314,Adorsho Degree College,,"Adorsho Degree College, Magura, Magura District, Khulna Division, Bangladesh","অ্যাডোরশো ডিগ্রি কলেজ, মাগুরা জেলা, খুলনা বিভাগ, বাংলাদেশ",Magura,বাংলাদেশ,খুলনা বিভাগ,local_admin,boundaries,['college'],[],Bangladesh,Khulna,Magura,MaguraSadar,MaguraPaurashava,f64af54aa72a064b7288b63e87d9e0a8
2805665824.0,893cf02146bffff,23.4861784,89.4101037,Circuit House,,"Circuit House, Magura, Magura District, Khulna Division, Bangladesh","সার্কিট হাউস, মাগুরা জেলা, খুলনা বিভাগ, বাংলাদেশ",Magura,বাংলাদেশ,খুলনা বিভাগ,local_admin,boundaries,['guest_house'],[],Bangladesh,Khulna,Magura,MaguraSadar,MaguraPaurashava,f64af54aa72a064b7288b63e87d9e0a8
2805666418.0,893cf021093ffff,23.4913258,89.4203807,Magura Government Girls High School,,"Magura Government Girls High School, Magura, Magura District, Khulna Division, Bangladesh","মাগুরা সরকারী মেয়েরা উচ্চ বিদ্যালয়, মাগুরা জেলা, খুলনা বিভাগ, বাংলাদেশ",Magura,বাংলাদেশ,খুলনা বিভাগ,local_admin,boundaries,['school'],[],Bangladesh,Khulna,Magura,MaguraSadar,MaguraPaurashava,f64af54aa72a064b7288b63e87d9e0a8
2805669456.0,893cf021093ffff,23.4931114,89.4192874,Magura Judge Court,,"Magura Judge Court, Magura, Magura District, Khulna Division, Bangladesh","মাগুরা বিচারক আদালত, মাগুরা জেলা, খুলনা বিভাগ, বাংলাদেশ",Magura,বাংলাদেশ,খুলনা বিভাগ,local_admin,boundaries,['government'],[],Bangladesh,Khulna,Magura,MaguraSadar,MaguraPaurashava,f64af54aa72a064b7288b63e87d9e0a8
2809017168.0,893cf066b37ffff,23.261368,89.4409837,Garerghat High School,,"Garerghat High School, Shalikha Upazila, Magura District, Khulna Division, Bangladesh","গ্যারঘাট উচ্চ বিদ্যালয়, শালিখা উপজেলা, মাগুরা জেলা, খুলনা বিভাগ, বাংলাদেশ",শালিখা উপজেলা,বাংলাদেশ,খুলনা বিভাগ,local_admin,boundaries,['school'],[],Bangladesh,Khulna,Magura,Shalikha,Gangarampur,5d02ea07ed617bf9f1d8031993dc1af2
2809024908.0,893cf066987ffff,23.2898654,89.437016,Pulum High School,,"Pulum High School, Shalikha Upazila, Magura District, Khulna Division, Bangladesh","পুলাম উচ্চ বিদ্যালয়, শালিখা উপজেলা, মাগুরা জেলা, খুলনা বিভাগ, বাংলাদেশ",শালিখা উপজেলা,বাংলাদেশ,খুলনা বিভাগ,local_admin,boundaries,['school'],[],Bangladesh,Khulna,Magura,Shalikha,Gangarampur,5d02ea07ed617bf9f1d8031993dc1af2
2809028222.0,893cf029a93ffff,23.3145427,89.4356849,Naliya Primary School,,"Naliya Primary School, Shalikha Upazila, Magura District, Khulna Division, Bangladesh","নালিয়া প্রাথমিক বিদ্যালয়, শালিখা উপজেলা, মাগুরা জেলা, খুলনা বিভাগ, বাংলাদেশ",শালিখা উপজেলা,বাংলাদেশ,খুলনা বিভাগ,local_admin,boundaries,['school'],[],Bangladesh,Khulna,Magura,Shalikha,Bunagati,7fbf07ae019a8a72998e6f5854a311ba
2809034237.0,893cf029e47ffff,23.3121881,89.4246001,Bunagati Primary School,,"Bunagati Primary School, Shalikha Upazila, Magura District, Khulna Division, Bangladesh","বুনাগতী প্রাথমিক বিদ্যালয়, শালিখা উপজেলা, মাগুরা জেলা, খুলনা বিভাগ, বাংলাদেশ",শালিখা উপজেলা,বাংলাদেশ,খুলনা বিভাগ,local_admin,boundaries,['school'],[],Bangladesh,Khulna,Magura,Shalikha,Bunagati,7fbf07ae019a8a72998e6f5854a311ba
2809039581.0,893cf029e7bffff,23.3112773,89.4254447,Bunagati High School,,"Bunagati High School, Shalikha Upazila, Magura District, Khulna Division, Bangladesh","বুনাগতী উচ্চ বিদ্যালয়, শালিখা উপজেলা, মাগুরা জেলা, খুলনা বিভাগ, বাংলাদেশ",শালিখা উপজেলা,বাংলাদেশ,খুলনা বিভাগ,local_admin,boundaries,['hospital'],[],Bangladesh,Khulna,Magura,Shalikha,Bunagati,7fbf07ae019a8a72998e6f5854a311ba
2809046339.0,893cf029e47ffff,23.3108334,89.4235619,সোনালী ব্যাংক,['Sonali Bank'],"Sonali Bank, Shalikha Upazila, Magura District, Khulna Division, Bangladesh","সোনালী ব্যাংক, শালিখা উপজেলা, মাগুরা জেলা, খুলনা বিভাগ, বাংলাদেশ",শালিখা উপজেলা,বাংলাদেশ,খুলনা বিভাগ,local_admin,boundaries,['bank'],[],Bangladesh,Khulna,Magura,Shalikha,Bunagati,7fbf07ae019a8a72998e6f5854a311ba
2809051122.0,893cf029e47ffff,23.3116675,89.4223695,Bunagati College,,"Bunagati College, Shalikha Upazila, Magura District, Khulna Division, Bangladesh","বুনাগতী কলেজ, শালিখা উপজেলা, মাগুরা জেলা, খুলনা বিভাগ, বাংলাদেশ",শালিখা উপজেলা,বাংলাদেশ,খুলনা বিভাগ,local_admin,boundaries,['college'],[],Bangladesh,Khulna,Magura,Shalikha,Bunagati,7fbf07ae019a8a72998e6f5854a311ba
2809053678.0,893cf029e43ffff,23.3113135,89.4217602,Bunagati Bus Stop,,"Bunagati Bus Stop, Shalikha Upazila, Magura District, Khulna Division, Bangladesh","বুনাগতী বাস স্টপ, শালিখা উপজেলা, মাগুরা জেলা, খুলনা বিভাগ, বাংলাদেশ",শালিখা উপজেলা,বাংলাদেশ,খুলনা বিভাগ,street,boundaries,['bus_stop'],[],Bangladesh,Khulna,Magura,Shalikha,Bunagati,7fbf07ae019a8a72998e6f5854a311ba
2809054627.0,893cf029e43ffff,23.3118852,89.4216612,Mosque,,"Mosque, Shalikha Upazila, Magura District, Khulna Division, Bangladesh","মসজিদ, শালিখা উপজেলা, মাগুরা জেলা, খুলনা বিভাগ, বাংলাদেশ",শালিখা উপজেলা,বাংলাদেশ,খুলনা বিভাগ,local_admin,boundaries,['place_of_worship_muslim'],[],Bangladesh,Khulna,Magura,Shalikha,Bunagati,7fbf07ae019a8a72998e6f5854a311ba
2809066048.0,893cf029e43ffff,23.3121397,89.418969,গ্রামীণ ব্যাংক,['Grameen Bank'],"Grameen Bank, Shalikha Upazila, Magura District, Khulna Division, Bangladesh","গ্রামীণ ব্যাংক, শালিখা উপজেলা, মাগুরা জেলা, খুলনা বিভাগ, বাংলাদেশ",শালিখা উপজেলা,বাংলাদেশ,খুলনা বিভাগ,local_admin,boundaries,['bank'],[],Bangladesh,Khulna,Magura,Shalikha,Bunagati,7fbf07ae019a8a72998e6f5854a311ba
5174124756.0,893cf02108bffff,23.4854267,89.419105,Jessore Bus Stand,,"Jessore Bus Stand, Magura, Magura District, Khulna Division, Bangladesh","জেসোর বাস স্ট্যান্ড, মাগুরা জেলা, খুলনা বিভাগ, বাংলাদেশ",Magura,বাংলাদেশ,খুলনা বিভাগ,street,boundaries,['bus_stop'],[],Bangladesh,Khulna,Magura,MaguraSadar,MaguraPaurashava,f64af54aa72a064b7288b63e87d9e0a8
5174129825.0,893cf0210d7ffff,23.4853574,89.4188902,ডাচ-বাংলা ব্যাংক এটিএম,"['ডাচ বাংলা ব্যাংক এটিএম', 'Dutch Bangla Bank ATM']","Dutch-Bangla Bank ATM, Magura, Magura District, Khulna Division, Bangladesh","ডাচ-বাংলা ব্যাংক এটিএম, মাগুরা জেলা, খুলনা বিভাগ, বাংলাদেশ",Magura,বাংলাদেশ,খুলনা বিভাগ,local_admin,boundaries,['atm'],[],Bangladesh,Khulna,Magura,MaguraSadar,MaguraPaurashava,f64af54aa72a064b7288b63e87d9e0a8
5174131171.0,893cf0210d7ffff,23.4855505,89.4187145,Munshi Monirul Haque Market,,"Munshi Monirul Haque Market, Magura, Magura District, Khulna Division, Bangladesh","মুন্সি মনিরুল হক মার্কেট, মাগুরা জেলা, খুলনা বিভাগ, বাংলাদেশ",Magura,বাংলাদেশ,খুলনা বিভাগ,local_admin,boundaries,['mall'],[],Bangladesh,Khulna,Magura,MaguraSadar,MaguraPaurashava,f64af54aa72a064b7288b63e87d9e0a8
5174131445.0,893cf0210d7ffff,23.4855566,89.4178887,Jhenaidah Bus Stand,,"Jhenaidah Bus Stand, Magura, Magura District, Khulna Division, Bangladesh","ঝেনাইদাহ বাস স্ট্যান্ড, মাগুরা জেলা, খুলনা বিভাগ, বাংলাদেশ",Magura,বাংলাদেশ,খুলনা বিভাগ,street,boundaries,['bus_stop'],[],Bangladesh,Khulna,Magura,MaguraSadar,MaguraPaurashava,f64af54aa72a064b7288b63e87d9e0a8
5174138598.0,893cf02108bffff,23.4864815,89.4192948,,,"Magura, Magura District, Khulna Division, Bangladesh","মাগুরা জেলা, খুলনা বিভাগ, বাংলাদেশ",Magura,বাংলাদেশ,খুলনা বিভাগ,local_admin,boundaries,['atm'],[],Bangladesh,Khulna,Magura,MaguraSadar,MaguraPaurashava,f64af54aa72a064b7288b63e87d9e0a8
5175727048.0,893cf0210bbffff,23.4879425,89.4283993,Dhaka Road Bus Stop,,"Dhaka Road Bus Stop, Magura, Magura District, Khulna Division, Bangladesh","Dhaka াকা রোড বাস স্টপ, মাগুরা জেলা, খুলনা বিভাগ, বাংলাদেশ",Magura,বাংলাদেশ,খুলনা বিভাগ,street,boundaries,['bus_stop'],[],Bangladesh,Khulna,Magura,MaguraSadar,MaguraPaurashava,f64af54aa72a064b7288b63e87d9e0a8
5175731964.0,893cf0210bbffff,23.4880276,89.4278818,প্রাইম ব্যাংক লিমিটেড,['Prime Bank Limited'],"Prime Bank Limited, Magura, Magura District, Khulna Division, Bangladesh","প্রাইম ব্যাংক লিমিটেড, মাগুরা জেলা, খুলনা বিভাগ, বাংলাদেশ",Magura,বাংলাদেশ,খুলনা বিভাগ,local_admin,boundaries,['bank'],[],Bangladesh,Khulna,Magura,MaguraSadar,MaguraPaurashava,f64af54aa72a064b7288b63e87d9e0a8
5175734440.0,893cf0210bbffff,23.487837,89.4278161,এক্সিম ব্যাংক লিমিটেড,['Exim Bank Limited'],"Axim Bank Limited, Magura, Magura District, Khulna Division, Bangladesh","এক্সিম ব্যাংক লিমিটেড, মাগুরা জেলা, খুলনা বিভাগ, বাংলাদেশ",Magura,বাংলাদেশ,খুলনা বিভাগ,local_admin,boundaries,['bank'],[],Bangladesh,Khulna,Magura,MaguraSadar,MaguraPaurashava,f64af54aa72a064b7288b63e87d9e0a8
5175752137.0,893cf021527ffff,23.5058353,89.4461634,Loxmikandor Bus Station,,"Loxmikandor Bus Station, Magura, Magura District, Khulna Division, Bangladesh","লক্সমিকান্ডর বাস স্টেশন, মাগুরা জেলা, খুলনা বিভাগ, বাংলাদেশ",Magura,বাংলাদেশ,খুলনা বিভাগ,street,boundaries,['bus_stop'],[],Bangladesh,Khulna,Magura,MaguraSadar,MaguraPaurashava,f64af54aa72a064b7288b63e87d9e0a8
5175756967.0,893cf0203d7ffff,23.5201108,89.4702357,Ramnagar Bazar,,"Ramnagar Bazar, Magura, Magura District, Khulna Division, Bangladesh","রামনগর বাজার, মাগুরা জেলা, খুলনা বিভাগ, বাংলাদেশ",Magura,বাংলাদেশ,খুলনা বিভাগ,local_admin,boundaries,['variety_store'],[],Bangladesh,Khulna,Magura,MaguraSadar,Kasundi,a5c3136adaac4f7f6445b90078aa6f31
5174089517.0,893cf07480bffff,23.3253773,89.3169543,Muslim Hotel,,"Muslim Hotel, Shalikha Upazila, Magura District, Khulna Division, Bangladesh","মুসলিম হোটেল, শালিখা উপজেলা, মাগুরা জেলা, খুলনা বিভাগ, বাংলাদেশ",শালিখা উপজেলা,বাংলাদেশ,খুলনা বিভাগ,local_admin,boundaries,['restaurant'],[],Bangladesh,Khulna,Magura,Shalikha,Talkhari,b8463ccdc25736fc2c4392cef01826b2
5174091821.0,893cf07480bffff,23.3254937,89.3170256,Shoriful Store শরিফুল স্টোর,,"Shoriful Store, Shalikha Upazila, Magura District, Khulna Division, Bangladesh","শরিফুল স্টোর, শালিখা উপজেলা, মাগুরা জেলা, খুলনা বিভাগ, বাংলাদেশ",শালিখা উপজেলা,বাংলাদেশ,খুলনা বিভাগ,local_admin,boundaries,['mall'],[],Bangladesh,Khulna,Magura,Shalikha,Talkhari,b8463ccdc25736fc2c4392cef01826b2
5174091895.0,893cf07480fffff,23.3258061,89.3172805,Simakhali Market সীমাখালী বাজার,,"Simakhali Market, Shalikha Upazila, Magura District, Khulna Division, Bangladesh","সীমাখালী বাজার, শালিখা উপজেলা, মাগুরা জেলা, খুলনা বিভাগ, বাংলাদেশ",শালিখা উপজেলা,বাংলাদেশ,খুলনা বিভাগ,local_admin,boundaries,['marketplace'],[],Bangladesh,Khulna,Magura,Shalikha,Shatakhali,4f931444f3d837b59aeff5d483d579df
5174092737.0,893cf07480fffff,23.3257076,89.3173476,Mollah Book Centre,,"Mollah Book Centre, Shalikha Upazila, Magura District, Khulna Division, Bangladesh","মোল্লা বই কেন্দ্র, শালিখা উপজেলা, মাগুরা জেলা, খুলনা বিভাগ, বাংলাদেশ",শালিখা উপজেলা,বাংলাদেশ,খুলনা বিভাগ,local_admin,boundaries,['bookshop'],[],Bangladesh,Khulna,Magura,Shalikha,Shatakhali,4f931444f3d837b59aeff5d483d579df
6151826944.0,893cf0210a3ffff,23.4901009,89.4318112,Alokdia Bazar,,"Alokdia Bazar, Magura, Magura District, Khulna Division, Bangladesh","অ্যালোকডিয়া বাজার, মাগুরা জেলা, খুলনা বিভাগ, বাংলাদেশ",Magura,বাংলাদেশ,খুলনা বিভাগ,local_admin,boundaries,['marketplace'],[],Bangladesh,Khulna,Magura,MaguraSadar,MaguraPaurashava,f64af54aa72a064b7288b63e87d9e0a8
6382154812.0,893cf02142bffff,23.49429,89.4154385,নতুন বাজার,,"New Market, Magura, Magura District, Khulna Division, Bangladesh","নতুন বাজার, মাগুরা জেলা, খুলনা বিভাগ, বাংলাদেশ",Magura,বাংলাদেশ,খুলনা বিভাগ,local_admin,boundaries,['marketplace'],[],Bangladesh,Khulna,Magura,MaguraSadar,MaguraPaurashava,f64af54aa72a064b7288b63e87d9e0a8
6382154939.0,893cf02142bffff,23.4948752,89.4149829,মাছের বাজার,,"The fish market, Magura, Magura District, Khulna Division, Bangladesh","মাছের বাজার, মাগুরা জেলা, খুলনা বিভাগ, বাংলাদেশ",Magura,বাংলাদেশ,খুলনা বিভাগ,local_admin,boundaries,['seafood'],[],Bangladesh,Khulna,Magura,MaguraSadar,MaguraPaurashava,f64af54aa72a064b7288b63e87d9e0a8
6618920885.0,893cf02ac87ffff,23.4524746,89.4381637,,['Madinatul Ulum Madrasa'],"Magura, Magura District, Khulna Division, Bangladesh","মাগুরা জেলা, খুলনা বিভাগ, বাংলাদেশ",Magura,বাংলাদেশ,খুলনা বিভাগ,local_admin,boundaries,['school'],[],Bangladesh,Khulna,Magura,MaguraSadar,Chaulia,35b1bf839e922c2c7f433f4929060730
9587817346.0,893cf02108bffff,23.4860235,89.4217539,Nova Medical and Diagonestic Center,,"Nova Medical and Diagonestic Center, Magura, Magura District, Khulna Division, Bangladesh","নোভা মেডিকেল এবং ডায়াগনস্টিক সেন্টার, মাগুরা জেলা, খুলনা বিভাগ, বাংলাদেশ",Magura,বাংলাদেশ,খুলনা বিভাগ,local_admin,boundaries,['clinic'],[],Bangladesh,Khulna,Magura,MaguraSadar,MaguraPaurashava,f64af54aa72a064b7288b63e87d9e0a8
9587817347.0,893cf02108bffff,23.4860063,89.4220704,Shondhani Diagonestic Center,,"Shondhani Diagonestic Center, Magura, Magura District, Khulna Division, Bangladesh","সন্ধানি ডায়াগনস্টিক সেন্টার, মাগুরা জেলা, খুলনা বিভাগ, বাংলাদেশ",Magura,বাংলাদেশ,খুলনা বিভাগ,local_admin,boundaries,['pharmacy'],[],Bangladesh,Khulna,Magura,MaguraSadar,MaguraPaurashava,f64af54aa72a064b7288b63e87d9e0a8
9587817348.0,893cf021013ffff,23.4859752,89.4222106,Asia Pharmacy,,"Asia Pharmacy, Magura, Magura District, Khulna Division, Bangladesh","এশিয়া ফার্মাসি, মাগুরা জেলা, খুলনা বিভাগ, বাংলাদেশ",Magura,বাংলাদেশ,খুলনা বিভাগ,local_admin,boundaries,['pharmacy'],[],Bangladesh,Khulna,Magura,MaguraSadar,MaguraPaurashava,f64af54aa72a064b7288b63e87d9e0a8
9587817349.0,893cf021013ffff,23.4859957,89.4223122,Magura Medicine,,"Magura Medicine, Magura, Magura District, Khulna Division, Bangladesh","মাগুরা মেডিসিন, মাগুরা জেলা, খুলনা বিভাগ, বাংলাদেশ",Magura,বাংলাদেশ,খুলনা বিভাগ,local_admin,boundaries,['pharmacy'],[],Bangladesh,Khulna,Magura,MaguraSadar,MaguraPaurashava,f64af54aa72a064b7288b63e87d9e0a8
9587817350.0,893cf021013ffff,23.4860164,89.4224207,Ashik Medical,,"Ashik Medical, Magura, Magura District, Khulna Division, Bangladesh","আশিক মেডিকেল, মাগুরা জেলা, খুলনা বিভাগ, বাংলাদেশ",Magura,বাংলাদেশ,খুলনা বিভাগ,local_admin,boundaries,['pharmacy'],[],Bangladesh,Khulna,Magura,MaguraSadar,MaguraPaurashava,f64af54aa72a064b7288b63e87d9e0a8
9587817351.0,893cf021013ffff,23.4860342,89.4226437,Alif Medical,,"Alif Medical, Magura, Magura District, Khulna Division, Bangladesh","আলিফ মেডিকেল, মাগুরা জেলা, খুলনা বিভাগ, বাংলাদেশ",Magura,বাংলাদেশ,খুলনা বিভাগ,local_admin,boundaries,['pharmacy'],[],Bangladesh,Khulna,Magura,MaguraSadar,MaguraPaurashava,f64af54aa72a064b7288b63e87d9e0a8
9587817352.0,893cf021013ffff,23.4860147,89.4228136,Vital Medical Hall,,"Vital Medical Hall, Magura, Magura District, Khulna Division, Bangladesh","গুরুত্বপূর্ণ মেডিকেল হল, মাগুরা জেলা, খুলনা বিভাগ, বাংলাদেশ",Magura,বাংলাদেশ,খুলনা বিভাগ,local_admin,boundaries,['pharmacy'],[],Bangladesh,Khulna,Magura,MaguraSadar,MaguraPaurashava,f64af54aa72a064b7288b63e87d9e0a8
9587817353.0,893cf021013ffff,23.4860212,89.4229268,Aroggo Clinic,,"Aroggo Clinic, Magura, Magura District, Khulna Division, Bangladesh","আরোগগো ক্লিনিক, মাগুরা জেলা, খুলনা বিভাগ, বাংলাদেশ",Magura,বাংলাদেশ,খুলনা বিভাগ,local_admin,boundaries,['clinic'],[],Bangladesh,Khulna,Magura,MaguraSadar,MaguraPaurashava,f64af54aa72a064b7288b63e87d9e0a8
9587817354.0,893cf021013ffff,23.4860307,89.4231573,Altra Lab Medical Services,,"Altra Lab Medical Services, Magura, Magura District, Khulna Division, Bangladesh","আল্ট্রা ল্যাব মেডিকেল সার্ভিসেস, মাগুরা জেলা, খুলনা বিভাগ, বাংলাদেশ",Magura,বাংলাদেশ,খুলনা বিভাগ,local_admin,boundaries,['clinic'],[],Bangladesh,Khulna,Magura,MaguraSadar,MaguraPaurashava,f64af54aa72a064b7288b63e87d9e0a8
9587817355.0,893cf02108bffff,23.4859555,89.4217566,Nazia Pharmacy,,"Nazia Pharmacy, Magura, Magura District, Khulna Division, Bangladesh","নাজিয়া ফার্মাসি, মাগুরা জেলা, খুলনা বিভাগ, বাংলাদেশ",Magura,বাংলাদেশ,খুলনা বিভাগ,local_admin,boundaries,['pharmacy'],[],Bangladesh,Khulna,Magura,MaguraSadar,MaguraPaurashava,f64af54aa72a064b7288b63e87d9e0a8
9587817356.0,893cf02108bffff,23.4859543,89.4216232,Confort Medical Center,,"Confort Medical Center, Magura, Magura District, Khulna Division, Bangladesh","মেডিকেল সেন্টার কনফার্ট, মাগুরা জেলা, খুলনা বিভাগ, বাংলাদেশ",Magura,বাংলাদেশ,খুলনা বিভাগ,local_admin,boundaries,['clinic'],[],Bangladesh,Khulna,Magura,MaguraSadar,MaguraPaurashava,f64af54aa72a064b7288b63e87d9e0a8
9587817357.0,893cf02108bffff,23.4859442,89.4215746,Shopna Diagonestic Center,,"Shopna Diagonestic Center, Magura, Magura District, Khulna Division, Bangladesh","সাপনা ডায়াগনস্টিক সেন্টার, মাগুরা জেলা, খুলনা বিভাগ, বাংলাদেশ",Magura,বাংলাদেশ,খুলনা বিভাগ,local_admin,boundaries,['clinic'],[],Bangladesh,Khulna,Magura,MaguraSadar,MaguraPaurashava,f64af54aa72a064b7288b63e87d9e0a8
9587817358.0,893cf02108bffff,23.4859482,89.4214927,Magura Pharmacy,,"Magura Pharmacy, Magura, Magura District, Khulna Division, Bangladesh","মাগুরা ফার্মাসি, মাগুরা জেলা, খুলনা বিভাগ, বাংলাদেশ",Magura,বাংলাদেশ,খুলনা বিভাগ,local_admin,boundaries,['pharmacy'],[],Bangladesh,Khulna,Magura,MaguraSadar,MaguraPaurashava,f64af54aa72a064b7288b63e87d9e0a8
9587817359.0,893cf02108bffff,23.4859462,89.4214042,Magura Pathology Center,,"Magura Pathology Center, Magura, Magura District, Khulna Division, Bangladesh","মাগুরা প্যাথলজি সেন্টার, মাগুরা জেলা, খুলনা বিভাগ, বাংলাদেশ",Magura,বাংলাদেশ,খুলনা বিভাগ,local_admin,boundaries,['clinic'],[],Bangladesh,Khulna,Magura,MaguraSadar,MaguraPaurashava,f64af54aa72a064b7288b63e87d9e0a8
9587817360.0,893cf02108bffff,23.4859157,89.4210415,Green View Diagonestic Center,,"Green View Diagonestic Center, Magura, Magura District, Khulna Division, Bangladesh","গ্রিন ভিউ ডায়াগনস্টিক সেন্টার, মাগুরা জেলা, খুলনা বিভাগ, বাংলাদেশ",Magura,বাংলাদেশ,খুলনা বিভাগ,local_admin,boundaries,['clinic'],[],Bangladesh,Khulna,Magura,MaguraSadar,MaguraPaurashava,f64af54aa72a064b7288b63e87d9e0a8
9587817361.0,893cf02108bffff,23.4879071,89.4199304,"Sowrawardi College, Magura",,"Sowrawardi College Magura, Magura, Magura District, Khulna Division, Bangladesh","সুহরাওয়ার্দি কলেজ মাগুরা, মাগুরা জেলা, খুলনা বিভাগ, বাংলাদেশ",Magura,বাংলাদেশ,খুলনা বিভাগ,local_admin,boundaries,['school'],[],Bangladesh,Khulna,Magura,MaguraSadar,MaguraPaurashava,f64af54aa72a064b7288b63e87d9e0a8
9587817366.0,893cf0212cbffff,23.4561106,89.4103052,Adarsho Govt Primary School,,"Adarsho Govt Primary School, Magura, Magura District, Khulna Division, Bangladesh","অ্যাডারশো সরকারী প্রাথমিক বিদ্যালয়, মাগুরা জেলা, খুলনা বিভাগ, বাংলাদেশ",Magura,বাংলাদেশ,খুলনা বিভাগ,local_admin,boundaries,['school'],[],Bangladesh,Khulna,Magura,MaguraSadar,MaguraPaurashava,f64af54aa72a064b7288b63e87d9e0a8
9587817367.0,893cf02a1c7ffff,23.4394025,89.4068922,Sheikh Para Govt Primary School,,"Sheikh Para Govt Primary School, Magura, Magura District, Khulna Division, Bangladesh","শেখ প্যারা সরকার প্রাথমিক বিদ্যালয়, মাগুরা জেলা, খুলনা বিভাগ, বাংলাদেশ",Magura,বাংলাদেশ,খুলনা বিভাগ,local_admin,boundaries,['school'],[],Bangladesh,Khulna,Magura,MaguraSadar,Maghi,8a4e50477e781787a8cefad5ecd933fe
9603772499.0,893cf02149bffff,23.5052756,89.4006685,Govt Primary School,,"Govt Primary School, Magura, Magura District, Khulna Division, Bangladesh","সরকারী প্রাথমিক বিদ্যালয়, মাগুরা জেলা, খুলনা বিভাগ, বাংলাদেশ",Magura,বাংলাদেশ,খুলনা বিভাগ,local_admin,boundaries,['school'],[],Bangladesh,Khulna,Magura,MaguraSadar,MaguraPaurashava,f64af54aa72a064b7288b63e87d9e0a8
9603772500.0,893cf021493ffff,23.5085873,89.4013327,High School,,"High School, Magura, Magura District, Khulna Division, Bangladesh","উচ্চ বিদ্যালয, মাগুরা জেলা, খুলনা বিভাগ, বাংলাদেশ",Magura,বাংলাদেশ,খুলনা বিভাগ,local_admin,boundaries,['school'],[],Bangladesh,Khulna,Magura,MaguraSadar,MaguraPaurashava,f64af54aa72a064b7288b63e87d9e0a8
436825396.0,893cf02146fffff,23.48637276,89.41487245,Magura Govt. High School,['মাগুরা সরকারী উচ্চ বিদ্যালয়'],"Magura Govt. High School, Magura, Magura District, Khulna Division, Bangladesh","মাগুরা সরকারউচ্চ বিদ্যালয, মাগুরা জেলা, খুলনা বিভাগ, বাংলাদেশ",Magura,বাংলাদেশ,খুলনা বিভাগ,local_admin,boundaries,['school'],[],Bangladesh,Khulna,Magura,MaguraSadar,MaguraPaurashava,f64af54aa72a064b7288b63e87d9e0a8
436826921.0,893cf02146fffff,23.48646206,89.41409412,Magura Govt High School Play Ground,,"Magura Govt High School Play Ground, Magura, Magura District, Khulna Division, Bangladesh","মাগুরা সরকারী উচ্চ বিদ্যালয়ের খেলার মাঠ, মাগুরা জেলা, খুলনা বিভাগ, বাংলাদেশ",Magura,বাংলাদেশ,খুলনা বিভাগ,local_admin,boundaries,['playground'],[],Bangladesh,Khulna,Magura,MaguraSadar,MaguraPaurashava,f64af54aa72a064b7288b63e87d9e0a8
533306311.0,893cf02a197ffff,23.44767232,89.40997497,Katakhali Bazar,,"Katakhali Bazar, Magura, Magura District, Khulna Division, Bangladesh","কাতাখালি বাজার, মাগুরা জেলা, খুলনা বিভাগ, বাংলাদেশ",Magura,বাংলাদেশ,খুলনা বিভাগ,local_admin,boundaries,['marketplace'],[],Bangladesh,Khulna,Magura,MaguraSadar,Maghi,8a4e50477e781787a8cefad5ecd933fe
533306699.0,893cf0210d7ffff,23.48544213,89.418757,Walton Exclusive Showroom,,"Walton Exclusive Showroom, Magura, Magura District, Khulna Division, Bangladesh","ওয়ালটন এক্সক্লুসিভ শোরুম, মাগুরা জেলা, খুলনা বিভাগ, বাংলাদেশ",Magura,বাংলাদেশ,খুলনা বিভাগ,local_admin,boundaries,['electronics'],[],Bangladesh,Khulna,Magura,MaguraSadar,MaguraPaurashava,f64af54aa72a064b7288b63e87d9e0a8
533306915.0,893cf0210d7ffff,23.4854401,89.41854535,Sonar bangla hotel & restaurant,,"Sonar bangla hotel & restaurant, Magura, Magura District, Khulna Division, Bangladesh","সোনার বাংলা হোটেল ও রেস্তোঁরা, মাগুরা জেলা, খুলনা বিভাগ, বাংলাদেশ",Magura,বাংলাদেশ,খুলনা বিভাগ,local_admin,boundaries,['hotel'],[],Bangladesh,Khulna,Magura,MaguraSadar,MaguraPaurashava,f64af54aa72a064b7288b63e87d9e0a8
533307229.0,893cf0210d7ffff,23.48545017,89.41777357,অগ্রণী ব্যাংক লিমিটেড,['Agrani Bank Limited'],"Agrani Bank Limited, Magura, Magura District, Khulna Division, Bangladesh","অগ্রণী ব্যাংক লিমিটেড, মাগুরা জেলা, খুলনা বিভাগ, বাংলাদেশ",Magura,বাংলাদেশ,খুলনা বিভাগ,local_admin,boundaries,['bank'],[],Bangladesh,Khulna,Magura,MaguraSadar,MaguraPaurashava,f64af54aa72a064b7288b63e87d9e0a8
533307286.0,893cf02108bffff,23.48610342,89.41892365,Madrasha Market মাদ্রাসা বাজার,,"Madrasha Market, Magura, Magura District, Khulna Division, Bangladesh","মাদ্রাসা বাজার, মাগুরা জেলা, খুলনা বিভাগ, বাংলাদেশ",Magura,বাংলাদেশ,খুলনা বিভাগ,local_admin,boundaries,['marketplace'],[],Bangladesh,Khulna,Magura,MaguraSadar,MaguraPaurashava,f64af54aa72a064b7288b63e87d9e0a8
533307415.0,893cf02108bffff,23.48610474,89.41923617,kashinathpur drugs,,"kashinathpur drugs, Magura, Magura District, Khulna Division, Bangladesh","কাশীনাথপুর ড্রাগস, মাগুরা জেলা, খুলনা বিভাগ, বাংলাদেশ",Magura,বাংলাদেশ,খুলনা বিভাগ,local_admin,boundaries,['pharmacy'],[],Bangladesh,Khulna,Magura,MaguraSadar,MaguraPaurashava,f64af54aa72a064b7288b63e87d9e0a8
533307468.0,893cf02108bffff,23.48666108,89.41943559,রূপালী ব্যাংক লিমিটেড,['Rupali Bank Limited'],"Rupali Bank Limited, Magura, Magura District, Khulna Division, Bangladesh","রূপালী ব্যাংক লিমিটেড, মাগুরা জেলা, খুলনা বিভাগ, বাংলাদেশ",Magura,বাংলাদেশ,খুলনা বিভাগ,local_admin,boundaries,['bank'],[],Bangladesh,Khulna,Magura,MaguraSadar,MaguraPaurashava,f64af54aa72a064b7288b63e87d9e0a8
533307792.0,893cf02108bffff,23.48552469,89.4196109,Zaman & Datta Filling Station,,"Zaman & Datta Filling Station, Magura, Magura District, Khulna Division, Bangladesh","জামান ও দত্ত ফিলিং স্টেশন, মাগুরা জেলা, খুলনা বিভাগ, বাংলাদেশ",Magura,বাংলাদেশ,খুলনা বিভাগ,local_admin,boundaries,['fuel'],[],Bangladesh,Khulna,Magura,MaguraSadar,MaguraPaurashava,f64af54aa72a064b7288b63e87d9e0a8
533307852.0,893cf02108bffff,23.48598584,89.42119953,Mamun Pharmacy মামুন ফার্মেসী,,"Mamun Pharmacy, Magura, Magura District, Khulna Division, Bangladesh","মামুন ফার্মেসী, মাগুরা জেলা, খুলনা বিভাগ, বাংলাদেশ",Magura,বাংলাদেশ,খুলনা বিভাগ,local_admin,boundaries,['pharmacy'],[],Bangladesh,Khulna,Magura,MaguraSadar,MaguraPaurashava,f64af54aa72a064b7288b63e87d9e0a8
533503931.0,893cf021017ffff,23.48637906,89.42663471,"উপ পরিচালেকর কার্যালয়, খামারবাড়ী, মাগুরা",,"Deputy Director's Office Magura, Magura, Magura District, Khulna Division, Bangladesh","উপ পরিচালেকর কার্যালয় খামারবাড়ী মাগুরা, মাগুরা জেলা, খুলনা বিভাগ, বাংলাদেশ",Magura,বাংলাদেশ,খুলনা বিভাগ,local_admin,boundaries,['government'],[],Bangladesh,Khulna,Magura,MaguraSadar,MaguraPaurashava,f64af54aa72a064b7288b63e87d9e0a8
533503956.0,893cf021017ffff,23.48656582,89.42731601,Hotel Eagle হোটেল ঈগল,,"Hotel Eagle, Magura, Magura District, Khulna Division, Bangladesh","হোটেল ঈগল, মাগুরা জেলা, খুলনা বিভাগ, বাংলাদেশ",Magura,বাংলাদেশ,খুলনা বিভাগ,local_admin,boundaries,['hotel'],[],Bangladesh,Khulna,Magura,MaguraSadar,MaguraPaurashava,f64af54aa72a064b7288b63e87d9e0a8
533503977.0,893cf021017ffff,23.48664814,89.42765757,Khan Sweets খান মিষ্টি,,"Khan Sweets, Magura, Magura District, Khulna Division, Bangladesh","খান মিষ্টি, মাগুরা জেলা, খুলনা বিভাগ, বাংলাদেশ",Magura,বাংলাদেশ,খুলনা বিভাগ,local_admin,boundaries,['restaurant'],[],Bangladesh,Khulna,Magura,MaguraSadar,MaguraPaurashava,f64af54aa72a064b7288b63e87d9e0a8
533504252.0,893cf0210bbffff,23.48739596,89.42802376,Asma Auto আসমা অটো,,"Asma Auto, Magura, Magura District, Khulna Division, Bangladesh","আসমা অটো, মাগুরা জেলা, খুলনা বিভাগ, বাংলাদেশ",Magura,বাংলাদেশ,খুলনা বিভাগ,local_admin,boundaries,['electronics'],[],Bangladesh,Khulna,Magura,MaguraSadar,MaguraPaurashava,f64af54aa72a064b7288b63e87d9e0a8
533504256.0,893cf0210bbffff,23.48761776,89.42814755,Anam Pharmacy এনাম ফার্মেসি,,"Anam Pharmacy, Magura, Magura District, Khulna Division, Bangladesh","এনাম ফার্মেসি, মাগুরা জেলা, খুলনা বিভাগ, বাংলাদেশ",Magura,বাংলাদেশ,খুলনা বিভাগ,local_admin,boundaries,['pharmacy'],[],Bangladesh,Khulna,Magura,MaguraSadar,MaguraPaurashava,f64af54aa72a064b7288b63e87d9e0a8
533504263.0,893cf0210bbffff,23.48777729,89.42821966,Jhantu hotels and restaurants ঝন্টু হোটেল অ্যান্ড রেস্টুরেন্ট,,"Jhantu hotels and restaurants, Magura, Magura District, Khulna Division, Bangladesh","ঝন্টু হোটেল অ্যান্ড রেস্টুরেন্ট, মাগুরা জেলা, খুলনা বিভাগ, বাংলাদেশ",Magura,বাংলাদেশ,খুলনা বিভাগ,local_admin,boundaries,['restaurant'],[],Bangladesh,Khulna,Magura,MaguraSadar,MaguraPaurashava,f64af54aa72a064b7288b63e87d9e0a8
533505158.0,893cf0210bbffff,23.48782139,89.42862492,পিকুল ষ্টোর মাগুরা,,"Pikul Stor Magura, Magura, Magura District, Khulna Division, Bangladesh","পিকুল ষ্টোর মাগুরা, মাগুরা জেলা, খুলনা বিভাগ, বাংলাদেশ",Magura,বাংলাদেশ,খুলনা বিভাগ,local_admin,boundaries,['cafe'],[],Bangladesh,Khulna,Magura,MaguraSadar,MaguraPaurashava,f64af54aa72a064b7288b63e87d9e0a8
533505609.0,893cf0210bbffff,23.48836251,89.42703505,Ma homeo hall মা হোমিও হল,,"Ma homeo hall, Magura, Magura District, Khulna Division, Bangladesh","মা হোমিও হল, মাগুরা জেলা, খুলনা বিভাগ, বাংলাদেশ",Magura,বাংলাদেশ,খুলনা বিভাগ,local_admin,boundaries,['pharmacy'],[],Bangladesh,Khulna,Magura,MaguraSadar,MaguraPaurashava,f64af54aa72a064b7288b63e87d9e0a8
533505646.0,893cf0210bbffff,23.4885534,89.42866955,Hotel Saikot হোটেল সৈকত,,"Hotel Saikot, Magura, Magura District, Khulna Division, Bangladesh","হোটেল সৈকত, মাগুরা জেলা, খুলনা বিভাগ, বাংলাদেশ",Magura,বাংলাদেশ,খুলনা বিভাগ,local_admin,boundaries,['hotel'],[],Bangladesh,Khulna,Magura,MaguraSadar,MaguraPaurashava,f64af54aa72a064b7288b63e87d9e0a8
533506026.0,893cf0210b3ffff,23.49066463,89.42936644,Bepari Para Jame Masjid বেপারী পাড়া জামে মসজিদ,,"Bepari Para Jame Masjid, Magura, Magura District, Khulna Division, Bangladesh","বেপারী পাড়া জামে মসজিদ, মাগুরা জেলা, খুলনা বিভাগ, বাংলাদেশ",Magura,বাংলাদেশ,খুলনা বিভাগ,local_admin,boundaries,['place_of_worship_muslim'],[],Bangladesh,Khulna,Magura,MaguraSadar,MaguraPaurashava,f64af54aa72a064b7288b63e87d9e0a8
533506656.0,893cf0210b7ffff,23.49247758,89.43042139,Sheikh Para Jame Moshjid শেখ পাড়া জামে মসজিদ,,"Sheikh Para Jame Moshjid, Magura, Magura District, Khulna Division, Bangladesh","শেখ পাড়া জামে মসজিদ, মাগুরা জেলা, খুলনা বিভাগ, বাংলাদেশ",Magura,বাংলাদেশ,খুলনা বিভাগ,local_admin,boundaries,['place_of_worship_muslim'],[],Bangladesh,Khulna,Magura,MaguraSadar,MaguraPaurashava,f64af54aa72a064b7288b63e87d9e0a8
533506779.0,893cf02154fffff,23.49491646,89.43093501,বিত্তিপাড়া-শেখপাড়া জামে মসজিদ,,"Bittipara-Shekhpara Jame Mosque, Magura, Magura District, Khulna Division, Bangladesh","বিত্তিপাড়া-শেখপাড়া জামে মসজিদ, মাগুরা জেলা, খুলনা বিভাগ, বাংলাদেশ",Magura,বাংলাদেশ,খুলনা বিভাগ,local_admin,boundaries,['place_of_worship_muslim'],[],Bangladesh,Khulna,Magura,MaguraSadar,MaguraPaurashava,f64af54aa72a064b7288b63e87d9e0a8
533506883.0,893cf02157bffff,23.49710879,89.43345541,Hanif Highway Filling Station হানিফ হাইওয়ে ফিলিং স্টেশনের,,"Hanif Highway Filling Station, Magura, Magura District, Khulna Division, Bangladesh","হানিফ হাইওয়ে ফিলিং স্টেশনের, মাগুরা জেলা, খুলনা বিভাগ, বাংলাদেশ",Magura,বাংলাদেশ,খুলনা বিভাগ,local_admin,boundaries,['fuel'],[],Bangladesh,Khulna,Magura,MaguraSadar,MaguraPaurashava,f64af54aa72a064b7288b63e87d9e0a8
533506976.0,893cf02157bffff,23.49736414,89.43229975,Magura Bus Terminal Jame Mosque মাগুরা বাস টার্মিনাল জামে মসজিদ,,"Magura Bus Terminal Jame Mosque, Magura, Magura District, Khulna Division, Bangladesh","মাগুরা বাস টার্মিনাল জামে মসজিদ, মাগুরা জেলা, খুলনা বিভাগ, বাংলাদেশ",Magura,বাংলাদেশ,খুলনা বিভাগ,local_admin,boundaries,['place_of_worship_muslim'],[],Bangladesh,Khulna,Magura,MaguraSadar,MaguraPaurashava,f64af54aa72a064b7288b63e87d9e0a8
533507183.0,893cf02157bffff,23.49710821,89.43246772,Magura Main Bus Terminal মাগুরা প্রধান বাস টার্মিনাল,,"Magura Main Bus Terminal, Magura, Magura District, Khulna Division, Bangladesh","মাগুরা প্রধান বাস টার্মিনাল, মাগুরা জেলা, খুলনা বিভাগ, বাংলাদেশ",Magura,বাংলাদেশ,খুলনা বিভাগ,local_admin,boundaries,['bus_station'],[],Bangladesh,Khulna,Magura,MaguraSadar,MaguraPaurashava,f64af54aa72a064b7288b63e87d9e0a8
533507251.0,893cf021573ffff,23.49805114,89.43325264,Nahar Filling Station নাহার ফিলিং স্টেশনে,,"Nahar Filling Station, Magura, Magura District, Khulna Division, Bangladesh","নাহার ফিলিং স্টেশনে, মাগুরা জেলা, খুলনা বিভাগ, বাংলাদেশ",Magura,বাংলাদেশ,খুলনা বিভাগ,local_admin,boundaries,['fuel'],[],Bangladesh,Khulna,Magura,MaguraSadar,MaguraPaurashava,f64af54aa72a064b7288b63e87d9e0a8
533507419.0,893cf021523ffff,23.50269125,89.44015033,Magura Filling Station মাগুরা ফিলিং স্টেশন,,"Magura Filling Station, Magura, Magura District, Khulna Division, Bangladesh","মাগুরা ফিলিং স্টেশন, মাগুরা জেলা, খুলনা বিভাগ, বাংলাদেশ",Magura,বাংলাদেশ,খুলনা বিভাগ,local_admin,boundaries,['fuel'],[],Bangladesh,Khulna,Magura,MaguraSadar,MaguraPaurashava,f64af54aa72a064b7288b63e87d9e0a8
533507632.0,893cf020253ffff,23.50587917,89.44660778,S S P Filling Station এস এস পি ফিলিং স্টেশনে,,"S S P Filling Station, Magura, Magura District, Khulna Division, Bangladesh","এস এস পি ফিলিং স্টেশনে, মাগুরা জেলা, খুলনা বিভাগ, বাংলাদেশ",Magura,বাংলাদেশ,খুলনা বিভাগ,local_admin,boundaries,['fuel'],[],Bangladesh,Khulna,Magura,MaguraSadar,MaguraPaurashava,f64af54aa72a064b7288b63e87d9e0a8
533508317.0,893cf02038fffff,23.52298591,89.47943177,Kestopur Bazar,,"Kestopur Bazar, Sreepur Upazila (Magura), Magura District, Khulna Division, Bangladesh","কেস্টোপুর বাজার, শ্রীপুর উপজেলা মাগুরা, মাগুরা জেলা, খুলনা বিভাগ, বাংলাদেশ",শ্রীপুর উপজেলা (মাগুরা),বাংলাদেশ,খুলনা বিভাগ,local_admin,boundaries,['variety_store'],[],Bangladesh,Khulna,Magura,MaguraSadar,Kasundi,a5c3136adaac4f7f6445b90078aa6f31
533508618.0,893cf020ed3ffff,23.52838842,89.49302771,Kasundi Puraton Jame Masjid,,"Kasundi Puraton Jame Masjid, Sreepur Upazila (Magura), Magura District, Khulna Division, Bangladesh","কাসুন্দি পুরিতন জামে মসজিদ, শ্রীপুর উপজেলা মাগুরা, মাগুরা জেলা, খুলনা বিভাগ, বাংলাদেশ",শ্রীপুর উপজেলা (মাগুরা),বাংলাদেশ,খুলনা বিভাগ,local_admin,boundaries,['place_of_worship_muslim'],[],Bangladesh,Khulna,Magura,MaguraSadar,Kasundi,a5c3136adaac4f7f6445b90078aa6f31
533508642.0,893cf020163ffff,23.53135156,89.49075307,Govindopur Ma Kali Mondir,,"Govindopur Ma Kali Mondir, Sreepur Upazila (Magura), Magura District, Khulna Division, Bangladesh","গোবিন্দোপুর মা কালী মন্ডির, শ্রীপুর উপজেলা মাগুরা, মাগুরা জেলা, খুলনা বিভাগ, বাংলাদেশ",শ্রীপুর উপজেলা (মাগুরা),বাংলাদেশ,খুলনা বিভাগ,local_admin,boundaries,['place_of_worship'],[],Bangladesh,Khulna,Magura,Sreepur,Nakol,75a56d8578df8a339d917311e033d55b
6317294592.0,893cf03aa13ffff,23.5155587,89.3204028,,['Alomkhali Bazar'],"Magura, Magura District, Khulna Division, Bangladesh","মাগুরা জেলা, খুলনা বিভাগ, বাংলাদেশ",Magura,বাংলাদেশ,খুলনা বিভাগ,local_admin,boundaries,['bus_stop'],[],Bangladesh,Khulna,Magura,MaguraSadar,Hazrapur,2b6b1dcd563d1ab75832edc6814cf0f2
603671678.0,893cf02108bffff,23.48731104,89.42023297,,,"Magura, Magura District, Khulna Division, Bangladesh","মাগুরা জেলা, খুলনা বিভাগ, বাংলাদেশ",Magura,বাংলাদেশ,খুলনা বিভাগ,local_admin,boundaries,['playground'],[],Bangladesh,Khulna,Magura,MaguraSadar,MaguraPaurashava,f64af54aa72a064b7288b63e87d9e0a8
1050242655.0,893cf0210d3ffff,23.4839279,89.4128617,মাগুরা জেলা স্টেডিয়াম,"['মাগুরা জেলা স্টেডিয়াম', 'Magura District Stadium']","Magura District Stadium, Magura, Magura District, Khulna Division, Bangladesh","মাগুরা জেলা স্টেডিয়াম, মাগুরা জেলা, খুলনা বিভাগ, বাংলাদেশ",Magura,বাংলাদেশ,খুলনা বিভাগ,local_admin,boundaries,['stadium'],[],Bangladesh,Khulna,Magura,MaguraSadar,MaguraPaurashava,f64af54aa72a064b7288b63e87d9e0a8
9587817362.0,893cf02169bffff,23.4836211,89.3931236,Magura Polytechnic College,,"Magura Polytechnic College, Magura, Magura District, Khulna Division, Bangladesh","মাগুরা পলিটেকনিক কলেজ, মাগুরা জেলা, খুলনা বিভাগ, বাংলাদেশ",Magura,বাংলাদেশ,খুলনা বিভাগ,local_admin,boundaries,['college'],[],Bangladesh,Khulna,Magura,MaguraSadar,MaguraPaurashava,f64af54aa72a064b7288b63e87d9e0a8
9587817368.0,893cf02b14bffff,23.3747215,89.3711483,Arpara Ideal High School,,"Arpara Ideal High School, Shalikha Upazila, Magura District, Khulna Division, Bangladesh","আরপেরা আদর্শ উচ্চ বিদ্যালয়, শালিখা উপজেলা, মাগুরা জেলা, খুলনা বিভাগ, বাংলাদেশ",শালিখা উপজেলা,বাংলাদেশ,খুলনা বিভাগ,local_admin,boundaries,['school'],[],Bangladesh,Khulna,Magura,Shalikha,Arpara,17a2d349ae46eba7fa175b0c08d5a6ea
9587817369.0,893cf02b38bffff,23.3704567,89.3669721,Arpara Degree College,,"Arpara Degree College, Shalikha Upazila, Magura District, Khulna Division, Bangladesh","আরপেরা ডিগ্রি কলেজ, শালিখা উপজেলা, মাগুরা জেলা, খুলনা বিভাগ, বাংলাদেশ",শালিখা উপজেলা,বাংলাদেশ,খুলনা বিভাগ,local_admin,boundaries,['school'],[],Bangladesh,Khulna,Magura,Shalikha,Arpara,17a2d349ae46eba7fa175b0c08d5a6ea
9587817370.0,893cf07480fffff,23.3254895,89.3177917,Shimakhali High School,,"Shimakhali High School, Shalikha Upazila, Magura District, Khulna Division, Bangladesh","শিমাখালি উচ্চ বিদ্যালয়, শালিখা উপজেলা, মাগুরা জেলা, খুলনা বিভাগ, বাংলাদেশ",শালিখা উপজেলা,বাংলাদেশ,খুলনা বিভাগ,local_admin,boundaries,['school'],[],Bangladesh,Khulna,Magura,Shalikha,Shatakhali,4f931444f3d837b59aeff5d483d579df
9587817372.0,893cf07480bffff,23.3252974,89.3167905,Bushra Medical Hall,,"Bushra Medical Hall, Shalikha Upazila, Magura District, Khulna Division, Bangladesh","বুশরা মেডিকেল হল, শালিখা উপজেলা, মাগুরা জেলা, খুলনা বিভাগ, বাংলাদেশ",শালিখা উপজেলা,বাংলাদেশ,খুলনা বিভাগ,local_admin,boundaries,['pharmacy'],[],Bangladesh,Khulna,Magura,Shalikha,Talkhari,b8463ccdc25736fc2c4392cef01826b2
9603772501.0,893cf023077ffff,23.5294089,89.399166,Govt Primary School,,"Govt Primary School, Magura, Magura District, Khulna Division, Bangladesh","সরকারী প্রাথমিক বিদ্যালয়, মাগুরা জেলা, খুলনা বিভাগ, বাংলাদেশ",Magura,বাংলাদেশ,খুলনা বিভাগ,local_admin,boundaries,['school'],[],Bangladesh,Khulna,Magura,MaguraSadar,Atharakhada,1297d3e056d90807e9ce078bfbcd2751
604963055.0,893cf021003ffff,23.48113718708813,89.42448859410221,Vainamor- Molla Para Road,,"Vainamor- Molla Para Road, Magura, Magura District, Khulna Division, Bangladesh","ভেনামোর- মোল্লা প্যারা রোড, মাগুরা জেলা, খুলনা বিভাগ, বাংলাদেশ",Magura,বাংলাদেশ,খুলনা বিভাগ,street,,,,Bangladesh,Khulna,Magura,MaguraSadar,MaguraPaurashava,f64af54aa72a064b7288b63e87d9e0a8
5175766877.0,893cf020eb3ffff,23.5333586,89.5070523,Shorder highway hotel & restaurant সরদার হাইওয়ে হোটেল এন্ড রেষ্টুরেন্ট,,"Shorder highway hotel & restaurant, Sreepur Upazila (Magura), Magura District, Khulna Division, Bangladesh","সরদার হাইওয়ে হোটেল এন্ড রেষ্টুরেন্ট, শ্রীপুর উপজেলা মাগুরা, মাগুরা জেলা, খুলনা বিভাগ, বাংলাদেশ",শ্রীপুর উপজেলা (মাগুরা),বাংলাদেশ,খুলনা বিভাগ,local_admin,boundaries,['restaurant'],[],Bangladesh,Khulna,Magura,Sreepur,Nakol,75a56d8578df8a339d917311e033d55b
603671674.0,893cf021083ffff,23.48892816484569,89.41997429817161,M.R. Road,,"M.R. Road, Magura, Magura District, Khulna Division, Bangladesh","এমআর রোড, মাগুরা জেলা, খুলনা বিভাগ, বাংলাদেশ",Magura,বাংলাদেশ,খুলনা বিভাগ,street,,,,Bangladesh,Khulna,Magura,MaguraSadar,MaguraPaurashava,f64af54aa72a064b7288b63e87d9e0a8
57046809.0,893cf02ad87ffff,23.460059814101676,89.46162207184771,Magura - Narail Road,,"Magura - Narail Road, Magura, Magura District, Khulna Division, Bangladesh","মাগুরা - নারাইল রোড, মাগুরা জেলা, খুলনা বিভাগ, বাংলাদেশ",Magura,বাংলাদেশ,খুলনা বিভাগ,street,,,,Bangladesh,Khulna,Magura,MaguraSadar,Chaulia,35b1bf839e922c2c7f433f4929060730
277042297.0,893cf0210a3ffff,23.48943985,89.4292614,মাগুরা-ফরিদপুর মহাসড়ক,['Magura-Faridpur Hwy'],"Magura-Faridpur Highway, Magura-Faridpur Hwy, Magura, Magura District, Khulna Division, Bangladesh","মাগুরা-ফরিদপুর মহাসড়ক, মাগুরা জেলা, খুলনা বিভাগ, বাংলাদেশ",Magura,বাংলাদেশ,খুলনা বিভাগ,street,,,,Bangladesh,Khulna,Magura,MaguraSadar,MaguraPaurashava,f64af54aa72a064b7288b63e87d9e0a8
277042298.0,893cf0210bbffff,23.48827977260936,89.42868322679315,মাগুরা-ফরিদপুর মহাসড়ক,['Magura-Faridpur Hwy'],"Magura-Faridpur Highway, Magura-Faridpur Hwy, Magura, Magura District, Khulna Division, Bangladesh","মাগুরা-ফরিদপুর মহাসড়ক, মাগুরা জেলা, খুলনা বিভাগ, বাংলাদেশ",Magura,বাংলাদেশ,খুলনা বিভাগ,street,,,,Bangladesh,Khulna,Magura,MaguraSadar,MaguraPaurashava,f64af54aa72a064b7288b63e87d9e0a8
277854345.0,893cf02a397ffff,23.42543060548784,89.40375021555303,Jessore - Magura Hwy,,"Jessore - Magura Hwy, Magura, Magura District, Khulna Division, Bangladesh","জেসোর - মাগুরা হুই, মাগুরা জেলা, খুলনা বিভাগ, বাংলাদেশ",Magura,বাংলাদেশ,খুলনা বিভাগ,street,,,,Bangladesh,Khulna,Magura,MaguraSadar,Jagdal,b5d67fe7bb98c2301355e26e2469ad26
57767853.0,893cf02f403ffff,23.44167295085174,89.50413835795287,Mohammadpur Road,,"Mohammadpur Road, Magura, Magura District, Khulna Division, Bangladesh","মোহাম্মদপুর রোড, মাগুরা জেলা, খুলনা বিভাগ, বাংলাদেশ",Magura,বাংলাদেশ,খুলনা বিভাগ,street,,,,Bangladesh,Khulna,Magura,Mohammadpur,Binodepur,66b4b40dfb457cafd28b4716eae0c841
277854341.0,893cf02129bffff,23.46656083137408,89.41345034577553,Jessore - Magura Hwy,,"Jessore - Magura Hwy, Magura, Magura District, Khulna Division, Bangladesh","জেসোর - মাগুরা হুই, মাগুরা জেলা, খুলনা বিভাগ, বাংলাদেশ",Magura,বাংলাদেশ,খুলনা বিভাগ,street,,,,Bangladesh,Khulna,Magura,MaguraSadar,MaguraPaurashava,f64af54aa72a064b7288b63e87d9e0a8
277042295.0,893cf0388a7ffff,23.49077360365295,89.36741158396838,ঝিনাইদহ-মাগুরা মহাসড়ক,['Jhenaidah-Magura Highway'],"Jhenaidah-Magura highway, Jhenaidah-Magura Highway, Magura, Magura District, Khulna Division, Bangladesh","ঝিনাইদহ-মাগুরা মহাসড়ক, মাগুরা জেলা, খুলনা বিভাগ, বাংলাদেশ",Magura,বাংলাদেশ,খুলনা বিভাগ,street,,,,Bangladesh,Khulna,Magura,MaguraSadar,Hazrapur,2b6b1dcd563d1ab75832edc6814cf0f2
277042309.0,893cf02108bffff,23.48569038820044,89.41936238291999,Jhenaidah - Magura Highway,,"Jhenaidah - Magura Highway, Magura, Magura District, Khulna Division, Bangladesh","ঝেনাইদাহ - মাগুরা হাইওয়ে, মাগুরা জেলা, খুলনা বিভাগ, বাংলাদেশ",Magura,বাংলাদেশ,খুলনা বিভাগ,street,,,,Bangladesh,Khulna,Magura,MaguraSadar,MaguraPaurashava,f64af54aa72a064b7288b63e87d9e0a8
277854343.0,893cf02a197ffff,23.447315250000003,89.4095277,Jessore - Magura Hwy,,"Jessore - Magura Hwy, Magura, Magura District, Khulna Division, Bangladesh","জেসোর - মাগুরা হুই, মাগুরা জেলা, খুলনা বিভাগ, বাংলাদেশ",Magura,বাংলাদেশ,খুলনা বিভাগ,street,,,,Bangladesh,Khulna,Magura,MaguraSadar,Maghi,8a4e50477e781787a8cefad5ecd933fe
57046816.0,893cf0203c3ffff,23.519463834785125,89.46968043498539,Magura - Faridpur Hwy,,"Magura - Faridpur Hwy, Sreepur Upazila (Magura), Magura District, Khulna Division, Bangladesh","মাগুরা - ফরিদপুর হুই, শ্রীপুর উপজেলা মাগুরা, মাগুরা জেলা, খুলনা বিভাগ, বাংলাদেশ",শ্রীপুর উপজেলা (মাগুরা),বাংলাদেশ,খুলনা বিভাগ,street,,,,Bangladesh,Khulna,Magura,MaguraSadar,Kasundi,a5c3136adaac4f7f6445b90078aa6f31
57046816.0,893cf0203c3ffff,23.519463834785125,89.46968043498539,Magura - Faridpur Hwy,,"Magura - Faridpur Hwy, Magura, Magura District, Khulna Division, Bangladesh","মাগুরা - ফরিদপুর হুই, মাগুরা জেলা, খুলনা বিভাগ, বাংলাদেশ",Magura,বাংলাদেশ,খুলনা বিভাগ,street,,,,Bangladesh,Khulna,Magura,MaguraSadar,Kasundi,a5c3136adaac4f7f6445b90078aa6f31
274387965.0,893cf02160bffff,23.47242496,89.39906751,Magura,,"Magura, Magura District, Khulna Division, Bangladesh","মাগুরা, মাগুরা জেলা, খুলনা বিভাগ, বাংলাদেশ",Magura,বাংলাদেশ,খুলনা বিভাগ,local_admin,boundaries,['substation'],[],Bangladesh,Khulna,Magura,MaguraSadar,MaguraPaurashava,f64af54aa72a064b7288b63e87d9e0a8
235014645.0,893cf02108fffff,23.48602744763997,89.42430450752752,Jhenaidah - Magura Highway,,"Jhenaidah - Magura Highway, Magura, Magura District, Khulna Division, Bangladesh","ঝেনাইদাহ - মাগুরা হাইওয়ে, মাগুরা জেলা, খুলনা বিভাগ, বাংলাদেশ",Magura,বাংলাদেশ,খুলনা বিভাগ,street,,,,Bangladesh,Khulna,Magura,MaguraSadar,MaguraPaurashava,f64af54aa72a064b7288b63e87d9e0a8
4236968831.0,893cf02ae83ffff,23.4290836,89.4258324,Jagdal,,"Jagdal, Magura, Magura District, Khulna Division, Bangladesh","জাগডাল, মাগুরা জেলা, খুলনা বিভাগ, বাংলাদেশ",Magura,বাংলাদেশ,খুলনা বিভাগ,locality,,,,Bangladesh,Khulna,Magura,MaguraSadar,Jagdal,b5d67fe7bb98c2301355e26e2469ad26
3991994781.0,893cf03090fffff,23.6418938,89.4285794,Amalsar,,"Amalsar, Sreepur Upazila (Magura), Magura District, Khulna Division, Bangladesh","অমলসার, শ্রীপুর উপজেলা মাগুরা, মাগুরা জেলা, খুলনা বিভাগ, বাংলাদেশ",শ্রীপুর উপজেলা (মাগুরা),বাংলাদেশ,খুলনা বিভাগ,locality,,,,Bangladesh,Khulna,Magura,Sreepur,Amalsar,7d2a7203be2759a2fe9e0e6d7deb5629
4236968850.0,893cf02abb7ffff,23.4247521,89.4816663,Satrujitpur,,"Satrujitpur, Magura, Magura District, Khulna Division, Bangladesh","সাতরুজিতপুর, মাগুরা জেলা, খুলনা বিভাগ, বাংলাদেশ",Magura,বাংলাদেশ,খুলনা বিভাগ,locality,,,,Bangladesh,Khulna,Magura,MaguraSadar,Satrujitpur,743c0b2c8119691c48b65a2a92079bb8
3991994795.0,893cf022e3bffff,23.5767127,89.4783905,Kadirpara,,"Kadirpara, Sreepur Upazila (Magura), Magura District, Khulna Division, Bangladesh","কাদিরপেরা, শ্রীপুর উপজেলা মাগুরা, মাগুরা জেলা, খুলনা বিভাগ, বাংলাদেশ",শ্রীপুর উপজেলা (মাগুরা),বাংলাদেশ,খুলনা বিভাগ,locality,,,,Bangladesh,Khulna,Magura,Sreepur,KadirPara,18c7049b3be72474a9a3b65382a275b8
3991994809.0,893cf020563ffff,23.5474676,89.4733442,Nakol,,"Nakol, Sreepur Upazila (Magura), Magura District, Khulna Division, Bangladesh","নাকল, শ্রীপুর উপজেলা মাগুরা, মাগুরা জেলা, খুলনা বিভাগ, বাংলাদেশ",শ্রীপুর উপজেলা (মাগুরা),বাংলাদেশ,খুলনা বিভাগ,locality,,,,Bangladesh,Khulna,Magura,Sreepur,Nakol,75a56d8578df8a339d917311e033d55b
6137147537.0,893cf029c4bffff,23.3293311,89.4261359,Bunagati,,"Bunagati, Shalikha Upazila, Magura District, Khulna Division, Bangladesh","বুনাগতী, শালিখা উপজেলা, মাগুরা জেলা, খুলনা বিভাগ, বাংলাদেশ",শালিখা উপজেলা,বাংলাদেশ,খুলনা বিভাগ,locality,,,,Bangladesh,Khulna,Magura,Shalikha,Bunagati,7fbf07ae019a8a72998e6f5854a311ba
6137147538.0,893cf028bcbffff,23.3590405,89.4929122,Birail Palita,,"Birail Palita, Magura, Magura District, Khulna Division, Bangladesh","বিরাইল পলিতা, মাগুরা জেলা, খুলনা বিভাগ, বাংলাদেশ",Magura,বাংলাদেশ,খুলনা বিভাগ,locality,,,,Bangladesh,Khulna,Magura,MaguraSadar,BirailPalita,65dacba93183813234a675597e27bb93
1627757204.0,893cf02108bffff,23.4880772,89.4201824,মাগুরা,"['মাগুরা', 'Magura', 'Magura']","Magura, Magura District, Khulna Division, Bangladesh","মাগুরা, মাগুরা জেলা, খুলনা বিভাগ, বাংলাদেশ",Magura,বাংলাদেশ,খুলনা বিভাগ,locality,,,,Bangladesh,Khulna,Magura,MaguraSadar,MaguraPaurashava,f64af54aa72a064b7288b63e87d9e0a8
4236968817.0,893cf021c0fffff,23.4926958,89.4761318,Bagia,,"Bagia, Magura, Magura District, Khulna Division, Bangladesh","বগিয়া, মাগুরা জেলা, খুলনা বিভাগ, বাংলাদেশ",Magura,বাংলাদেশ,খুলনা বিভাগ,locality,,,,Bangladesh,Khulna,Magura,MaguraSadar,Bagia,85f0eae329f0bffa7b49f5ad87307621
4236968834.0,893cf020323ffff,23.5186694,89.4902937,Kasundi,,"Kasundi, Magura, Magura District, Khulna Division, Bangladesh","কাসুন্দি, মাগুরা জেলা, খুলনা বিভাগ, বাংলাদেশ",Magura,বাংলাদেশ,খুলনা বিভাগ,locality,,,,Bangladesh,Khulna,Magura,MaguraSadar,Kasundi,a5c3136adaac4f7f6445b90078aa6f31
4236968823.0,893cf02ad17ffff,23.4537258,89.4634348,Chaulia,,"Chaulia, Magura, Magura District, Khulna Division, Bangladesh","চৌলিয়া, মাগুরা জেলা, খুলনা বিভাগ, বাংলাদেশ",Magura,বাংলাদেশ,খুলনা বিভাগ,locality,,,,Bangladesh,Khulna,Magura,MaguraSadar,Chaulia,35b1bf839e922c2c7f433f4929060730
4236968835.0,893cf02808fffff,23.3830727,89.4162283,Kuchiamora,,"Kuchiamora, Magura, Magura District, Khulna Division, Bangladesh","কুচিয়ামোরা, মাগুরা জেলা, খুলনা বিভাগ, বাংলাদেশ",Magura,বাংলাদেশ,খুলনা বিভাগ,locality,,,,Bangladesh,Khulna,Magura,MaguraSadar,Kuchiamora,703caa5ea9e1901069456ecd4ff8c6be
4236968829.0,893cf028c7bffff,23.3827738,89.4679927,Gopalgram,,"Gopalgram, Magura, Magura District, Khulna Division, Bangladesh","গোপালগ্রাম, মাগুরা জেলা, খুলনা বিভাগ, বাংলাদেশ",Magura,বাংলাদেশ,খুলনা বিভাগ,locality,,,,Bangladesh,Khulna,Magura,MaguraSadar,Gopalgram,42945ee44c01533ff0c9e39db92170a0
533302652.0,893cf07480bffff,23.32434064,89.31554753,Vobanipur Jame Mosque,,"Vobanipur Jame Mosque, Shalikha Upazila, Magura District, Khulna Division, Bangladesh","ভোবানিপুর জামে মসজিদ, শালিখা উপজেলা, মাগুরা জেলা, খুলনা বিভাগ, বাংলাদেশ",শালিখা উপজেলা,বাংলাদেশ,খুলনা বিভাগ,local_admin,boundaries,['place_of_worship_muslim'],[],Bangladesh,Khulna,Magura,Shalikha,Talkhari,b8463ccdc25736fc2c4392cef01826b2
533302697.0,893cf07480bffff,23.32512397,89.31678193,ফার্স্ট সিকিউরিটি ইসলামী ব্যাংক লিমিটেড,['First Security Islami Bank Ltd'],"First Security Islami Bank Limited, Shalikha Upazila, Magura District, Khulna Division, Bangladesh","ফার্স্ট সিকিউরিটি ইসলামী ব্যাংক লিমিটেড, শালিখা উপজেলা, মাগুরা জেলা, খুলনা বিভাগ, বাংলাদেশ",শালিখা উপজেলা,বাংলাদেশ,খুলনা বিভাগ,local_admin,boundaries,['bank'],[],Bangladesh,Khulna,Magura,Shalikha,Talkhari,b8463ccdc25736fc2c4392cef01826b2
533302773.0,893cf07480bffff,23.32522233,89.31708301,"Digital IT Solution SEO, Shimakhali Bazar Shalikha Road",,"Digital IT Solution SEO Shimakhali Bazar Shalikha Road, Shalikha Upazila, Magura District, Khulna Division, Bangladesh","ডিজিটাল আইটি সমাধান সিও শিমাখালি বাজার শালিখা রোড, শালিখা উপজেলা, মাগুরা জেলা, খুলনা বিভাগ, বাংলাদেশ",শালিখা উপজেলা,বাংলাদেশ,খুলনা বিভাগ,local_admin,boundaries,['computer'],[],Bangladesh,Khulna,Magura,Shalikha,Talkhari,b8463ccdc25736fc2c4392cef01826b2
533303023.0,893cf07480fffff,23.32529091,89.31752491,সীমাখালী বাজার কেন্দ্রীয় জামে মসজিদ,,"Simakhali Bazar Central Jame Mosque, Shalikha Upazila, Magura District, Khulna Division, Bangladesh","সীমাখালী বাজার কেন্দ্রীয় জামে মসজিদ, শালিখা উপজেলা, মাগুরা জেলা, খুলনা বিভাগ, বাংলাদেশ",শালিখা উপজেলা,বাংলাদেশ,খুলনা বিভাগ,local_admin,boundaries,['place_of_worship_muslim'],[],Bangladesh,Khulna,Magura,Shalikha,Shatakhali,4f931444f3d837b59aeff5d483d579df
533303025.0,893cf07480fffff,23.32526959,89.31816659,সীমাখালী বাজার কেন্দ্রীয় জামে মসজিদ & ঈদগাহ,,"Simakhali Bazar Central Jame Mosque & Eidgah, &, Shalikha Upazila, Magura District, Khulna Division, Bangladesh","সীমাখালী বাজার কেন্দ্রীয় জামে মসজিদ ঈদগাহ, শালিখা উপজেলা, মাগুরা জেলা, খুলনা বিভাগ, বাংলাদেশ",শালিখা উপজেলা,বাংলাদেশ,খুলনা বিভাগ,local_admin,boundaries,['place_of_worship_muslim'],[],Bangladesh,Khulna,Magura,Shalikha,Shatakhali,4f931444f3d837b59aeff5d483d579df
533303282.0,893cf07480bffff,23.3262376,89.3161993,Hasan Telecom,,"Hasan Telecom, Shalikha Upazila, Magura District, Khulna Division, Bangladesh","হাসান টেলিকম, শালিখা উপজেলা, মাগুরা জেলা, খুলনা বিভাগ, বাংলাদেশ",শালিখা উপজেলা,বাংলাদেশ,খুলনা বিভাগ,local_admin,boundaries,['mobile_phone'],[],Bangladesh,Khulna,Magura,Shalikha,Talkhari,b8463ccdc25736fc2c4392cef01826b2
533303298.0,893cf07480bffff,23.3261179,89.3157696,Sikder Online সিকদার অনলাইন,,"Sikder Online, Shalikha Upazila, Magura District, Khulna Division, Bangladesh","সিকদার অনলাইন, শালিখা উপজেলা, মাগুরা জেলা, খুলনা বিভাগ, বাংলাদেশ",শালিখা উপজেলা,বাংলাদেশ,খুলনা বিভাগ,local_admin,boundaries,['computer'],[],Bangladesh,Khulna,Magura,Shalikha,Talkhari,b8463ccdc25736fc2c4392cef01826b2
533303517.0,893cf02b353ffff,23.35977808,89.36240012,Gopal Gram Mosque,,"Gopal Gram Mosque, Shalikha Upazila, Magura District, Khulna Division, Bangladesh","গোপাল গ্রাম মসজিদ, শালিখা উপজেলা, মাগুরা জেলা, খুলনা বিভাগ, বাংলাদেশ",শালিখা উপজেলা,বাংলাদেশ,খুলনা বিভাগ,local_admin,boundaries,['place_of_worship_muslim'],[],Bangladesh,Khulna,Magura,Shalikha,Arpara,17a2d349ae46eba7fa175b0c08d5a6ea
533303617.0,893cf02b2a7ffff,23.36682133,89.35397896,কৃষ্ণপুর জামে মসজিদ,,"Krishnapur Jame Mosque, Shalikha Upazila, Magura District, Khulna Division, Bangladesh","কৃষ্ণপুর জামে মসজিদ, শালিখা উপজেলা, মাগুরা জেলা, খুলনা বিভাগ, বাংলাদেশ",শালিখা উপজেলা,বাংলাদেশ,খুলনা বিভাগ,local_admin,boundaries,['place_of_worship_muslim'],[],Bangladesh,Khulna,Magura,Shalikha,Arpara,17a2d349ae46eba7fa175b0c08d5a6ea
533303708.0,893cf02b387ffff,23.37353175,89.37120837,সোনালী ব্যাংক লিমিটেড,['Sonali Bank Limited'],"Sonali Bank Limited, Shalikha Upazila, Magura District, Khulna Division, Bangladesh","সোনালী ব্যাংক লিমিটেড, শালিখা উপজেলা, মাগুরা জেলা, খুলনা বিভাগ, বাংলাদেশ",শালিখা উপজেলা,বাংলাদেশ,খুলনা বিভাগ,local_admin,boundaries,['bank'],[],Bangladesh,Khulna,Magura,Shalikha,Arpara,17a2d349ae46eba7fa175b0c08d5a6ea
533303742.0,893cf02b3b3ffff,23.37446203,89.37212055,অগ্রণী ব্যাংক লিমিটেড,['Agrani Bank Limited'],"Agrani Bank Limited, Shalikha Upazila, Magura District, Khulna Division, Bangladesh","অগ্রণী ব্যাংক লিমিটেড, শালিখা উপজেলা, মাগুরা জেলা, খুলনা বিভাগ, বাংলাদেশ",শালিখা উপজেলা,বাংলাদেশ,খুলনা বিভাগ,local_admin,boundaries,['bank'],[],Bangladesh,Khulna,Magura,Shalikha,Arpara,17a2d349ae46eba7fa175b0c08d5a6ea
533303858.0,893cf02b3b3ffff,23.37488505,89.37193991,Cafe Adda ক্যাফে আড্ডা,,"Cafe Adda, Magura, Magura District, Khulna Division, Bangladesh","ক্যাফে আড্ডা, মাগুরা জেলা, খুলনা বিভাগ, বাংলাদেশ",Magura,বাংলাদেশ,খুলনা বিভাগ,local_admin,boundaries,['restaurant'],[],Bangladesh,Khulna,Magura,Shalikha,Arpara,17a2d349ae46eba7fa175b0c08d5a6ea
533303980.0,893cf02b3b3ffff,23.37554606,89.37256916,Arpara Bazar আড়পাড়া বাজার,,"Arpara Bazar, Magura, Magura District, Khulna Division, Bangladesh","আড়পাড়া বাজার, মাগুরা জেলা, খুলনা বিভাগ, বাংলাদেশ",Magura,বাংলাদেশ,খুলনা বিভাগ,local_admin,boundaries,['variety_store'],[],Bangladesh,Khulna,Magura,Shalikha,Arpara,17a2d349ae46eba7fa175b0c08d5a6ea
533304281.0,893cf02b14bffff,23.37568657,89.37151721,Razu computer রাজু কম্পিউটার,,"Razu computer, Magura, Magura District, Khulna Division, Bangladesh","রাজু কম্পিউটার, মাগুরা জেলা, খুলনা বিভাগ, বাংলাদেশ",Magura,বাংলাদেশ,খুলনা বিভাগ,local_admin,boundaries,['electronics'],[],Bangladesh,Khulna,Magura,Shalikha,Arpara,17a2d349ae46eba7fa175b0c08d5a6ea
533304293.0,893cf02b14bffff,23.37554555,89.37060638,Arpara Post Office আড়পাড়া পোস্ট অফিস,,"Arpara Post Office, Magura, Magura District, Khulna Division, Bangladesh","আড়পাড়া পোস্ট অফিস, মাগুরা জেলা, খুলনা বিভাগ, বাংলাদেশ",Magura,বাংলাদেশ,খুলনা বিভাগ,local_admin,boundaries,['post_office'],[],Bangladesh,Khulna,Magura,Shalikha,Arpara,17a2d349ae46eba7fa175b0c08d5a6ea
533304332.0,893cf02b14bffff,23.37636535,89.37106857,Star computer,,"Star computer, Magura, Magura District, Khulna Division, Bangladesh","স্টার কম্পিউটার, মাগুরা জেলা, খুলনা বিভাগ, বাংলাদেশ",Magura,বাংলাদেশ,খুলনা বিভাগ,local_admin,boundaries,['electronics'],[],Bangladesh,Khulna,Magura,Shalikha,Arpara,17a2d349ae46eba7fa175b0c08d5a6ea
533305406.0,893cf02b14bffff,23.37651405,89.37088141,Munshi's Shop,,"Munshi's Shop, Magura, Magura District, Khulna Division, Bangladesh","মুন্সির দোকান, মাগুরা জেলা, খুলনা বিভাগ, বাংলাদেশ",Magura,বাংলাদেশ,খুলনা বিভাগ,local_admin,boundaries,['supermarket'],[],Bangladesh,Khulna,Magura,Shalikha,Arpara,17a2d349ae46eba7fa175b0c08d5a6ea
533305489.0,893cf02b14bffff,23.37648682,89.37048989,"কর্মসংস্থান ব্যাংক, শালিখা","['Karmasangsthan Bank,Salikha']","Employment Bank Salikha, Magura, Magura District, Khulna Division, Bangladesh","কর্মসংস্থান ব্যাংক শালিখা, মাগুরা জেলা, খুলনা বিভাগ, বাংলাদেশ",Magura,বাংলাদেশ,খুলনা বিভাগ,local_admin,boundaries,['bank'],[],Bangladesh,Khulna,Magura,Shalikha,Arpara,17a2d349ae46eba7fa175b0c08d5a6ea
533305495.0,893cf02b14bffff,23.3764865,89.37037531,"কর্মসংস্থান ব্যংক,শালিখা শাখা",,"Employment Bank Salika Branch, Magura, Magura District, Khulna Division, Bangladesh","কর্মসংস্থান ব্যংক শালিখা শাখা, মাগুরা জেলা, খুলনা বিভাগ, বাংলাদেশ",Magura,বাংলাদেশ,খুলনা বিভাগ,local_admin,boundaries,['bank'],[],Bangladesh,Khulna,Magura,Shalikha,Arpara,17a2d349ae46eba7fa175b0c08d5a6ea
533305619.0,893cf02b397ffff,23.37557448,89.3683547,Kali Temple Arpara আড়পাড়া কালী মন্দির,,"Kali Temple Arpara, Shalikha Upazila, Magura District, Khulna Division, Bangladesh","আড়পাড়া কালী মন্দির, শালিখা উপজেলা, মাগুরা জেলা, খুলনা বিভাগ, বাংলাদেশ",শালিখা উপজেলা,বাংলাদেশ,খুলনা বিভাগ,local_admin,boundaries,['place_of_worship'],[],Bangladesh,Khulna,Magura,Shalikha,Arpara,17a2d349ae46eba7fa175b0c08d5a6ea
533305838.0,893cf02b10fffff,23.38401139,89.37893568,Sri Gobinda Mandir শ্রীলঙ্কা গোবিন্দ মন্দির,,"Sri Gobinda Mandir, Magura, Magura District, Khulna Division, Bangladesh","শ্রীলঙ্কা গোবিন্দ মন্দির, মাগুরা জেলা, খুলনা বিভাগ, বাংলাদেশ",Magura,বাংলাদেশ,খুলনা বিভাগ,local_admin,boundaries,['place_of_worship'],[],Bangladesh,Khulna,Magura,MaguraSadar,Maghi,8a4e50477e781787a8cefad5ecd933fe
533305905.0,893cf02a22fffff,23.40622852,89.39362217,Jagla Post Office,,"Jagla Post Office, Magura, Magura District, Khulna Division, Bangladesh","জাগলা পোস্ট অফিস, মাগুরা জেলা, খুলনা বিভাগ, বাংলাদেশ",Magura,বাংলাদেশ,খুলনা বিভাগ,local_admin,boundaries,['post_office'],[],Bangladesh,Khulna,Magura,MaguraSadar,Jagdal,b5d67fe7bb98c2301355e26e2469ad26
1107893552.0,893cf021693ffff,23.4846172,89.3940602,Saimum Super Market,,"Saimum Super Market, Magura, Magura District, Khulna Division, Bangladesh","সাইমুম সুপার মার্কেট, মাগুরা জেলা, খুলনা বিভাগ, বাংলাদেশ",Magura,বাংলাদেশ,খুলনা বিভাগ,local_admin,boundaries,['supermarket'],[],Bangladesh,Khulna,Magura,MaguraSadar,MaguraPaurashava,f64af54aa72a064b7288b63e87d9e0a8
533508659.0,893cf020eb3ffff,23.53343446,89.50625695,kalinagor paschimpara jame masjid কালিনগর পশ্চিমপাড়া জামে মসজিদ,,"kalinagor paschimpara jame masjid, Sreepur Upazila (Magura), Magura District, Khulna Division, Bangladesh","কালিনগর পশ্চিমপাড়া জামে মসজিদ, শ্রীপুর উপজেলা মাগুরা, মাগুরা জেলা, খুলনা বিভাগ, বাংলাদেশ",শ্রীপুর উপজেলা (মাগুরা),বাংলাদেশ,খুলনা বিভাগ,local_admin,boundaries,['place_of_worship_muslim'],[],Bangladesh,Khulna,Magura,Sreepur,Nakol,75a56d8578df8a339d917311e033d55b
533508725.0,893cf020eb3ffff,23.53371931,89.50695541,Ms Asia Link Filling Station,,"Ms Asia Link Filling Station, Sreepur Upazila (Magura), Magura District, Khulna Division, Bangladesh","এমএস এশিয়া লিঙ্ক ফিলিং স্টেশন, শ্রীপুর উপজেলা মাগুরা, মাগুরা জেলা, খুলনা বিভাগ, বাংলাদেশ",শ্রীপুর উপজেলা (মাগুরা),বাংলাদেশ,খুলনা বিভাগ,local_admin,boundaries,['fuel'],[],Bangladesh,Khulna,Magura,Sreepur,Nakol,75a56d8578df8a339d917311e033d55b
533508784.0,893cf020eb3ffff,23.53392545,89.50738975,Satkhira highway hotel & restaurant (amanot shorder) সাতক্ষীরা হাইওয়ে হোটেল এন্ড রেষ্টুরেন্ট (আমানত সরদার),,"Satkhira highway hotel & restaurant amanot shorder, Sreepur Upazila (Magura), Magura District, Khulna Division, Bangladesh","সাতক্ষীরা হাইওয়ে হোটেল এন্ড রেষ্টুরেন্ট আমানত সরদার, শ্রীপুর উপজেলা মাগুরা, মাগুরা জেলা, খুলনা বিভাগ, বাংলাদেশ",শ্রীপুর উপজেলা (মাগুরা),বাংলাদেশ,খুলনা বিভাগ,local_admin,boundaries,['restaurant'],[],Bangladesh,Khulna,Magura,Sreepur,Nakol,75a56d8578df8a339d917311e033d55b
533508881.0,893cf020eb7ffff,23.53498753,89.50925085,Jony Tea Stall,,"Jony Tea Stall, Sreepur Upazila (Magura), Magura District, Khulna Division, Bangladesh","জনি চা স্টল, শ্রীপুর উপজেলা মাগুরা, মাগুরা জেলা, খুলনা বিভাগ, বাংলাদেশ",শ্রীপুর উপজেলা (মাগুরা),বাংলাদেশ,খুলনা বিভাগ,local_admin,boundaries,['tea'],[],Bangladesh,Khulna,Magura,Sreepur,Nakol,75a56d8578df8a339d917311e033d55b
533508899.0,893cf020eb7ffff,23.53516372,89.50975344,Bagat Gosh Mistanno Vandar,,"Bagat Gosh Mistanno Vandar, Sreepur Upazila (Magura), Magura District, Khulna Division, Bangladesh","ভগত ঘোষ মিস্তান্নো ভান্দার, শ্রীপুর উপজেলা মাগুরা, মাগুরা জেলা, খুলনা বিভাগ, বাংলাদেশ",শ্রীপুর উপজেলা (মাগুরা),বাংলাদেশ,খুলনা বিভাগ,local_admin,boundaries,['restaurant'],[],Bangladesh,Khulna,Magura,Sreepur,Nakol,75a56d8578df8a339d917311e033d55b
277854358.0,893cf02a22bffff,23.4057554,89.3929621,Khajura Rd,,"Khajura Rd, Magura, Magura District, Khulna Division, Bangladesh","খাজুরা আরডি, মাগুরা জেলা, খুলনা বিভাগ, বাংলাদেশ",Magura,বাংলাদেশ,খুলনা বিভাগ,street,,,,Bangladesh,Khulna,Magura,MaguraSadar,Maghi,8a4e50477e781787a8cefad5ecd933fe
277854351.0,893cf02b1abffff,23.392061917395143,89.38154263980017,Jessore - Magura Hwy,,"Jessore - Magura Hwy, Magura, Magura District, Khulna Division, Bangladesh","জেসোর - মাগুরা হুই, মাগুরা জেলা, খুলনা বিভাগ, বাংলাদেশ",Magura,বাংলাদেশ,খুলনা বিভাগ,street,,,,Bangladesh,Khulna,Magura,MaguraSadar,Maghi,8a4e50477e781787a8cefad5ecd933fe
277042296.0,893cf03ae63ffff,23.521715931388865,89.30940034585348,ঝিনাইদহ-মাগুরা মহাসড়ক,['Jhenaidah-Magura Hwy'],"Jhenaidah-Magura highway, Jhenaidah-Magura Hwy, Jhenaidah Sadar Upazila, Magura District, Khulna Division, Bangladesh","ঝিনাইদহ-মাগুরা মহাসড়ক, ঝিনাইদহ সদর উপজেলা, মাগুরা জেলা, খুলনা বিভাগ, বাংলাদেশ",ঝিনাইদহ সদর উপজেলা,বাংলাদেশ,খুলনা বিভাগ,street,,,,Bangladesh,Khulna,Magura,MaguraSadar,Hazrapur,2b6b1dcd563d1ab75832edc6814cf0f2
277042296.0,893cf03ae63ffff,23.521715931388865,89.30940034585348,ঝিনাইদহ-মাগুরা মহাসড়ক,['Jhenaidah-Magura Hwy'],"Jhenaidah-Magura highway, Jhenaidah-Magura Hwy, Magura, Magura District, Khulna Division, Bangladesh","ঝিনাইদহ-মাগুরা মহাসড়ক, মাগুরা জেলা, খুলনা বিভাগ, বাংলাদেশ",Magura,বাংলাদেশ,খুলনা বিভাগ,street,,,,Bangladesh,Khulna,Magura,MaguraSadar,Hazrapur,2b6b1dcd563d1ab75832edc6814cf0f2
277042291.0,893cf03aa13ffff,23.51653155,89.3190464,ঝিনাইদহ-মাগুরা মহাসড়ক,['Jhenaidah-Magura Hwy'],"Jhenaidah-Magura highway, Jhenaidah-Magura Hwy, Magura, Magura District, Khulna Division, Bangladesh","ঝিনাইদহ-মাগুরা মহাসড়ক, মাগুরা জেলা, খুলনা বিভাগ, বাংলাদেশ",Magura,বাংলাদেশ,খুলনা বিভাগ,street,,,,Bangladesh,Khulna,Magura,MaguraSadar,Hazrapur,2b6b1dcd563d1ab75832edc6814cf0f2
277854353.0,893cf02b257ffff,23.35279359657812,89.34288178094047,Jessore - Magura Hwy,,"Jessore - Magura Hwy, Shalikha Upazila, Magura District, Khulna Division, Bangladesh","জেসোর - মাগুরা হুই, শালিখা উপজেলা, মাগুরা জেলা, খুলনা বিভাগ, বাংলাদেশ",শালিখা উপজেলা,বাংলাদেশ,খুলনা বিভাগ,street,,,,Bangladesh,Khulna,Magura,Shalikha,Shatakhali,4f931444f3d837b59aeff5d483d579df
277854353.0,893cf02b257ffff,23.35279359657812,89.34288178094047,Jessore - Magura Hwy,,"Jessore - Magura Hwy, Magura, Magura District, Khulna Division, Bangladesh","জেসোর - মাগুরা হুই, মাগুরা জেলা, খুলনা বিভাগ, বাংলাদেশ",Magura,বাংলাদেশ,খুলনা বিভাগ,street,,,,Bangladesh,Khulna,Magura,Shalikha,Shatakhali,4f931444f3d837b59aeff5d483d579df
277854359.0,893cf02b14fffff,23.37656385,89.37281300000001,Jessore - Magura Hwy,,"Jessore - Magura Hwy, Magura, Magura District, Khulna Division, Bangladesh","জেসোর - মাগুরা হুই, মাগুরা জেলা, খুলনা বিভাগ, বাংলাদেশ",Magura,বাংলাদেশ,খুলনা বিভাগ,street,,,,Bangladesh,Khulna,Magura,Shalikha,Arpara,17a2d349ae46eba7fa175b0c08d5a6ea
277854364.0,893cf07480bffff,23.324838550000003,89.3163388,Jessore - Magura Hwy,,"Jessore - Magura Hwy, Shalikha Upazila, Magura District, Khulna Division, Bangladesh","জেসোর - মাগুরা হুই, শালিখা উপজেলা, মাগুরা জেলা, খুলনা বিভাগ, বাংলাদেশ",শালিখা উপজেলা,বাংলাদেশ,খুলনা বিভাগ,street,,,,Bangladesh,Khulna,Magura,Shalikha,Talkhari,b8463ccdc25736fc2c4392cef01826b2
3992028291.0,893cf030ebbffff,23.6383149,89.3799079,Gayeshpur,,"Gayeshpur, Sreepur Upazila (Magura), Magura District, Khulna Division, Bangladesh","গায়েশপুর, শ্রীপুর উপজেলা মাগুরা, মাগুরা জেলা, খুলনা বিভাগ, বাংলাদেশ",শ্রীপুর উপজেলা (মাগুরা),বাংলাদেশ,খুলনা বিভাগ,locality,,,,Bangladesh,Khulna,Magura,Sreepur,Gayeshpur,4d8bdd21e7597f88a654ed318564885a
4236968838.0,893cf02a283ffff,23.4165368,89.3796026,Maghi,,"Maghi, Magura, Magura District, Khulna Division, Bangladesh","মাগি, মাগুরা জেলা, খুলনা বিভাগ, বাংলাদেশ",Magura,বাংলাদেশ,খুলনা বিভাগ,locality,,,,Bangladesh,Khulna,Magura,MaguraSadar,Maghi,8a4e50477e781787a8cefad5ecd933fe
9137640366.0,893cf03193bffff,23.5921801,89.3958587,শ্রীপুর,"['শ্রীপুর', 'Shreepur']","Sripur, Shreepur, Sreepur Upazila (Magura), Magura District, Khulna Division, Bangladesh","শ্রীপুর, শ্রীপুর উপজেলা মাগুরা, মাগুরা জেলা, খুলনা বিভাগ, বাংলাদেশ",শ্রীপুর উপজেলা (মাগুরা),বাংলাদেশ,খুলনা বিভাগ,locality,,,,Bangladesh,Khulna,Magura,Sreepur,Sreepur,d3971d27b0a7356171298418dbfdcac3
6137147539.0,893cf02864bffff,23.3611285,89.388113,Arpara,,"Arpara, Shalikha Upazila, Magura District, Khulna Division, Bangladesh","আরপেরা, শালিখা উপজেলা, মাগুরা জেলা, খুলনা বিভাগ, বাংলাদেশ",শালিখা উপজেলা,বাংলাদেশ,খুলনা বিভাগ,locality,,,,Bangladesh,Khulna,Magura,Shalikha,Arpara,17a2d349ae46eba7fa175b0c08d5a6ea
4201738188.0,893cf038cd7ffff,23.5029168,89.3325592,Hazrapur,,"Hazrapur, Magura, Magura District, Khulna Division, Bangladesh","হাজ্রাপুর, মাগুরা জেলা, খুলনা বিভাগ, বাংলাদেশ",Magura,বাংলাদেশ,খুলনা বিভাগ,locality,,,,Bangladesh,Khulna,Magura,MaguraSadar,Hazrapur,2b6b1dcd563d1ab75832edc6814cf0f2
9137640365.0,893cf02920bffff,23.3012737,89.3760285,শালিখা,"['শালিখা', 'Shalikha']","Salika, Shalikha, Shalikha Upazila, Magura District, Khulna Division, Bangladesh","শালিখা, শালিখা উপজেলা, মাগুরা জেলা, খুলনা বিভাগ, বাংলাদেশ",শালিখা উপজেলা,বাংলাদেশ,খুলনা বিভাগ,locality,,,,Bangladesh,Khulna,Magura,Shalikha,Shalikha,f5ed172498618c38dfddff881955c3f9
275834809.0,893cf020d5bffff,23.545146969878974,89.52807442342439,মাওয়া-ভাঙ্গা মহাসড়ক,['Magura - Faridpur Hwy'],"Mawa-broken highway, Magura - Faridpur Hwy, Madhukhali, Faridpur District, Dhaka Division, Bangladesh","মাওয়া-ভাঙ্গা মহাসড়ক, ফরিদপুর জেলা, ঢাকা বিভাগ, বাংলাদেশ",Madhukhali,বাংলাদেশ,ঢাকা বিভাগ,street,,,,Bangladesh,Khulna,Magura,Sreepur,Nakol,75a56d8578df8a339d917311e033d55b
57767853.0,893cf02f403ffff,23.44167295085174,89.50413835795287,Mohammadpur Road,,"Mohammadpur Road, Mohammadpur, Magura District, Khulna Division, Bangladesh","মোহাম্মদপুর রোড, মাগুরা জেলা, খুলনা বিভাগ, বাংলাদেশ",Mohammadpur,বাংলাদেশ,খুলনা বিভাগ,street,,,,Bangladesh,Khulna,Magura,Mohammadpur,Binodepur,66b4b40dfb457cafd28b4716eae0c841
57046797.0,893cf020c77ffff,23.542051471010566,89.51714374196258,Kamarkhali Bridge,,"Kamarkhali Bridge, Madhukhali, Faridpur District, Dhaka Division, Bangladesh","কামারখালী ব্রিজ, ফরিদপুর জেলা, ঢাকা বিভাগ, বাংলাদেশ",Madhukhali,বাংলাদেশ,ঢাকা বিভাগ,street,,,,Bangladesh,Khulna,Magura,Sreepur,Nakol,75a56d8578df8a339d917311e033d55b
57046797.0,893cf020c77ffff,23.542051471010566,89.51714374196258,Kamarkhali Bridge,,"Kamarkhali Bridge, Sreepur Upazila (Magura), Khulna Division, Bangladesh","কামারখালী ব্রিজ, শ্রীপুর উপজেলা মাগুরা, খুলনা বিভাগ, বাংলাদেশ",শ্রীপুর উপজেলা (মাগুরা),বাংলাদেশ,খুলনা বিভাগ,street,,,,Bangladesh,Khulna,Magura,Sreepur,Nakol,75a56d8578df8a339d917311e033d55b
57046797.0,893cf020c77ffff,23.542051471010566,89.51714374196258,Kamarkhali Bridge,,"Kamarkhali Bridge, Madhukhali, Magura District, Khulna Division, Bangladesh","কামারখালী ব্রিজ, মাগুরা জেলা, খুলনা বিভাগ, বাংলাদেশ",Madhukhali,বাংলাদেশ,খুলনা বিভাগ,street,,,,Bangladesh,Khulna,Magura,Sreepur,Nakol,75a56d8578df8a339d917311e033d55b
57046797.0,893cf020c77ffff,23.542051471010566,89.51714374196258,Kamarkhali Bridge,,"Kamarkhali Bridge, Sreepur Upazila (Magura), Dhaka Division, Bangladesh","কামারখালী ব্রিজ, শ্রীপুর উপজেলা মাগুরা, ঢাকা বিভাগ, বাংলাদেশ",শ্রীপুর উপজেলা (মাগুরা),বাংলাদেশ,ঢাকা বিভাগ,street,,,,Bangladesh,Khulna,Magura,Sreepur,Nakol,75a56d8578df8a339d917311e033d55b
9137640364.0,893cf02dc97ffff,23.4003334,89.5974634,মোহাম্মদপুর,"['মোহাম্মদপুর', 'Mohammadpur']","Mohammadpur, Magura District, Khulna Division, Bangladesh","মোহাম্মদপুর, মাগুরা জেলা, খুলনা বিভাগ, বাংলাদেশ",Mohammadpur,বাংলাদেশ,খুলনা বিভাগ,locality,,,,Bangladesh,Khulna,Magura,Mohammadpur,Mohammadpur,6828a13c010c26ffe0beb074311fe15f
4236968843.0,893cf392d57ffff,23.3410812,89.5848696,Palashbaria,,"Palashbaria, Mohammadpur, Magura District, Khulna Division, Bangladesh","পালাশবারিয়া, মাগুরা জেলা, খুলনা বিভাগ, বাংলাদেশ",Mohammadpur,বাংলাদেশ,খুলনা বিভাগ,locality,,,,Bangladesh,Khulna,Magura,Mohammadpur,Palashbaria,74758ea2ac642443b07214918dc46ce5
4236968826.0,893cf02e367ffff,23.4570111,89.583079,Digha,,"Digha, Mohammadpur, Magura District, Khulna Division, Bangladesh","ডিঘা, মাগুরা জেলা, খুলনা বিভাগ, বাংলাদেশ",Mohammadpur,বাংলাদেশ,খুলনা বিভাগ,locality,,,,Bangladesh,Khulna,Magura,Mohammadpur,Digha,c3836d8077c425e0650108a13b2a715b
4236968820.0,893cf02f51bffff,23.4499924,89.5259428,Binodepur,,"Binodepur, Mohammadpur, Magura District, Khulna Division, Bangladesh","বিনোদেপুর, মাগুরা জেলা, খুলনা বিভাগ, বাংলাদেশ",Mohammadpur,বাংলাদেশ,খুলনা বিভাগ,locality,,,,Bangladesh,Khulna,Magura,Mohammadpur,Binodepur,66b4b40dfb457cafd28b4716eae0c841
6137147536.0,893cf392023ffff,23.3245234,89.5252704,Nahata,,"Nahata, Mohammadpur, Magura District, Khulna Division, Bangladesh","নাহাতা, মাগুরা জেলা, খুলনা বিভাগ, বাংলাদেশ",Mohammadpur,বাংলাদেশ,খুলনা বিভাগ,locality,,,,Bangladesh,Khulna,Magura,Mohammadpur,Nahata,728435f289bf04717fedc93f1ea89934
4236968818.0,893cf02d58bffff,23.4005527,89.5547551,Balidia,,"Balidia, Mohammadpur, Magura District, Khulna Division, Bangladesh","বালিডিয়া, মাগুরা জেলা, খুলনা বিভাগ, বাংলাদেশ",Mohammadpur,বাংলাদেশ,খুলনা বিভাগ,locality,,,,Bangladesh,Khulna,Magura,Mohammadpur,Balidia,c83920a839f7f74c0b10b8c32d933799
4236968845.0,893cf02d60bffff,23.3648431,89.5275706,Rajapur,,"Rajapur, Mohammadpur, Magura District, Khulna Division, Bangladesh","রাজাপুর, মাগুরা জেলা, খুলনা বিভাগ, বাংলাদেশ",Mohammadpur,বাংলাদেশ,খুলনা বিভাগ,locality,,,,Bangladesh,Khulna,Magura,Mohammadpur,Rajapur,d6782028a10b584d69112c764fd68fab
4236968815.0,893cf02e463ffff,23.4882171,89.5443371,Babukhali,,"Babukhali, Mohammadpur, Magura District, Khulna Division, Bangladesh","বাবুখলি, মাগুরা জেলা, খুলনা বিভাগ, বাংলাদেশ",Mohammadpur,বাংলাদেশ,খুলনা বিভাগ,locality,,,,Bangladesh,Khulna,Magura,Mohammadpur,Babukhali,89ab62b906431bd5ba8efd75c39e6deb
9521225.0,893cf02ac73ffff,23.43889877,89.43797483,মাগরা জেলা,['Magura District'],"Magra district, Magura District, Khulna Division, Bangladesh","মাগরা জেলা, খলনা বিভাগ, বাংলাদেশ",,বাংলাদেশ,খলনা বিভাগ,admin2,,,,Bangladesh,Khulna,Magura,MaguraSadar,Jagdal,b5d67fe7bb98c2301355e26e2469ad26
14341655.0,893cf02d553ffff,23.39302464,89.55122609,Mohammadpur,,"Mohammadpur, Magura District, Khulna Division, Bangladesh","মোহাম্মদপুর, মাগরা জেলা, খলনা বিভাগ, বাংলাদেশ",Mohammadpur,বাংলাদেশ,খলনা বিভাগ,local_admin,,,,Bangladesh,Khulna,Magura,Mohammadpur,Balidia,c83920a839f7f74c0b10b8c32d933799
14326825.0,893cf02a197ffff,23.44908104,89.41066621,Magura,,"Magura, Magura District, Khulna Division, Bangladesh","মাগুরা, মাগরা জেলা, খলনা বিভাগ, বাংলাদেশ",Magura,বাংলাদেশ,খলনা বিভাগ,local_admin,,,,Bangladesh,Khulna,Magura,MaguraSadar,Maghi,8a4e50477e781787a8cefad5ecd933fe
14326760.0,893cf022083ffff,23.59304956,89.42702777,শরীপর উপজেলা (মাগরা),['Sreepur Upazila (Magura)'],"Sharipar Upazila Magra, Sreepur Upazila (Magura), Magura District, Khulna Division, Bangladesh","শরীপর উপজেলা মাগরা, মাগরা জেলা, খলনা বিভাগ, বাংলাদেশ",শরীপর উপজেলা (মাগরা),বাংলাদেশ,খলনা বিভাগ,local_admin,,,,Bangladesh,Khulna,Magura,Sreepur,Sreepur,d3971d27b0a7356171298418dbfdcac3
14326759.0,893cf02941bffff,23.34243673,89.36076849,শালিখা উপজেলা,['Shalikha Upazila'],"Salikha Upazila, Shalikha Upazila, Magura District, Khulna Division, Bangladesh","শালিখা উপজেলা, মাগরা জেলা, খলনা বিভাগ, বাংলাদেশ",শালিখা উপজেলা,বাংলাদেশ,খলনা বিভাগ,local_admin,,,,Bangladesh,Khulna,Magura,Shalikha,Shatakhali,4f931444f3d837b59aeff5d483d579df
277854345.0,893cf02a397ffff,23.42543060548784,89.40375021555303,Jessore - Magura Hwy,,"Jessore - Magura Hwy, Magura, Magura District, Khulna Division, Bangladesh","জেসোর - মাগুরা হুই, মাগরা জেলা, খলনা বিভাগ, বাংলাদেশ",Magura,বাংলাদেশ,খলনা বিভাগ,street,,,,Bangladesh,Khulna,Magura,MaguraSadar,Jagdal,b5d67fe7bb98c2301355e26e2469ad26
277854358.0,893cf02a22bffff,23.4057554,89.3929621,Khajura Rd,,"Khajura Rd, Magura, Magura District, Khulna Division, Bangladesh","খাজুরা আরডি, মাগরা জেলা, খলনা বিভাগ, বাংলাদেশ",Magura,বাংলাদেশ,খলনা বিভাগ,street,,,,Bangladesh,Khulna,Magura,MaguraSadar,Maghi,8a4e50477e781787a8cefad5ecd933fe
57046816.0,893cf0203c3ffff,23.519463834785125,89.46968043498539,Magura - Faridpur Hwy,,"Magura - Faridpur Hwy, Magura, Magura District, Khulna Division, Bangladesh","মাগুরা - ফরিদপুর হুই, মাগরা জেলা, খলনা বিভাগ, বাংলাদেশ",Magura,বাংলাদেশ,খলনা বিভাগ,street,,,,Bangladesh,Khulna,Magura,MaguraSadar,Kasundi,a5c3136adaac4f7f6445b90078aa6f31
57046809.0,893cf02ad87ffff,23.460059814101676,89.46162207184771,Magura - Narail Road,,"Magura - Narail Road, Magura, Magura District, Khulna Division, Bangladesh","মাগুরা - নারাইল রোড, মাগরা জেলা, খলনা বিভাগ, বাংলাদেশ",Magura,বাংলাদেশ,খলনা বিভাগ,street,,,,Bangladesh,Khulna,Magura,MaguraSadar,Chaulia,35b1bf839e922c2c7f433f4929060730
277042295.0,893cf0388a7ffff,23.49077360365295,89.36741158396838,িনাইদহ-মাগরা মহাসড়ক,['Jhenaidah-Magura Highway'],"Naidah-Magara highway, Jhenaidah-Magura Highway, Magura, Magura District, Khulna Division, Bangladesh","িনাইদহ-মাগরা মহাসড়ক, মাগরা জেলা, খলনা বিভাগ, বাংলাদেশ",Magura,বাংলাদেশ,খলনা বিভাগ,street,,,,Bangladesh,Khulna,Magura,MaguraSadar,Hazrapur,2b6b1dcd563d1ab75832edc6814cf0f2
277042297.0,893cf0210a3ffff,23.48943985,89.4292614,মাগরা-ফরিদপর মহাসড়ক,['Magura-Faridpur Hwy'],"Magra-Faridapar Highway, Magura-Faridpur Hwy, Magura, Magura District, Khulna Division, Bangladesh","মাগরা-ফরিদপর মহাসড়ক, মাগরা জেলা, খলনা বিভাগ, বাংলাদেশ",Magura,বাংলাদেশ,খলনা বিভাগ,street,,,,Bangladesh,Khulna,Magura,MaguraSadar,MaguraPaurashava,f64af54aa72a064b7288b63e87d9e0a8
57767853.0,893cf02f403ffff,23.44167295085174,89.50413835795287,Mohammadpur Road,,"Mohammadpur Road, Magura, Magura District, Khulna Division, Bangladesh","মোহাম্মদপুর রোড, মাগরা জেলা, খলনা বিভাগ, বাংলাদেশ",Magura,বাংলাদেশ,খলনা বিভাগ,street,,,,Bangladesh,Khulna,Magura,Mohammadpur,Binodepur,66b4b40dfb457cafd28b4716eae0c841
603671674.0,893cf021083ffff,23.48892816484569,89.41997429817161,M.R. Road,,"M.R. Road, Magura, Magura District, Khulna Division, Bangladesh","এমআর রোড, মাগরা জেলা, খলনা বিভাগ, বাংলাদেশ",Magura,বাংলাদেশ,খলনা বিভাগ,street,,,,Bangladesh,Khulna,Magura,MaguraSadar,MaguraPaurashava,f64af54aa72a064b7288b63e87d9e0a8
604963055.0,893cf021003ffff,23.48113718708813,89.42448859410221,Vainamor- Molla Para Road,,"Vainamor- Molla Para Road, Magura, Magura District, Khulna Division, Bangladesh","ভেনামোর- মোল্লা প্যারা রোড, মাগরা জেলা, খলনা বিভাগ, বাংলাদেশ",Magura,বাংলাদেশ,খলনা বিভাগ,street,,,,Bangladesh,Khulna,Magura,MaguraSadar,MaguraPaurashava,f64af54aa72a064b7288b63e87d9e0a8
277042309.0,893cf02108bffff,23.48569038820044,89.41936238291999,Jhenaidah - Magura Highway,,"Jhenaidah - Magura Highway, Magura, Magura District, Khulna Division, Bangladesh","ঝেনাইদাহ - মাগুরা হাইওয়ে, মাগরা জেলা, খলনা বিভাগ, বাংলাদেশ",Magura,বাংলাদেশ,খলনা বিভাগ,street,,,,Bangladesh,Khulna,Magura,MaguraSadar,MaguraPaurashava,f64af54aa72a064b7288b63e87d9e0a8
277854364.0,893cf07480bffff,23.324838550000003,89.3163388,Jessore - Magura Hwy,,"Jessore - Magura Hwy, Shalikha Upazila, Magura District, Khulna Division, Bangladesh","জেসোর - মাগুরা হুই, শালিখা উপজেলা, মাগরা জেলা, খলনা বিভাগ, বাংলাদেশ",শালিখা উপজেলা,বাংলাদেশ,খলনা বিভাগ,street,,,,Bangladesh,Khulna,Magura,Shalikha,Talkhari,b8463ccdc25736fc2c4392cef01826b2
57046797.0,893cf020c77ffff,23.542051471010566,89.51714374196258,Kamarkhali Bridge,,"Kamarkhali Bridge, Madhukhali, Magura District, Khulna Division, Bangladesh","কামারখালী ব্রিজ, মাগরা জেলা, খলনা বিভাগ, বাংলাদেশ",Madhukhali,বাংলাদেশ,খলনা বিভাগ,street,,,,Bangladesh,Khulna,Magura,Sreepur,Nakol,75a56d8578df8a339d917311e033d55b
57046816.0,893cf0203c3ffff,23.519463834785125,89.46968043498539,Magura - Faridpur Hwy,,"Magura - Faridpur Hwy, Sreepur Upazila (Magura), Magura District, Khulna Division, Bangladesh","মাগুরা - ফরিদপুর হুই, শরীপর উপজেলা মাগরা, মাগরা জেলা, খলনা বিভাগ, বাংলাদেশ",শরীপর উপজেলা (মাগরা),বাংলাদেশ,খলনা বিভাগ,street,,,,Bangladesh,Khulna,Magura,MaguraSadar,Kasundi,a5c3136adaac4f7f6445b90078aa6f31
277042296.0,893cf03ae63ffff,23.521715931388865,89.30940034585348,িনাইদহ-মাগরা মহাসড়ক,['Jhenaidah-Magura Hwy'],"Naidah-Magara highway, Jhenaidah-Magura Hwy, Jhenaidah Sadar Upazila, Magura District, Khulna Division, Bangladesh","িনাইদহ-মাগরা মহাসড়ক, িনাইদহ সদর উপজেলা, মাগরা জেলা, খলনা বিভাগ, বাংলাদেশ",িনাইদহ সদর উপজেলা,বাংলাদেশ,খলনা বিভাগ,street,,,,Bangladesh,Khulna,Magura,MaguraSadar,Hazrapur,2b6b1dcd563d1ab75832edc6814cf0f2
57767853.0,893cf02f403ffff,23.44167295085174,89.50413835795287,Mohammadpur Road,,"Mohammadpur Road, Mohammadpur, Magura District, Khulna Division, Bangladesh","মোহাম্মদপুর রোড, মাগরা জেলা, খলনা বিভাগ, বাংলাদেশ",Mohammadpur,বাংলাদেশ,খলনা বিভাগ,street,,,,Bangladesh,Khulna,Magura,Mohammadpur,Binodepur,66b4b40dfb457cafd28b4716eae0c841
57046797.0,893cf020c77ffff,23.542051471010566,89.51714374196258,Kamarkhali Bridge,,"Kamarkhali Bridge, Sreepur Upazila (Magura), Dhaka Division, Bangladesh","কামারখালী ব্রিজ, শরীপর উপজেলা মাগরা, ঢাকা বিভাগ, বাংলাদেশ",শরীপর উপজেলা (মাগরা),বাংলাদেশ,ঢাকা বিভাগ,street,,,,Bangladesh,Khulna,Magura,Sreepur,Nakol,75a56d8578df8a339d917311e033d55b
57046797.0,893cf020c77ffff,23.542051471010566,89.51714374196258,Kamarkhali Bridge,,"Kamarkhali Bridge, Sreepur Upazila (Magura), Khulna Division, Bangladesh","কামারখালী ব্রিজ, শরীপর উপজেলা মাগরা, খলনা বিভাগ, বাংলাদেশ",শরীপর উপজেলা (মাগরা),বাংলাদেশ,খলনা বিভাগ,street,,,,Bangladesh,Khulna,Magura,Sreepur,Nakol,75a56d8578df8a339d917311e033d55b
57046797.0,893cf020c77ffff,23.542051471010566,89.51714374196258,Kamarkhali Bridge,,"Kamarkhali Bridge, Madhukhali, Faridpur District, Dhaka Division, Bangladesh","কামারখালী ব্রিজ, ফরিদপর জেলা, ঢাকা বিভাগ, বাংলাদেশ",Madhukhali,বাংলাদেশ,ঢাকা বিভাগ,street,,,,Bangladesh,Khulna,Magura,Sreepur,Nakol,75a56d8578df8a339d917311e033d55b
