osm_id,h3level9,lat,lon,name,alt_names,name_en,name_bn,local_admin_name,admin0_name,admin2_name,addr_level,poi_addr_match,poi_class,poi_keywords,country,division,district,thana,union,region_hash
907641367.0,893cf17a44fffff,23.52052602,90.17460535,,,"Sadarpur, Faridpur District, Dhaka Division, Bangladesh","ফরিদপুর জেলা, ঢাকা বিভাগ, বাংলাদেশ",Sadarpur,বাংলাদেশ,ঢাকা বিভাগ,local_admin,boundaries,['island'],[],Bangladesh,Dhaka,Munshiganj,Sreenagar,Baghra,d30185476311d45bedd41f0965c3ca2c
2344451137.0,893cf171a97ffff,23.5501275,90.2901956,Sreenagar Upazila Health Complex,,"Sreenagar Upazila Health Complex, Sreenagar, Munshiganj District, Dhaka Division, Bangladesh","শ্রীনগর উপজিলা স্বাস্থ্য কমপ্লেক্স, মুন্সিগঞ্জ জেলা, ঢাকা বিভাগ, বাংলাদেশ",Sreenagar,বাংলাদেশ,ঢাকা বিভাগ,local_admin,boundaries,['hospital'],[],Bangladesh,Dhaka,Munshiganj,Sreenagar,Sholaghar,7d7f8ef127ac677cfe9067ed953a7fdd
3392209238.0,893cf178d53ffff,23.4759215,90.2908488,,,"Louhajang Upazila, Munshiganj District, Dhaka Division, Bangladesh","লৌহজং উপজেলা, মুন্সিগঞ্জ জেলা, ঢাকা বিভাগ, বাংলাদেশ",লৌহজং উপজেলা,বাংলাদেশ,ঢাকা বিভাগ,local_admin,boundaries,['place_of_worship_muslim'],[],Bangladesh,Dhaka,Munshiganj,Lohajang,Haldia,b6d7624106db1552e677e7f6cff697c7
3392926321.0,893cf178c03ffff,23.4736293,90.2735204,,,"Louhajang Upazila, Munshiganj District, Dhaka Division, Bangladesh","লৌহজং উপজেলা, মুন্সিগঞ্জ জেলা, ঢাকা বিভাগ, বাংলাদেশ",লৌহজং উপজেলা,বাংলাদেশ,ঢাকা বিভাগ,local_admin,boundaries,['place_of_worship_muslim'],[],Bangladesh,Dhaka,Munshiganj,Lohajang,Kumarbhog,8b24f284aea3f5a4dbf0d068b7128a4b
3392932226.0,893cf17abcbffff,23.4934262,90.2691975,Uttar medeni Mondal Minar Masjid,,"Uttar medeni Mondal Minar Masjid, Louhajang Upazila, Munshiganj District, Dhaka Division, Bangladesh","উত্তর মেদেনি মন্ডাল মিনার মসজিদ, লৌহজং উপজেলা, মুন্সিগঞ্জ জেলা, ঢাকা বিভাগ, বাংলাদেশ",লৌহজং উপজেলা,বাংলাদেশ,ঢাকা বিভাগ,local_admin,boundaries,['place_of_worship_muslim'],[],Bangladesh,Dhaka,Munshiganj,Lohajang,MediniMandal,b07e050e17ede98aec1dae9fc2cb5d58
3392935337.0,893cf17abd7ffff,23.4988939,90.2712608,Dohagi Bazar,,"Dohagi Bazar, Sreenagar, Munshiganj District, Dhaka Division, Bangladesh","দোহাগী বাজার, মুন্সিগঞ্জ জেলা, ঢাকা বিভাগ, বাংলাদেশ",Sreenagar,বাংলাদেশ,ঢাকা বিভাগ,local_admin,boundaries,['marketplace'],[],Bangladesh,Dhaka,Munshiganj,Sreenagar,KolaPara,728ce8ad2688f83db42ce0a609400d60
4605647589.0,893cf17060fffff,23.6069297,90.2496653,,['baraikhli'],,,Sreenagar,বাংলাদেশ,ঢাকা বিভাগ,housenumber,sameSource,['bookmaker'],[],Bangladesh,Dhaka,Munshiganj,Sreenagar,Baraikhali,9ac1529fc3fadddcaf69ac5985b93c6c
4713465391.0,893cf17060fffff,23.6069013,90.2496278,,['barikhaly'],,,Sreenagar,বাংলাদেশ,ঢাকা বিভাগ,housenumber,sameSource,['school'],[],Bangladesh,Dhaka,Munshiganj,Sreenagar,Baraikhali,9ac1529fc3fadddcaf69ac5985b93c6c
4713465892.0,893cf17062fffff,23.605463,90.2564988,,,"Sreenagar, Munshiganj District, Dhaka Division, Bangladesh","মুন্সিগঞ্জ জেলা, ঢাকা বিভাগ, বাংলাদেশ",Sreenagar,বাংলাদেশ,ঢাকা বিভাগ,local_admin,boundaries,['artwork'],[],Bangladesh,Dhaka,Munshiganj,Sreenagar,Baraikhali,9ac1529fc3fadddcaf69ac5985b93c6c
653407209.0,893cf17a4afffff,23.534406011437035,90.18469312373828,Sreenagar-Dohar Highway,,"Sreenagar-Dohar Highway, Dohar Subdistrict, Dhaka District, Dhaka Division, Bangladesh","শ্রীনগর-দোহার হাইওয়ে, দোহার উপজেলা, ঢাকা জেলা, ঢাকা বিভাগ, বাংলাদেশ",দোহার উপজেলা,বাংলাদেশ,ঢাকা বিভাগ,street,,,,Bangladesh,Dhaka,Munshiganj,Sreenagar,Baghra,d30185476311d45bedd41f0965c3ca2c
653407209.0,893cf17a4afffff,23.534406011437035,90.18469312373828,Sreenagar-Dohar Highway,,"Sreenagar-Dohar Highway, Sreenagar, Munshiganj District, Dhaka Division, Bangladesh","শ্রীনগর-দোহার হাইওয়ে, মুন্সিগঞ্জ জেলা, ঢাকা বিভাগ, বাংলাদেশ",Sreenagar,বাংলাদেশ,ঢাকা বিভাগ,street,,,,Bangladesh,Dhaka,Munshiganj,Sreenagar,Baghra,d30185476311d45bedd41f0965c3ca2c
653407209.0,893cf17a4afffff,23.534406011437035,90.18469312373828,Sreenagar-Dohar Highway,,"Sreenagar-Dohar Highway, Sreenagar, Dhaka District, Dhaka Division, Bangladesh","শ্রীনগর-দোহার হাইওয়ে, ঢাকা জেলা, ঢাকা বিভাগ, বাংলাদেশ",Sreenagar,বাংলাদেশ,ঢাকা বিভাগ,street,,,,Bangladesh,Dhaka,Munshiganj,Sreenagar,Baghra,d30185476311d45bedd41f0965c3ca2c
5181322947.0,893cf1781abffff,23.47293,90.2559182,Mawa Ferighat food shop,,"Mawa Ferighat food shop, Louhajang Upazila, Munshiganj District, Dhaka Division, Bangladesh","মাওয়া ফেরিঘাট খাবারের দোকান, লৌহজং উপজেলা, মুন্সিগঞ্জ জেলা, ঢাকা বিভাগ, বাংলাদেশ",লৌহজং উপজেলা,বাংলাদেশ,ঢাকা বিভাগ,local_admin,boundaries,['restaurant'],[],Bangladesh,Dhaka,Munshiganj,Lohajang,MediniMandal,b07e050e17ede98aec1dae9fc2cb5d58
5181358266.0,893cf1781a3ffff,23.4733969,90.2562304,Maowa Bus Stand মাওয়া বাস স্ট্যান্ড,,"Maowa Bus Stand, Louhajang Upazila, Munshiganj District, Dhaka Division, Bangladesh","মাওয়া বাস স্ট্যান্ড, লৌহজং উপজেলা, মুন্সিগঞ্জ জেলা, ঢাকা বিভাগ, বাংলাদেশ",লৌহজং উপজেলা,বাংলাদেশ,ঢাকা বিভাগ,street,boundaries,['bus_stop'],[],Bangladesh,Dhaka,Munshiganj,Lohajang,MediniMandal,b07e050e17ede98aec1dae9fc2cb5d58
5181403376.0,893cf178cc3ffff,23.4731414,90.264992,মাওয়া চৌরাস্তা বাস স্টপ,['Mawa Chowrasta Bus Stop'],"Mawa Chowrasta bus stop, Mawa Chowrasta Bus Stop, Louhajang Upazila, Munshiganj District, Dhaka Division, Bangladesh","মাওয়া চৌরাস্তা বাস স্টপ, লৌহজং উপজেলা, মুন্সিগঞ্জ জেলা, ঢাকা বিভাগ, বাংলাদেশ",লৌহজং উপজেলা,বাংলাদেশ,ঢাকা বিভাগ,street,boundaries,['bus_stop'],[],Bangladesh,Dhaka,Munshiganj,Lohajang,Kumarbhog,8b24f284aea3f5a4dbf0d068b7128a4b
5181446378.0,893cf17abd7ffff,23.4988642,90.2716829,Dogachi Bus Stop,,"Dogachi Bus Stop, Sreenagar, Munshiganj District, Dhaka Division, Bangladesh","ডোগাচি বাস স্টপ, মুন্সিগঞ্জ জেলা, ঢাকা বিভাগ, বাংলাদেশ",Sreenagar,বাংলাদেশ,ঢাকা বিভাগ,street,boundaries,['bus_stop'],[],Bangladesh,Dhaka,Munshiganj,Sreenagar,KolaPara,728ce8ad2688f83db42ce0a609400d60
5181447521.0,893cf17ab93ffff,23.5052219,90.2742693,Shamashpur Bus Stop,,"Shamashpur Bus Stop, Sreenagar, Munshiganj District, Dhaka Division, Bangladesh","শমাশপুর বাস স্টপ, মুন্সিগঞ্জ জেলা, ঢাকা বিভাগ, বাংলাদেশ",Sreenagar,বাংলাদেশ,ঢাকা বিভাগ,street,boundaries,['bus_stop'],[],Bangladesh,Dhaka,Munshiganj,Sreenagar,KolaPara,728ce8ad2688f83db42ce0a609400d60
5181458322.0,893cf171a4bffff,23.5291837,90.2872622,Garden Restaurant গার্ডেন রেঁস্তোরা,,"Garden Restaurant, Sreenagar, Munshiganj District, Dhaka Division, Bangladesh","গার্ডেন রেঁস্তোরা, মুন্সিগঞ্জ জেলা, ঢাকা বিভাগ, বাংলাদেশ",Sreenagar,বাংলাদেশ,ঢাকা বিভাগ,local_admin,boundaries,['restaurant'],[],Bangladesh,Dhaka,Munshiganj,Sreenagar,Patabhog,7aa9ec5f7d44e023ffd7e9643e2c8514
653407208.0,893cf17a0b3ffff,23.524767289648597,90.19866689308948,Sreenagar-Dohar Highway,,"Sreenagar-Dohar Highway, Sreenagar, Munshiganj District, Dhaka Division, Bangladesh","শ্রীনগর-দোহার হাইওয়ে, মুন্সিগঞ্জ জেলা, ঢাকা বিভাগ, বাংলাদেশ",Sreenagar,বাংলাদেশ,ঢাকা বিভাগ,street,,,,Bangladesh,Dhaka,Munshiganj,Sreenagar,Bhagyakul,60817250bd7fdc5162b0f0bad37a0771
5618111768.0,893cf1781bbffff,23.4745282,90.2538081,,,"Louhajang Upazila, Munshiganj District, Dhaka Division, Bangladesh","লৌহজং উপজেলা, মুন্সিগঞ্জ জেলা, ঢাকা বিভাগ, বাংলাদেশ",লৌহজং উপজেলা,বাংলাদেশ,ঢাকা বিভাগ,local_admin,boundaries,['ferry_terminal'],[],Bangladesh,Dhaka,Munshiganj,Lohajang,MediniMandal,b07e050e17ede98aec1dae9fc2cb5d58
5678830942.0,893cf171a17ffff,23.5430214,90.2961507,Shologhor Bus stand,,"Shologhor Bus stand, Sreenagar, Munshiganj District, Dhaka Division, Bangladesh","শোলোগর বাস স্ট্যান্ড, মুন্সিগঞ্জ জেলা, ঢাকা বিভাগ, বাংলাদেশ",Sreenagar,বাংলাদেশ,ঢাকা বিভাগ,street,boundaries,['bus_stop'],[],Bangladesh,Dhaka,Munshiganj,Sreenagar,Sreenagar,6e672c2861b198f0a9b55f597eb9d312
5736586652.0,893cf178883ffff,23.4661361,90.2898419,Mawa Speed Boat Ghat,,"Mawa Speed Boat Ghat, Louhajang Upazila, Munshiganj District, Dhaka Division, Bangladesh","মাওয়া স্পিড বোট ঘাট, লৌহজং উপজেলা, মুন্সিগঞ্জ জেলা, ঢাকা বিভাগ, বাংলাদেশ",লৌহজং উপজেলা,বাংলাদেশ,ঢাকা বিভাগ,local_admin,boundaries,['ferry_terminal'],[],Bangladesh,Dhaka,Munshiganj,Lohajang,Kumarbhog,8b24f284aea3f5a4dbf0d068b7128a4b
5736586653.0,893cf178883ffff,23.4659454,90.2896517,Hotel Padar Par,,"Hotel Padar Par, Louhajang Upazila, Munshiganj District, Dhaka Division, Bangladesh","হোটেল পাদার পার, লৌহজং উপজেলা, মুন্সিগঞ্জ জেলা, ঢাকা বিভাগ, বাংলাদেশ",লৌহজং উপজেলা,বাংলাদেশ,ঢাকা বিভাগ,local_admin,boundaries,['restaurant'],[],Bangladesh,Dhaka,Munshiganj,Lohajang,Kumarbhog,8b24f284aea3f5a4dbf0d068b7128a4b
5736586654.0,893cf178883ffff,23.465826,90.2893839,Raniganj Jame Masjid,,"Raniganj Jame Masjid, Louhajang Upazila, Munshiganj District, Dhaka Division, Bangladesh","রানিগঞ্জ জামে মসজিদ, লৌহজং উপজেলা, মুন্সিগঞ্জ জেলা, ঢাকা বিভাগ, বাংলাদেশ",লৌহজং উপজেলা,বাংলাদেশ,ঢাকা বিভাগ,local_admin,boundaries,['place_of_worship_muslim'],[],Bangladesh,Dhaka,Munshiganj,Lohajang,Kumarbhog,8b24f284aea3f5a4dbf0d068b7128a4b
5736586655.0,893cf178883ffff,23.465195,90.2889141,New Molla Hotel & Restirant,,"New Molla Hotel & Restirant, Louhajang Upazila, Munshiganj District, Dhaka Division, Bangladesh","নতুন মোক্কা হোটেল ও রেস্তোঁরা, লৌহজং উপজেলা, মুন্সিগঞ্জ জেলা, ঢাকা বিভাগ, বাংলাদেশ",লৌহজং উপজেলা,বাংলাদেশ,ঢাকা বিভাগ,local_admin,boundaries,['restaurant'],[],Bangladesh,Dhaka,Munshiganj,Lohajang,Kumarbhog,8b24f284aea3f5a4dbf0d068b7128a4b
5736586656.0,893cf17888bffff,23.4631159,90.2865719,Padma Ferry Terminal,,"Padma Ferry Terminal, Louhajang Upazila, Munshiganj District, Dhaka Division, Bangladesh","পদ্ম ফেরি টার্মিনাল, লৌহজং উপজেলা, মুন্সিগঞ্জ জেলা, ঢাকা বিভাগ, বাংলাদেশ",লৌহজং উপজেলা,বাংলাদেশ,ঢাকা বিভাগ,local_admin,boundaries,['ferry_terminal'],[],Bangladesh,Dhaka,Munshiganj,Lohajang,Kumarbhog,8b24f284aea3f5a4dbf0d068b7128a4b
5736586657.0,893cf178883ffff,23.4649251,90.2883928,Mawa Ferighat,['Shimuluya Feri Ghat'],"Mawa Ferighat, Louhajang Upazila, Munshiganj District, Dhaka Division, Bangladesh","মাওয়া ফেরিঘাট, লৌহজং উপজেলা, মুন্সিগঞ্জ জেলা, ঢাকা বিভাগ, বাংলাদেশ",লৌহজং উপজেলা,বাংলাদেশ,ঢাকা বিভাগ,local_admin,boundaries,['ferry_terminal'],[],Bangladesh,Dhaka,Munshiganj,Lohajang,Kumarbhog,8b24f284aea3f5a4dbf0d068b7128a4b
5736586658.0,893cf17888bffff,23.4646706,90.288885,,,"Louhajang Upazila, Munshiganj District, Dhaka Division, Bangladesh","লৌহজং উপজেলা, মুন্সিগঞ্জ জেলা, ঢাকা বিভাগ, বাংলাদেশ",লৌহজং উপজেলা,বাংলাদেশ,ঢাকা বিভাগ,local_admin,boundaries,['ferry_terminal'],[],Bangladesh,Dhaka,Munshiganj,Lohajang,Kumarbhog,8b24f284aea3f5a4dbf0d068b7128a4b
5736586660.0,893cf178883ffff,23.4656067,90.2892824,Shimuliya Ghat Market,,"Shimuliya Ghat Market, Louhajang Upazila, Munshiganj District, Dhaka Division, Bangladesh","শিমুলিয়া ঘাট মার্কেট, লৌহজং উপজেলা, মুন্সিগঞ্জ জেলা, ঢাকা বিভাগ, বাংলাদেশ",লৌহজং উপজেলা,বাংলাদেশ,ঢাকা বিভাগ,local_admin,boundaries,['marketplace'],[],Bangladesh,Dhaka,Munshiganj,Lohajang,Kumarbhog,8b24f284aea3f5a4dbf0d068b7128a4b
5736586669.0,893cf178c6bffff,23.4633128,90.2791536,,,"Louhajang Upazila, Munshiganj District, Dhaka Division, Bangladesh","লৌহজং উপজেলা, মুন্সিগঞ্জ জেলা, ঢাকা বিভাগ, বাংলাদেশ",লৌহজং উপজেলা,বাংলাদেশ,ঢাকা বিভাগ,local_admin,boundaries,['ferry_terminal'],[],Bangladesh,Dhaka,Munshiganj,Lohajang,Kumarbhog,8b24f284aea3f5a4dbf0d068b7128a4b
8428130743.0,893cf17888bffff,23.463902,90.288198,,,"Louhajang Upazila, Munshiganj District, Dhaka Division, Bangladesh","লৌহজং উপজেলা, মুন্সিগঞ্জ জেলা, ঢাকা বিভাগ, বাংলাদেশ",লৌহজং উপজেলা,বাংলাদেশ,ঢাকা বিভাগ,local_admin,boundaries,['ferry_terminal'],[],Bangladesh,Dhaka,Munshiganj,Lohajang,Kumarbhog,8b24f284aea3f5a4dbf0d068b7128a4b
8485992751.0,893cf178c7bffff,23.4651793,90.2742176,,,"Louhajang Upazila, Munshiganj District, Dhaka Division, Bangladesh","লৌহজং উপজেলা, মুন্সিগঞ্জ জেলা, ঢাকা বিভাগ, বাংলাদেশ",লৌহজং উপজেলা,বাংলাদেশ,ঢাকা বিভাগ,local_admin,boundaries,['ferry_terminal'],[],Bangladesh,Dhaka,Munshiganj,Lohajang,Kumarbhog,8b24f284aea3f5a4dbf0d068b7128a4b
8486013210.0,893cf178883ffff,23.465863,90.2896115,,,"Louhajang Upazila, Munshiganj District, Dhaka Division, Bangladesh","লৌহজং উপজেলা, মুন্সিগঞ্জ জেলা, ঢাকা বিভাগ, বাংলাদেশ",লৌহজং উপজেলা,বাংলাদেশ,ঢাকা বিভাগ,local_admin,boundaries,['ferry_terminal'],[],Bangladesh,Dhaka,Munshiganj,Lohajang,Kumarbhog,8b24f284aea3f5a4dbf0d068b7128a4b
8737668775.0,893cf171a0bffff,23.5379346,90.2916587,শ্রীনগর,,"Srinagar, Sreenagar, Munshiganj District, Dhaka Division, Bangladesh","শ্রীনগর, মুন্সিগঞ্জ জেলা, ঢাকা বিভাগ, বাংলাদেশ",Sreenagar,বাংলাদেশ,ঢাকা বিভাগ,local_admin,boundaries,['railway_station'],[],Bangladesh,Dhaka,Munshiganj,Sreenagar,Patabhog,7aa9ec5f7d44e023ffd7e9643e2c8514
8737668782.0,893cf178c97ffff,23.4850713,90.2706275,মাওয়া,,"Mawa, Louhajang Upazila, Munshiganj District, Dhaka Division, Bangladesh","মাওয়া, লৌহজং উপজেলা, মুন্সিগঞ্জ জেলা, ঢাকা বিভাগ, বাংলাদেশ",লৌহজং উপজেলা,বাংলাদেশ,ঢাকা বিভাগ,local_admin,boundaries,['railway_station'],[],Bangladesh,Dhaka,Munshiganj,Lohajang,Kumarbhog,8b24f284aea3f5a4dbf0d068b7128a4b
8737668782.0,893cf178c97ffff,23.4850713,90.2706275,মাওয়া,,"Mawa, Louhajang Upazila, Munshiganj District, Dhaka Division, Bangladesh","মাওয়া, লৌহজং উপজেলা, মুন্সিগঞ্জ জেলা, ঢাকা বিভাগ, বাংলাদেশ",লৌহজং উপজেলা,বাংলাদেশ,ঢাকা বিভাগ,local_admin,boundaries,['railway_station'],[],Bangladesh,Dhaka,Munshiganj,Lohajang,MediniMandal,b07e050e17ede98aec1dae9fc2cb5d58
9623010054.0,893cf178883ffff,23.4658042,90.2886445,Taj Ananda Paribahan,,"Taj Ananda Paribahan, Louhajang Upazila, Munshiganj District, Dhaka Division, Bangladesh","তাজ আনন্দ পরিবাহান, লৌহজং উপজেলা, মুন্সিগঞ্জ জেলা, ঢাকা বিভাগ, বাংলাদেশ",লৌহজং উপজেলা,বাংলাদেশ,ঢাকা বিভাগ,street,boundaries,['bus_stop'],[],Bangladesh,Dhaka,Munshiganj,Lohajang,Kumarbhog,8b24f284aea3f5a4dbf0d068b7128a4b
9692972144.0,893cf17aa2fffff,23.4887571,90.2688512,পদ্মা সেতু উত্তর থানা,['Padma Setu Uttar Thana'],"Padma Bridge North Police Station, Louhajang Upazila, Munshiganj District, Dhaka Division, Bangladesh","পদ্মা সেতু উত্তর থানা, লৌহজং উপজেলা, মুন্সিগঞ্জ জেলা, ঢাকা বিভাগ, বাংলাদেশ",লৌহজং উপজেলা,বাংলাদেশ,ঢাকা বিভাগ,local_admin,boundaries,['police'],[],Bangladesh,Dhaka,Munshiganj,Lohajang,MediniMandal,b07e050e17ede98aec1dae9fc2cb5d58
490985348.0,893cf17ada3ffff,23.54029397,90.2753011,Shyamshiddy Playground,,"Shyamshiddy Playground, Sreenagar, Munshiganj District, Dhaka Division, Bangladesh","শ্যামশিদী খেলার মাঠ, মুন্সিগঞ্জ জেলা, ঢাকা বিভাগ, বাংলাদেশ",Sreenagar,বাংলাদেশ,ঢাকা বিভাগ,local_admin,boundaries,['playground'],[],Bangladesh,Dhaka,Munshiganj,Sreenagar,Shyamsiddhi,463882991bd77d4f816f292be680b5f8
524606267.0,893cf178d0bffff,23.47792965,90.29723558,Satgharia Graveyard Mosque,,"Satgharia Graveyard Mosque, Louhajang Upazila, Munshiganj District, Dhaka Division, Bangladesh","সাতগরিয়া কবরস্থান মসজিদ, লৌহজং উপজেলা, মুন্সিগঞ্জ জেলা, ঢাকা বিভাগ, বাংলাদেশ",লৌহজং উপজেলা,বাংলাদেশ,ঢাকা বিভাগ,local_admin,boundaries,['place_of_worship_muslim'],[],Bangladesh,Dhaka,Munshiganj,Lohajang,Kumarbhog,8b24f284aea3f5a4dbf0d068b7128a4b
524610507.0,893cf178d93ffff,23.49111875,90.29140156,,,"Louhajang Upazila, Munshiganj District, Dhaka Division, Bangladesh","লৌহজং উপজেলা, মুন্সিগঞ্জ জেলা, ঢাকা বিভাগ, বাংলাদেশ",লৌহজং উপজেলা,বাংলাদেশ,ঢাকা বিভাগ,local_admin,boundaries,['monument'],[],Bangladesh,Dhaka,Munshiganj,Lohajang,Haldia,b6d7624106db1552e677e7f6cff697c7
524624102.0,893cf17abd7ffff,23.49901832,90.27354897,,,"Sreenagar, Munshiganj District, Dhaka Division, Bangladesh","মুন্সিগঞ্জ জেলা, ঢাকা বিভাগ, বাংলাদেশ",Sreenagar,বাংলাদেশ,ঢাকা বিভাগ,local_admin,boundaries,['pitch'],[],Bangladesh,Dhaka,Munshiganj,Sreenagar,KolaPara,728ce8ad2688f83db42ce0a609400d60
524625361.0,893cf17abc7ffff,23.49876476,90.27433664,,,"Sreenagar, Munshiganj District, Dhaka Division, Bangladesh","মুন্সিগঞ্জ জেলা, ঢাকা বিভাগ, বাংলাদেশ",Sreenagar,বাংলাদেশ,ঢাকা বিভাগ,local_admin,boundaries,['pitch'],[],Bangladesh,Dhaka,Munshiganj,Sreenagar,KolaPara,728ce8ad2688f83db42ce0a609400d60
524625362.0,893cf17abc7ffff,23.49880728,90.27465213,,,"Sreenagar, Munshiganj District, Dhaka Division, Bangladesh","মুন্সিগঞ্জ জেলা, ঢাকা বিভাগ, বাংলাদেশ",Sreenagar,বাংলাদেশ,ঢাকা বিভাগ,local_admin,boundaries,['pitch'],[],Bangladesh,Dhaka,Munshiganj,Sreenagar,KolaPara,728ce8ad2688f83db42ce0a609400d60
534211471.0,893cf178cdbffff,23.47373788,90.26060526,মাওয়া বাজার মসজিদ,,"Mawa Bazar Mosque, Louhajang Upazila, Munshiganj District, Dhaka Division, Bangladesh","মাওয়া বাজার মসজিদ, লৌহজং উপজেলা, মুন্সিগঞ্জ জেলা, ঢাকা বিভাগ, বাংলাদেশ",লৌহজং উপজেলা,বাংলাদেশ,ঢাকা বিভাগ,local_admin,boundaries,['place_of_worship_muslim'],[],Bangladesh,Dhaka,Munshiganj,Lohajang,MediniMandal,b07e050e17ede98aec1dae9fc2cb5d58
534211747.0,893cf178cdbffff,23.47360472,90.26212178,Mawa Sweetmeat,,"Mawa Sweetmeat, Louhajang Upazila, Munshiganj District, Dhaka Division, Bangladesh","মাওয়া মিষ্টি, লৌহজং উপজেলা, মুন্সিগঞ্জ জেলা, ঢাকা বিভাগ, বাংলাদেশ",লৌহজং উপজেলা,বাংলাদেশ,ঢাকা বিভাগ,local_admin,boundaries,['restaurant'],[],Bangladesh,Dhaka,Munshiganj,Lohajang,MediniMandal,b07e050e17ede98aec1dae9fc2cb5d58
534212084.0,893cf178cdbffff,23.47375309,90.26270037,Afzal Shoes,,"Afzal Shoes, Louhajang Upazila, Munshiganj District, Dhaka Division, Bangladesh","আফজাল জুতা, লৌহজং উপজেলা, মুন্সিগঞ্জ জেলা, ঢাকা বিভাগ, বাংলাদেশ",লৌহজং উপজেলা,বাংলাদেশ,ঢাকা বিভাগ,local_admin,boundaries,['shoes'],[],Bangladesh,Dhaka,Munshiganj,Lohajang,MediniMandal,b07e050e17ede98aec1dae9fc2cb5d58
534212115.0,893cf178cdbffff,23.47348427,90.26316046,NRB Global Bank Ltd,,"NRB Global Bank Ltd, Louhajang Upazila, Munshiganj District, Dhaka Division, Bangladesh","এনআরবি গ্লোবাল ব্যাংক লিমিটেড, লৌহজং উপজেলা, মুন্সিগঞ্জ জেলা, ঢাকা বিভাগ, বাংলাদেশ",লৌহজং উপজেলা,বাংলাদেশ,ঢাকা বিভাগ,local_admin,boundaries,['bank'],[],Bangladesh,Dhaka,Munshiganj,Lohajang,MediniMandal,b07e050e17ede98aec1dae9fc2cb5d58
534217207.0,893cf178cdbffff,23.47356693,90.26370288,Asik Sweets,,"Asik Sweets, Louhajang Upazila, Munshiganj District, Dhaka Division, Bangladesh","Asik মিষ্টি, লৌহজং উপজেলা, মুন্সিগঞ্জ জেলা, ঢাকা বিভাগ, বাংলাদেশ",লৌহজং উপজেলা,বাংলাদেশ,ঢাকা বিভাগ,local_admin,boundaries,['bakery'],[],Bangladesh,Dhaka,Munshiganj,Lohajang,MediniMandal,b07e050e17ede98aec1dae9fc2cb5d58
534217227.0,893cf178cdbffff,23.47336018,90.26381619,Talukder Timber & saw mill,,"Talukder Timber & saw mill, Louhajang Upazila, Munshiganj District, Dhaka Division, Bangladesh","তালুকদার টিম্বার এবং মিল মিল, লৌহজং উপজেলা, মুন্সিগঞ্জ জেলা, ঢাকা বিভাগ, বাংলাদেশ",লৌহজং উপজেলা,বাংলাদেশ,ঢাকা বিভাগ,local_admin,boundaries,['supermarket'],[],Bangladesh,Dhaka,Munshiganj,Lohajang,MediniMandal,b07e050e17ede98aec1dae9fc2cb5d58
534219649.0,893cf178cdbffff,23.47428447,90.26278255,Dream Garden Party Center ড্রিম গার্ডেন পার্টি সেন্টার,,"Dream Garden Party Center, Louhajang Upazila, Munshiganj District, Dhaka Division, Bangladesh","ড্রিম গার্ডেন পার্টি সেন্টার, লৌহজং উপজেলা, মুন্সিগঞ্জ জেলা, ঢাকা বিভাগ, বাংলাদেশ",লৌহজং উপজেলা,বাংলাদেশ,ঢাকা বিভাগ,local_admin,boundaries,['restaurant'],[],Bangladesh,Dhaka,Munshiganj,Lohajang,MediniMandal,b07e050e17ede98aec1dae9fc2cb5d58
534219949.0,893cf178cc3ffff,23.47312576,90.26592524,Poschim Kumarvogh Nurani Jame Masjid পশ্চিম কুমারভোগ নুরানী জামে মসজিদ,,"Poschim Kumarvogh Nurani Jame Masjid, Louhajang Upazila, Munshiganj District, Dhaka Division, Bangladesh","পশ্চিম কুমারভোগ নুরানী জামে মসজিদ, লৌহজং উপজেলা, মুন্সিগঞ্জ জেলা, ঢাকা বিভাগ, বাংলাদেশ",লৌহজং উপজেলা,বাংলাদেশ,ঢাকা বিভাগ,local_admin,boundaries,['place_of_worship_muslim'],[],Bangladesh,Dhaka,Munshiganj,Lohajang,Kumarbhog,8b24f284aea3f5a4dbf0d068b7128a4b
534220109.0,893cf17aa77ffff,23.48501701,90.26391273,Medini Mondol Quaraniya Madrasa,,"Medini Mondol Quaraniya Madrasa, Louhajang Upazila, Munshiganj District, Dhaka Division, Bangladesh","মেডিনী মন্ডল কোয়ারানিয়া মাদ্রাস, লৌহজং উপজেলা, মুন্সিগঞ্জ জেলা, ঢাকা বিভাগ, বাংলাদেশ",লৌহজং উপজেলা,বাংলাদেশ,ঢাকা বিভাগ,local_admin,boundaries,['place_of_worship_muslim'],[],Bangladesh,Dhaka,Munshiganj,Lohajang,MediniMandal,b07e050e17ede98aec1dae9fc2cb5d58
534221552.0,893cf17ab5bffff,23.4873395,90.2711159,Kalam Tea Stall কালাম টি স্টল,,"Kalam Tea Stall, Louhajang Upazila, Munshiganj District, Dhaka Division, Bangladesh","কালাম টি স্টল, লৌহজং উপজেলা, মুন্সিগঞ্জ জেলা, ঢাকা বিভাগ, বাংলাদেশ",লৌহজং উপজেলা,বাংলাদেশ,ঢাকা বিভাগ,local_admin,boundaries,['tea'],[],Bangladesh,Dhaka,Munshiganj,Lohajang,MediniMandal,b07e050e17ede98aec1dae9fc2cb5d58
534221920.0,893cf17abd7ffff,23.49971725,90.27117899,Dogachi Bazar Jame Masjid দোগাছি বাজার জামে মসজিদ,,"Dogachi Bazar Jame Masjid, Sreenagar, Munshiganj District, Dhaka Division, Bangladesh","দোগাছি বাজার জামে মসজিদ, মুন্সিগঞ্জ জেলা, ঢাকা বিভাগ, বাংলাদেশ",Sreenagar,বাংলাদেশ,ঢাকা বিভাগ,local_admin,boundaries,['place_of_worship_muslim'],[],Bangladesh,Dhaka,Munshiganj,Sreenagar,KolaPara,728ce8ad2688f83db42ce0a609400d60
534222196.0,893cf17a867ffff,23.50463119,90.27096857,Shamaspur Jame Masjid,,"Shamaspur Jame Masjid, Sreenagar, Munshiganj District, Dhaka Division, Bangladesh","শামস্পুর জামে মসজিদ, মুন্সিগঞ্জ জেলা, ঢাকা বিভাগ, বাংলাদেশ",Sreenagar,বাংলাদেশ,ঢাকা বিভাগ,local_admin,boundaries,['place_of_worship_muslim'],[],Bangladesh,Dhaka,Munshiganj,Sreenagar,KolaPara,728ce8ad2688f83db42ce0a609400d60
534222244.0,893cf17ab97ffff,23.50574516,90.27727973,Purba Samaspur Jame Mashjid,,"Purba Samaspur Jame Mashjid, Sreenagar, Munshiganj District, Dhaka Division, Bangladesh","পুর্বা সমস্পুর জামে মাশজিদ, মুন্সিগঞ্জ জেলা, ঢাকা বিভাগ, বাংলাদেশ",Sreenagar,বাংলাদেশ,ঢাকা বিভাগ,local_admin,boundaries,['place_of_worship_muslim'],[],Bangladesh,Dhaka,Munshiganj,Sreenagar,KolaPara,728ce8ad2688f83db42ce0a609400d60
534222617.0,893cf17a987ffff,23.52705084,90.28666504,,,"Sreenagar, Munshiganj District, Dhaka Division, Bangladesh","মুন্সিগঞ্জ জেলা, ঢাকা বিভাগ, বাংলাদেশ",Sreenagar,বাংলাদেশ,ঢাকা বিভাগ,local_admin,boundaries,['place_of_worship_muslim'],[],Bangladesh,Dhaka,Munshiganj,Sreenagar,Patabhog,7aa9ec5f7d44e023ffd7e9643e2c8514
534224938.0,893cf171a57ffff,23.53551622,90.28954896,Naiori Community Center নাইওরি কমিউনিটি সেন্টার,,"Naiori Community Center, Sreenagar, Munshiganj District, Dhaka Division, Bangladesh","নাইওরি কমিউনিটি সেন্টার, মুন্সিগঞ্জ জেলা, ঢাকা বিভাগ, বাংলাদেশ",Sreenagar,বাংলাদেশ,ঢাকা বিভাগ,local_admin,boundaries,['community_centre'],[],Bangladesh,Dhaka,Munshiganj,Sreenagar,Patabhog,7aa9ec5f7d44e023ffd7e9643e2c8514
534225020.0,893cf171a17ffff,23.54265791,90.29483718,খাহ্রা মধ্য পাড়া জামে মসজিদ,,"Khahara Mid -Para Jame Mosque, Sreenagar, Munshiganj District, Dhaka Division, Bangladesh","খাহ্রা মধ্য পাড়া জামে মসজিদ, মুন্সিগঞ্জ জেলা, ঢাকা বিভাগ, বাংলাদেশ",Sreenagar,বাংলাদেশ,ঢাকা বিভাগ,local_admin,boundaries,['place_of_worship_muslim'],[],Bangladesh,Dhaka,Munshiganj,Sreenagar,Sreenagar,6e672c2861b198f0a9b55f597eb9d312
534225105.0,893cf171a17ffff,23.5438601,90.29632001,Sreenagar Filling Station শ্রীনগর ফাইলিং স্টেশন,,"Sreenagar Filling Station, Sreenagar, Munshiganj District, Dhaka Division, Bangladesh","শ্রীনগর ফাইলিং স্টেশন, মুন্সিগঞ্জ জেলা, ঢাকা বিভাগ, বাংলাদেশ",Sreenagar,বাংলাদেশ,ঢাকা বিভাগ,local_admin,boundaries,['fuel'],[],Bangladesh,Dhaka,Munshiganj,Sreenagar,Sreenagar,6e672c2861b198f0a9b55f597eb9d312
534225157.0,893cf171aabffff,23.54555284,90.29716499,All Madina Jame Masjid আল মদিনা জামে মসজিদ,,"All Madina Jame Masjid, Sreenagar, Munshiganj District, Dhaka Division, Bangladesh","আল মদিনা জামে মসজিদ, মুন্সিগঞ্জ জেলা, ঢাকা বিভাগ, বাংলাদেশ",Sreenagar,বাংলাদেশ,ঢাকা বিভাগ,local_admin,boundaries,['place_of_worship_muslim'],[],Bangladesh,Dhaka,Munshiganj,Sreenagar,Patabhog,7aa9ec5f7d44e023ffd7e9643e2c8514
534225177.0,893cf171ab7ffff,23.54973027,90.29977283,Buicit Jame Masjid,,"Buicit Jame Masjid, Sreenagar, Munshiganj District, Dhaka Division, Bangladesh","বুয়েট জামে মসজিদ, মুন্সিগঞ্জ জেলা, ঢাকা বিভাগ, বাংলাদেশ",Sreenagar,বাংলাদেশ,ঢাকা বিভাগ,local_admin,boundaries,['place_of_worship_muslim'],[],Bangladesh,Dhaka,Munshiganj,Sreenagar,Sholaghar,7d7f8ef127ac677cfe9067ed953a7fdd
534226556.0,893cf17184bffff,23.55396807,90.29338801,বাংলাদেশ কৃষি ব্যাংক,['Bangladesh Krishi Bank'],"Bangladesh Agricultural Bank, Sreenagar, Munshiganj District, Dhaka Division, Bangladesh","বাংলাদেশ কৃষি ব্যাংক, মুন্সিগঞ্জ জেলা, ঢাকা বিভাগ, বাংলাদেশ",Sreenagar,বাংলাদেশ,ঢাকা বিভাগ,local_admin,boundaries,['bank'],[],Bangladesh,Dhaka,Munshiganj,Sreenagar,Sholaghar,7d7f8ef127ac677cfe9067ed953a7fdd
1749604296.0,893cf1646d7ffff,23.5498167,90.5347067,,,"Munshiganj, Munshiganj District, Dhaka Division, Bangladesh","মুন্সিগঞ্জ জেলা, ঢাকা বিভাগ, বাংলাদেশ",Munshiganj,বাংলাদেশ,ঢাকা বিভাগ,local_admin,boundaries,['post_office'],[],Bangladesh,Dhaka,Munshiganj,MunshiganjSadar,MunshiganjPaurashava,5009b17f5858f18eb2b8cea1d224a20d
1749604297.0,893cf1646c7ffff,23.5486881,90.5353773,CNG,,"CNG, Munshiganj, Munshiganj District, Dhaka Division, Bangladesh","সিএনজি, মুন্সিগঞ্জ জেলা, ঢাকা বিভাগ, বাংলাদেশ",Munshiganj,বাংলাদেশ,ঢাকা বিভাগ,local_admin,boundaries,['taxi'],[],Bangladesh,Dhaka,Munshiganj,MunshiganjSadar,MunshiganjPaurashava,5009b17f5858f18eb2b8cea1d224a20d
1749624366.0,893cf1646d7ffff,23.5506429,90.5349817,Tristar Hotel,,"Tristar Hotel, Munshiganj, Munshiganj District, Dhaka Division, Bangladesh","ত্রিস্টার হোটেল, মুন্সিগঞ্জ জেলা, ঢাকা বিভাগ, বাংলাদেশ",Munshiganj,বাংলাদেশ,ঢাকা বিভাগ,local_admin,boundaries,['hotel'],[],Bangladesh,Dhaka,Munshiganj,MunshiganjSadar,MunshiganjPaurashava,5009b17f5858f18eb2b8cea1d224a20d
1749628052.0,893cf1646d7ffff,23.5512303,90.5346017,Comfort Hotel,,"Comfort Hotel, Munshiganj, Munshiganj District, Dhaka Division, Bangladesh","কমফোর্ট হোটেল, মুন্সিগঞ্জ জেলা, ঢাকা বিভাগ, বাংলাদেশ",Munshiganj,বাংলাদেশ,ঢাকা বিভাগ,local_admin,boundaries,"['hotel', 'pharmacy']",[],Bangladesh,Dhaka,Munshiganj,MunshiganjSadar,MunshiganjPaurashava,5009b17f5858f18eb2b8cea1d224a20d
1749628134.0,893cf1646c7ffff,23.5498196,90.5358656,,,"Munshiganj, Munshiganj District, Dhaka Division, Bangladesh","মুন্সিগঞ্জ জেলা, ঢাকা বিভাগ, বাংলাদেশ",Munshiganj,বাংলাদেশ,ঢাকা বিভাগ,local_admin,boundaries,['place_of_worship_muslim'],[],Bangladesh,Dhaka,Munshiganj,MunshiganjSadar,MunshiganjPaurashava,5009b17f5858f18eb2b8cea1d224a20d
1754690506.0,893cf1646c3ffff,23.5495138,90.5348058,,,"Munshiganj, Munshiganj District, Dhaka Division, Bangladesh","মুন্সিগঞ্জ জেলা, ঢাকা বিভাগ, বাংলাদেশ",Munshiganj,বাংলাদেশ,ঢাকা বিভাগ,local_admin,boundaries,['pharmacy'],[],Bangladesh,Dhaka,Munshiganj,MunshiganjSadar,MunshiganjPaurashava,5009b17f5858f18eb2b8cea1d224a20d
1754690514.0,893cf1646c3ffff,23.5485497,90.534468,,,"Munshiganj, Munshiganj District, Dhaka Division, Bangladesh","মুন্সিগঞ্জ জেলা, ঢাকা বিভাগ, বাংলাদেশ",Munshiganj,বাংলাদেশ,ঢাকা বিভাগ,local_admin,boundaries,['hairdresser'],[],Bangladesh,Dhaka,Munshiganj,MunshiganjSadar,MunshiganjPaurashava,5009b17f5858f18eb2b8cea1d224a20d
1754696701.0,893cf1655b7ffff,23.5368964,90.5445475,,,"Munshiganj, Munshiganj District, Dhaka Division, Bangladesh","মুন্সিগঞ্জ জেলা, ঢাকা বিভাগ, বাংলাদেশ",Munshiganj,বাংলাদেশ,ঢাকা বিভাগ,local_admin,boundaries,['marketplace'],[],Bangladesh,Dhaka,Munshiganj,MunshiganjSadar,MunshiganjPaurashava,5009b17f5858f18eb2b8cea1d224a20d
2389131430.0,893cf1646c3ffff,23.5475883,90.5329919,Munshiganj Girls High School,,"Munshiganj Girls High School, Munshiganj, Munshiganj District, Dhaka Division, Bangladesh","মুনশিগঞ্জ গার্লস হাই স্কুল, মুন্সিগঞ্জ জেলা, ঢাকা বিভাগ, বাংলাদেশ",Munshiganj,বাংলাদেশ,ঢাকা বিভাগ,local_admin,boundaries,['school'],[],Bangladesh,Dhaka,Munshiganj,MunshiganjSadar,MunshiganjPaurashava,5009b17f5858f18eb2b8cea1d224a20d
3891208210.0,893cf167163ffff,23.556581,90.5307838,Idrakpur High School,,"Idrakpur High School, Munshiganj, Munshiganj District, Dhaka Division, Bangladesh","ইদ্রাকপুর উচ্চ বিদ্যালয়, মুন্সিগঞ্জ জেলা, ঢাকা বিভাগ, বাংলাদেশ",Munshiganj,বাংলাদেশ,ঢাকা বিভাগ,local_admin,boundaries,['school'],[],Bangladesh,Dhaka,Munshiganj,MunshiganjSadar,Panchasar,a7bab12c946b7f40eea227bafb93067b
3891255724.0,893cf167167ffff,23.556952,90.5344018,PTI Hostel (Female),,"PTI Hostel Female, Munshiganj, Munshiganj District, Dhaka Division, Bangladesh","পিটিআই হোস্টেল মহিলা, মুন্সিগঞ্জ জেলা, ঢাকা বিভাগ, বাংলাদেশ",Munshiganj,বাংলাদেশ,ঢাকা বিভাগ,local_admin,boundaries,['hostel'],[],Bangladesh,Dhaka,Munshiganj,MunshiganjSadar,MunshiganjPaurashava,5009b17f5858f18eb2b8cea1d224a20d
3891255725.0,893cf167167ffff,23.5576008,90.5334197,PTI Hostel (Female),,"PTI Hostel Female, Munshiganj, Munshiganj District, Dhaka Division, Bangladesh","পিটিআই হোস্টেল মহিলা, মুন্সিগঞ্জ জেলা, ঢাকা বিভাগ, বাংলাদেশ",Munshiganj,বাংলাদেশ,ঢাকা বিভাগ,local_admin,boundaries,['hostel'],[],Bangladesh,Dhaka,Munshiganj,MunshiganjSadar,MunshiganjPaurashava,5009b17f5858f18eb2b8cea1d224a20d
3891255726.0,893cf167167ffff,23.5566202,90.5342875,PTI Hostel (Male),,"PTI Hostel Male, Munshiganj, Munshiganj District, Dhaka Division, Bangladesh","পিটিআই হোস্টেল পুরুষ, মুন্সিগঞ্জ জেলা, ঢাকা বিভাগ, বাংলাদেশ",Munshiganj,বাংলাদেশ,ঢাকা বিভাগ,local_admin,boundaries,['hostel'],[],Bangladesh,Dhaka,Munshiganj,MunshiganjSadar,MunshiganjPaurashava,5009b17f5858f18eb2b8cea1d224a20d
3891255727.0,893cf167167ffff,23.5564601,90.5339492,PTI School,,"PTI School, Munshiganj, Munshiganj District, Dhaka Division, Bangladesh","পিটিআই স্কুল, মুন্সিগঞ্জ জেলা, ঢাকা বিভাগ, বাংলাদেশ",Munshiganj,বাংলাদেশ,ঢাকা বিভাগ,local_admin,boundaries,['school'],[],Bangladesh,Dhaka,Munshiganj,MunshiganjSadar,MunshiganjPaurashava,5009b17f5858f18eb2b8cea1d224a20d
3891255728.0,893cf167167ffff,23.5570255,90.533624,Primary Teacher's Training Institute(PTI),,"Primary Teacher's Training Institute PTI, Munshiganj, Munshiganj District, Dhaka Division, Bangladesh","প্রাথমিক শিক্ষকের প্রশিক্ষণ ইনস্টিটিউট পিটিআই, মুন্সিগঞ্জ জেলা, ঢাকা বিভাগ, বাংলাদেশ",Munshiganj,বাংলাদেশ,ঢাকা বিভাগ,local_admin,boundaries,['college'],[],Bangladesh,Dhaka,Munshiganj,MunshiganjSadar,MunshiganjPaurashava,5009b17f5858f18eb2b8cea1d224a20d
3891257561.0,893cf167167ffff,23.5563882,90.5332677,বাংলাদেশ কৃষি ব্যাংক,['Bangladesh Krishi Bank'],"Bangladesh Agricultural Bank, Munshiganj, Munshiganj District, Dhaka Division, Bangladesh","বাংলাদেশ কৃষি ব্যাংক, মুন্সিগঞ্জ জেলা, ঢাকা বিভাগ, বাংলাদেশ",Munshiganj,বাংলাদেশ,ঢাকা বিভাগ,local_admin,boundaries,['bank'],[],Bangladesh,Dhaka,Munshiganj,MunshiganjSadar,MunshiganjPaurashava,5009b17f5858f18eb2b8cea1d224a20d
3891260279.0,893cf167167ffff,23.5569174,90.5320536,Dapa Idrakpur Govt. Primary Shool,,"Dapa Idrakpur Govt. Primary Shool, Munshiganj, Munshiganj District, Dhaka Division, Bangladesh","দাপা ইদ্রাকপুর সরকার।প্রাথমিক বিদ্যালয়, মুন্সিগঞ্জ জেলা, ঢাকা বিভাগ, বাংলাদেশ",Munshiganj,বাংলাদেশ,ঢাকা বিভাগ,local_admin,boundaries,['school'],[],Bangladesh,Dhaka,Munshiganj,MunshiganjSadar,MunshiganjPaurashava,5009b17f5858f18eb2b8cea1d224a20d
3891260283.0,893cf167167ffff,23.5564762,90.5328249,,,"Munshiganj, Munshiganj District, Dhaka Division, Bangladesh","মুন্সিগঞ্জ জেলা, ঢাকা বিভাগ, বাংলাদেশ",Munshiganj,বাংলাদেশ,ঢাকা বিভাগ,local_admin,boundaries,['place_of_worship_muslim'],[],Bangladesh,Dhaka,Munshiganj,MunshiganjSadar,MunshiganjPaurashava,5009b17f5858f18eb2b8cea1d224a20d
3923731153.0,893cf16716fffff,23.5543665,90.5309553,Munshigonj General Hospital,,"Munshigonj General Hospital, Munshiganj, Munshiganj District, Dhaka Division, Bangladesh","মুনশিগনজ জেনারেল হাসপাতাল, মুন্সিগঞ্জ জেলা, ঢাকা বিভাগ, বাংলাদেশ",Munshiganj,বাংলাদেশ,ঢাকা বিভাগ,local_admin,boundaries,['hospital'],[],Bangladesh,Dhaka,Munshiganj,MunshiganjSadar,MunshiganjPaurashava,5009b17f5858f18eb2b8cea1d224a20d
4324853790.0,893cf16712bffff,23.5593826,90.5326188,ইসলামী ব্যাংক বাংলাদেশ,['Islami Bank Bangladesh'],"Islami Bank Bangladesh, Munshiganj, Munshiganj District, Dhaka Division, Bangladesh","ইসলামী ব্যাংক বাংলাদেশ, মুন্সিগঞ্জ জেলা, ঢাকা বিভাগ, বাংলাদেশ",Munshiganj,বাংলাদেশ,ঢাকা বিভাগ,local_admin,boundaries,['bank'],[],Bangladesh,Dhaka,Munshiganj,MunshiganjSadar,MunshiganjPaurashava,5009b17f5858f18eb2b8cea1d224a20d
4325608290.0,893cf1646d7ffff,23.5504906,90.5346708,Dutch-Bangla Bank Ltd.,,"Dutch-Bangla Bank Ltd., Munshiganj, Munshiganj District, Dhaka Division, Bangladesh","ডাচ-ব্যাংলা ব্যাংক লিমিটেড, মুন্সিগঞ্জ জেলা, ঢাকা বিভাগ, বাংলাদেশ",Munshiganj,বাংলাদেশ,ঢাকা বিভাগ,local_admin,boundaries,['bank'],[],Bangladesh,Dhaka,Munshiganj,MunshiganjSadar,MunshiganjPaurashava,5009b17f5858f18eb2b8cea1d224a20d
4325608738.0,893cf1646d7ffff,23.5503568,90.5346975,অগ্রণী ব্যাংক,"['অগ্রণী ব্যাংক', 'Agrani Bank']","Agrani Bank, Munshiganj, Munshiganj District, Dhaka Division, Bangladesh","অগ্রণী ব্যাংক, মুন্সিগঞ্জ জেলা, ঢাকা বিভাগ, বাংলাদেশ",Munshiganj,বাংলাদেশ,ঢাকা বিভাগ,local_admin,boundaries,['bank'],[],Bangladesh,Dhaka,Munshiganj,MunshiganjSadar,MunshiganjPaurashava,5009b17f5858f18eb2b8cea1d224a20d
4325614720.0,893cf16469bffff,23.5533074,90.5342845,Munshiganj Sadar Police Station,,"Munshiganj Sadar Police Station, Munshiganj, Munshiganj District, Dhaka Division, Bangladesh","মুনশিগঞ্জ সদর থানা, মুন্সিগঞ্জ জেলা, ঢাকা বিভাগ, বাংলাদেশ",Munshiganj,বাংলাদেশ,ঢাকা বিভাগ,local_admin,boundaries,['police'],[],Bangladesh,Dhaka,Munshiganj,MunshiganjSadar,MunshiganjPaurashava,5009b17f5858f18eb2b8cea1d224a20d
4325623603.0,893cf1671d7ffff,23.566242,90.5145631,Muktarpur Launch Ghat,,"Muktarpur Launch Ghat, Munshiganj, Munshiganj District, Dhaka Division, Bangladesh","মুক্তারপুর লঞ্চ ঘাট, মুন্সিগঞ্জ জেলা, ঢাকা বিভাগ, বাংলাদেশ",Munshiganj,বাংলাদেশ,ঢাকা বিভাগ,local_admin,boundaries,['ferry_terminal'],[],Bangladesh,Dhaka,Munshiganj,MunshiganjSadar,Panchasar,a7bab12c946b7f40eea227bafb93067b
4535426105.0,893cf167037ffff,23.5594172,90.5098719,,['Sheikh Computer'],"Munshiganj, Munshiganj District, Dhaka Division, Bangladesh","মুন্সিগঞ্জ জেলা, ঢাকা বিভাগ, বাংলাদেশ",Munshiganj,বাংলাদেশ,ঢাকা বিভাগ,local_admin,boundaries,['computer'],[],Bangladesh,Dhaka,Munshiganj,MunshiganjSadar,Panchasar,a7bab12c946b7f40eea227bafb93067b
2382257864.0,893cf164943ffff,23.5529684,90.6529191,Gazaria Upazila Health Complex,,"Gazaria Upazila Health Complex, Lakkhipur, Gazaria, Munshiganj District, Dhaka Division, Bangladesh","গাজারিয়া উপজিলা স্বাস্থ্য কমপ্লেক্স, লক্ষীপুর, মুন্সিগঞ্জ জেলা, ঢাকা বিভাগ, বাংলাদেশ",Gazaria,বাংলাদেশ,ঢাকা বিভাগ,locality,boundaries,['hospital'],[],Bangladesh,Dhaka,Munshiganj,Gazaria,Bausia,7d6a3f1ee8d0a204a363223890c73eaa
4483427139.0,893cf16482fffff,23.5503599,90.6479826,Bhaberchar Wazir Ali High School,,"Bhaberchar Wazir Ali High School, Gazaria, Munshiganj District, Dhaka Division, Bangladesh","ভাবারচার ওয়াজির আলী উচ্চ বিদ্যালয়, মুন্সিগঞ্জ জেলা, ঢাকা বিভাগ, বাংলাদেশ",Gazaria,বাংলাদেশ,ঢাকা বিভাগ,local_admin,boundaries,['school'],[],Bangladesh,Dhaka,Munshiganj,Gazaria,BhaberChar,29bb61d5b96ff83e7622c059d3796cf6
4483448675.0,893cf1649cfffff,23.5557589,90.651554,Gazaria Kolimullah University College,,"Gazaria Kolimullah University College, Gazaria, Munshiganj District, Dhaka Division, Bangladesh","গাজারিয়া কোলিমুল্লাহ বিশ্ববিদ্যালয় কলেজ, মুন্সিগঞ্জ জেলা, ঢাকা বিভাগ, বাংলাদেশ",Gazaria,বাংলাদেশ,ঢাকা বিভাগ,local_admin,boundaries,['college'],[],Bangladesh,Dhaka,Munshiganj,Gazaria,BhaberChar,29bb61d5b96ff83e7622c059d3796cf6
4722395121.0,893cf16495bffff,23.5521986,90.6493208,Bhaberchar Bazar,,"Bhaberchar Bazar, Gazaria, Munshiganj District, Dhaka Division, Bangladesh","ভবারচার বাজার, মুন্সিগঞ্জ জেলা, ঢাকা বিভাগ, বাংলাদেশ",Gazaria,বাংলাদেশ,ঢাকা বিভাগ,local_admin,boundaries,['marketplace'],[],Bangladesh,Dhaka,Munshiganj,Gazaria,Bausia,7d6a3f1ee8d0a204a363223890c73eaa
4722397185.0,893cf164b97ffff,23.5487279,90.6502161,Lakkhipur Moulobi Bari Jam-E Masjid,['লক্ষীপুর মৌলভী বাড়ি জামে মসজদি'],"Lakkhipur Moulobi Bari Jam-E Masjid, Lakkhipur, Gazaria, Munshiganj District, Dhaka Division, Bangladesh","লাকশিপুর মৌলোবি বারী জাম-ই মসজিদ, লক্ষীপুর, মুন্সিগঞ্জ জেলা, ঢাকা বিভাগ, বাংলাদেশ",Gazaria,বাংলাদেশ,ঢাকা বিভাগ,locality,boundaries,['place_of_worship_muslim'],[],Bangladesh,Dhaka,Munshiganj,Gazaria,Bausia,7d6a3f1ee8d0a204a363223890c73eaa
4722397186.0,893cf164b97ffff,23.5484143,90.649311,Lokkhipur Nurani Talimul Quran Hafeziya Madrasa & Atim Khana,,"Lokkhipur Nurani Talimul Quran Hafeziya Madrasa & Atim Khana, Lakkhipur, Gazaria, Munshiganj District, Dhaka Division, Bangladesh","লোকশীপুর নুরানী তালিমুল কুরআন হাফিজিয়া মাদ্রাসা ও আতিম খানা, লক্ষীপুর, মুন্সিগঞ্জ জেলা, ঢাকা বিভাগ, বাংলাদেশ",Gazaria,বাংলাদেশ,ঢাকা বিভাগ,locality,boundaries,['educational_institution'],[],Bangladesh,Dhaka,Munshiganj,Gazaria,Bausia,7d6a3f1ee8d0a204a363223890c73eaa
4722404958.0,893cf16495bffff,23.5511586,90.6509873,Lakkhipur Uttarpara Rupali Market Jame Masjid,['লক্ষ্মীপুর উত্তরপাড়া রুপালী মার্কেট জামে মসজিদ'],"Lakkhipur Uttarpara Rupali Market Jame Masjid, Lakkhipur, Gazaria, Munshiganj District, Dhaka Division, Bangladesh","লাকশিপুর উত্তরাপুর রুপালি মার্কেট জামে মসজিদ, লক্ষীপুর, মুন্সিগঞ্জ জেলা, ঢাকা বিভাগ, বাংলাদেশ",Gazaria,বাংলাদেশ,ঢাকা বিভাগ,locality,boundaries,['place_of_worship_muslim'],[],Bangladesh,Dhaka,Munshiganj,Gazaria,Bausia,7d6a3f1ee8d0a204a363223890c73eaa
4809117121.0,893cf16491bffff,23.5589808,90.6564227,,['Friends Electronics(Walton )'],"Gazaria, Munshiganj District, Dhaka Division, Bangladesh","মুন্সিগঞ্জ জেলা, ঢাকা বিভাগ, বাংলাদেশ",Gazaria,বাংলাদেশ,ঢাকা বিভাগ,local_admin,boundaries,['electronics'],[],Bangladesh,Dhaka,Munshiganj,Gazaria,BhaberChar,29bb61d5b96ff83e7622c059d3796cf6
5118707070.0,893cf16695bffff,23.6027496,90.6195829,Arman store,,"Arman store, Gazaria, Munshiganj District, Dhaka Division, Bangladesh","আরমান স্টোর, মুন্সিগঞ্জ জেলা, ঢাকা বিভাগ, বাংলাদেশ",Gazaria,বাংলাদেশ,ঢাকা বিভাগ,local_admin,boundaries,['variety_store'],[],Bangladesh,Dhaka,Munshiganj,Gazaria,Baluakandi,9b31eaf2453f68445715416f5460379a
5118716733.0,893cf166b97ffff,23.5996626,90.6183966,Jamaladi bus stand জামালদি বাস স্ট্যান্ড,,"Jamaladi bus stand, Gazaria, Munshiganj District, Dhaka Division, Bangladesh","জামালদি বাস স্ট্যান্ড, মুন্সিগঞ্জ জেলা, ঢাকা বিভাগ, বাংলাদেশ",Gazaria,বাংলাদেশ,ঢাকা বিভাগ,street,boundaries,['bus_stop'],[],Bangladesh,Dhaka,Munshiganj,Gazaria,Baluakandi,9b31eaf2453f68445715416f5460379a
5118716782.0,893cf166b83ffff,23.5988409,90.6183772,Khokon Electronics খোকন ইলেক্ট্রনিক্স,,"Khokon Electronics, Gazaria, Munshiganj District, Dhaka Division, Bangladesh","খোকন ইলেক্ট্রনিক্স, মুন্সিগঞ্জ জেলা, ঢাকা বিভাগ, বাংলাদেশ",Gazaria,বাংলাদেশ,ঢাকা বিভাগ,local_admin,boundaries,['electronics'],[],Bangladesh,Dhaka,Munshiganj,Gazaria,Hossaindi,6255eaa73134d39d7bad7880693978cc
5118722194.0,893cf166b83ffff,23.5974213,90.6198874,Hamdard University Cafeteria হামদর্দ বিশ্ববিদ্যালয়ের ক্যাফেটেরিয়া,,"Hamdard University Cafeteria, Gazaria, Munshiganj District, Dhaka Division, Bangladesh","হামদর্দ বিশ্ববিদ্যালয়ের ক্যাফেটেরিয়া, মুন্সিগঞ্জ জেলা, ঢাকা বিভাগ, বাংলাদেশ",Gazaria,বাংলাদেশ,ঢাকা বিভাগ,local_admin,boundaries,['restaurant'],[],Bangladesh,Dhaka,Munshiganj,Gazaria,Hossaindi,6255eaa73134d39d7bad7880693978cc
5118730154.0,893cf166b33ffff,23.5926686,90.6287743,Magvill Sweets & Bakery,,"Magvill Sweets & Bakery, Gazaria, Munshiganj District, Dhaka Division, Bangladesh","ম্যাগভিল মিষ্টি এবং বেকারি, মুন্সিগঞ্জ জেলা, ঢাকা বিভাগ, বাংলাদেশ",Gazaria,বাংলাদেশ,ঢাকা বিভাগ,local_admin,boundaries,['restaurant'],[],Bangladesh,Dhaka,Munshiganj,Gazaria,Baluakandi,9b31eaf2453f68445715416f5460379a
5118733854.0,893cf166b33ffff,23.5920311,90.6294183,Shah Sher Ali Hotel & Restaurant,,"Shah Sher Ali Hotel & Restaurant, Gazaria, Munshiganj District, Dhaka Division, Bangladesh","শাহ শের আলী হোটেল ও রেস্তোঁরা, মুন্সিগঞ্জ জেলা, ঢাকা বিভাগ, বাংলাদেশ",Gazaria,বাংলাদেশ,ঢাকা বিভাগ,local_admin,boundaries,['restaurant'],[],Bangladesh,Dhaka,Munshiganj,Gazaria,Baluakandi,9b31eaf2453f68445715416f5460379a
5118739838.0,893cf164d97ffff,23.5862324,90.6358226,ডাচ-বাংলা প্যাক লিমিটেড ফ্যাক্টরী,['Dutch-Bangla Pack Limited Factory'],"Dutch-Bangla Pack Limited Factory, Gazaria, Munshiganj District, Dhaka Division, Bangladesh","ডাচ-বাংলা প্যাক লিমিটেড ফ্যাক্টরী, মুন্সিগঞ্জ জেলা, ঢাকা বিভাগ, বাংলাদেশ",Gazaria,বাংলাদেশ,ঢাকা বিভাগ,local_admin,boundaries,['park'],[],Bangladesh,Dhaka,Munshiganj,Gazaria,Baluakandi,9b31eaf2453f68445715416f5460379a
5118763864.0,893cf164d0fffff,23.5737931,90.6440082,Anarpura Bus Station,,"Anarpura Bus Station, Gazaria, Munshiganj District, Dhaka Division, Bangladesh","আনারপুরা বাস স্টেশন, মুন্সিগঞ্জ জেলা, ঢাকা বিভাগ, বাংলাদেশ",Gazaria,বাংলাদেশ,ঢাকা বিভাগ,local_admin,boundaries,['bus_station'],[],Bangladesh,Dhaka,Munshiganj,Gazaria,BhaberChar,29bb61d5b96ff83e7622c059d3796cf6
5118784887.0,893cf16491bffff,23.5588614,90.656506,Apex,,"Apex, Gazaria, Munshiganj District, Dhaka Division, Bangladesh","শীর্ষে, মুন্সিগঞ্জ জেলা, ঢাকা বিভাগ, বাংলাদেশ",Gazaria,বাংলাদেশ,ঢাকা বিভাগ,local_admin,boundaries,['shoes'],[],Bangladesh,Dhaka,Munshiganj,Gazaria,BhaberChar,29bb61d5b96ff83e7622c059d3796cf6
5118785228.0,893cf1649c7ffff,23.5604232,90.6537412,Varaities Store,,"Varaities Store, Gazaria, Munshiganj District, Dhaka Division, Bangladesh","ভ্যারিটিস স্টোর, মুন্সিগঞ্জ জেলা, ঢাকা বিভাগ, বাংলাদেশ",Gazaria,বাংলাদেশ,ঢাকা বিভাগ,local_admin,boundaries,['shoes'],[],Bangladesh,Dhaka,Munshiganj,Gazaria,BhaberChar,29bb61d5b96ff83e7622c059d3796cf6
5118789011.0,893cf16491bffff,23.5595878,90.6557935,Akota Shoes,,"Akota Shoes, Gazaria, Munshiganj District, Dhaka Division, Bangladesh","আকোটা জুতা, মুন্সিগঞ্জ জেলা, ঢাকা বিভাগ, বাংলাদেশ",Gazaria,বাংলাদেশ,ঢাকা বিভাগ,local_admin,boundaries,['shoes'],[],Bangladesh,Dhaka,Munshiganj,Gazaria,BhaberChar,29bb61d5b96ff83e7622c059d3796cf6
5118791097.0,893cf16491bffff,23.5595288,90.6557841,,,"Gazaria, Munshiganj District, Dhaka Division, Bangladesh","মুন্সিগঞ্জ জেলা, ঢাকা বিভাগ, বাংলাদেশ",Gazaria,বাংলাদেশ,ঢাকা বিভাগ,local_admin,boundaries,['atm'],[],Bangladesh,Dhaka,Munshiganj,Gazaria,BhaberChar,29bb61d5b96ff83e7622c059d3796cf6
5118803996.0,893cf16491bffff,23.5586495,90.6561538,Bhaberchar Bus Stand Jam-E Masjid ভবেরচর বাসস্ট্যান্ড জামে মসজিদ,,"Bhaberchar Bus Stand Jam-E Masjid, Gazaria, Munshiganj District, Dhaka Division, Bangladesh","ভবেরচর বাসস্ট্যান্ড জামে মসজিদ, মুন্সিগঞ্জ জেলা, ঢাকা বিভাগ, বাংলাদেশ",Gazaria,বাংলাদেশ,ঢাকা বিভাগ,local_admin,boundaries,['place_of_worship_muslim'],[],Bangladesh,Dhaka,Munshiganj,Gazaria,BhaberChar,29bb61d5b96ff83e7622c059d3796cf6
5118814801.0,893cf16496fffff,23.5503756,90.6656231,Active Pharmaceutical Ingredients(API) Industrial Park,,"Active Pharmaceutical Ingredients API Industrial Park, Gazaria, Munshiganj District, Dhaka Division, Bangladesh","সক্রিয় ফার্মাসিউটিক্যাল উপাদানগুলি এপিআই শিল্প পার্ক, মুন্সিগঞ্জ জেলা, ঢাকা বিভাগ, বাংলাদেশ",Gazaria,বাংলাদেশ,ঢাকা বিভাগ,local_admin,boundaries,['park'],[],Bangladesh,Dhaka,Munshiganj,Gazaria,Bausia,7d6a3f1ee8d0a204a363223890c73eaa
5118819394.0,893cf164977ffff,23.553215,90.6638715,Uzan Vati High-way Restaurant,,"Uzan Vati High-way Restaurant, Gazaria, Munshiganj District, Dhaka Division, Bangladesh","উজান ভাতি হাই-ওয়ে রেস্তোঁরা, মুন্সিগঞ্জ জেলা, ঢাকা বিভাগ, বাংলাদেশ",Gazaria,বাংলাদেশ,ঢাকা বিভাগ,local_admin,boundaries,['restaurant'],[],Bangladesh,Dhaka,Munshiganj,Gazaria,Bausia,7d6a3f1ee8d0a204a363223890c73eaa
5118822143.0,893cc6916d7ffff,23.5480565,90.6684571,Char Bausia Bus Stop,,"Char Bausia Bus Stop, Gazaria, Munshiganj District, Dhaka Division, Bangladesh","চর বাউসিয়া বাস স্টপ, মুন্সিগঞ্জ জেলা, ঢাকা বিভাগ, বাংলাদেশ",Gazaria,বাংলাদেশ,ঢাকা বিভাগ,street,boundaries,['bus_stop'],[],Bangladesh,Dhaka,Munshiganj,Gazaria,Bausia,7d6a3f1ee8d0a204a363223890c73eaa
5118828075.0,893cc69160bffff,23.540749,90.6763459,Anwar Cement Sheet Ltd.,,"Anwar Cement Sheet Ltd., Gazaria, Munshiganj District, Dhaka Division, Bangladesh","আনোয়ার সিমেন্ট শীট লিমিটেড, মুন্সিগঞ্জ জেলা, ঢাকা বিভাগ, বাংলাদেশ",Gazaria,বাংলাদেশ,ঢাকা বিভাগ,local_admin,boundaries,['company'],[],Bangladesh,Dhaka,Munshiganj,Gazaria,Bausia,7d6a3f1ee8d0a204a363223890c73eaa
5118843307.0,893cc691673ffff,23.5394609,90.6777323,Anwar Cement Sheet Ltd. (ACSL),,"Anwar Cement Sheet Ltd. ACSL, Gazaria, Munshiganj District, Dhaka Division, Bangladesh","আনোয়ার সিমেন্ট শীট লিমিটেড এসিএসএল, মুন্সিগঞ্জ জেলা, ঢাকা বিভাগ, বাংলাদেশ",Gazaria,বাংলাদেশ,ঢাকা বিভাগ,local_admin,boundaries,['company'],[],Bangladesh,Dhaka,Munshiganj,Gazaria,Bausia,7d6a3f1ee8d0a204a363223890c73eaa
5118866873.0,893cc6912c7ffff,23.5293879,90.6880907,Ramij Uddin Prodhan Super Market রমিজ উদ্দিন প্রধান সুপার মার্কেট,,"Ramij Uddin Prodhan Super Market, Gazaria, Munshiganj District, Dhaka Division, Bangladesh","রমিজ উদ্দিন প্রধান সুপার মার্কেট, মুন্সিগঞ্জ জেলা, ঢাকা বিভাগ, বাংলাদেশ",Gazaria,বাংলাদেশ,ঢাকা বিভাগ,local_admin,boundaries,['marketplace'],[],Bangladesh,Dhaka,Munshiganj,Gazaria,Bausia,7d6a3f1ee8d0a204a363223890c73eaa
5118876145.0,893cc6912c7ffff,23.5293968,90.6883412,Urmi Motors & Telecom উর্মি মটরস ও টেলিকম,,"Urmi Motors & Telecom, Gazaria, Munshiganj District, Dhaka Division, Bangladesh","উর্মি মটরস ও টেলিকম, মুন্সিগঞ্জ জেলা, ঢাকা বিভাগ, বাংলাদেশ",Gazaria,বাংলাদেশ,ঢাকা বিভাগ,local_admin,boundaries,['mobile_phone'],[],Bangladesh,Dhaka,Munshiganj,Gazaria,Bausia,7d6a3f1ee8d0a204a363223890c73eaa
5118881645.0,893cc691203ffff,23.5282105,90.6967083,Daudkandi Launch Terminal দাঊদকান্দি লঞ্চ টার্মিনাল,,"Daudkandi Launch Terminal, Gazaria, Munshiganj District, Dhaka Division, Bangladesh","দাঊদকান্দি লঞ্চ টার্মিনাল, মুন্সিগঞ্জ জেলা, ঢাকা বিভাগ, বাংলাদেশ",Gazaria,বাংলাদেশ,ঢাকা বিভাগ,local_admin,boundaries,['ferry_terminal'],[],Bangladesh,Dhaka,Munshiganj,Gazaria,Bausia,7d6a3f1ee8d0a204a363223890c73eaa
604637413.0,893cf178883ffff,23.4657914,90.2887227,Mawa Bus Station,,"Mawa Bus Station, Louhajang Upazila, Munshiganj District, Dhaka Division, Bangladesh","মাওয়া বাস স্টেশন, লৌহজং উপজেলা, মুন্সিগঞ্জ জেলা, ঢাকা বিভাগ, বাংলাদেশ",লৌহজং উপজেলা,বাংলাদেশ,ঢাকা বিভাগ,local_admin,boundaries,['bus_station'],[],Bangladesh,Dhaka,Munshiganj,Lohajang,Kumarbhog,8b24f284aea3f5a4dbf0d068b7128a4b
5341017603.0,893cf1654cbffff,23.5160958,90.5032856,Madina Bazar,['মদিনা বাজার'],"Madina Bazar, Munshiganj, Munshiganj District, Dhaka Division, Bangladesh","মদিনা বাজার, মুন্সিগঞ্জ জেলা, ঢাকা বিভাগ, বাংলাদেশ",Munshiganj,বাংলাদেশ,ঢাকা বিভাগ,local_admin,boundaries,['marketplace'],[],Bangladesh,Dhaka,Munshiganj,MunshiganjSadar,BajraJogini,4eeedde894cc755a164bb921b042b849
5642976422.0,893cf167033ffff,23.5585788,90.509328,Muktarpur Petrol Pump Mor,,"Muktarpur Petrol Pump Mor, Munshiganj, Munshiganj District, Dhaka Division, Bangladesh","মুক্তমনা, মুন্সিগঞ্জ জেলা, ঢাকা বিভাগ, বাংলাদেশ",Munshiganj,বাংলাদেশ,ঢাকা বিভাগ,street,boundaries,['bus_stop'],[],Bangladesh,Dhaka,Munshiganj,MunshiganjSadar,Panchasar,a7bab12c946b7f40eea227bafb93067b
5642976434.0,893cf167167ffff,23.558352,90.5326813,Munshiganj Launch Ghat Bus Stop,,"Munshiganj Launch Ghat Bus Stop, Munshiganj, Munshiganj District, Dhaka Division, Bangladesh","মুনশিগঞ্জ লঞ্চ ঘাট বাস স্টপ, মুন্সিগঞ্জ জেলা, ঢাকা বিভাগ, বাংলাদেশ",Munshiganj,বাংলাদেশ,ঢাকা বিভাগ,street,boundaries,['bus_stop'],[],Bangladesh,Dhaka,Munshiganj,MunshiganjSadar,MunshiganjPaurashava,5009b17f5858f18eb2b8cea1d224a20d
5645052561.0,893cf1646c3ffff,23.5492325,90.5344275,,,"Munshiganj, Munshiganj District, Dhaka Division, Bangladesh","মুন্সিগঞ্জ জেলা, ঢাকা বিভাগ, বাংলাদেশ",Munshiganj,বাংলাদেশ,ঢাকা বিভাগ,local_admin,boundaries,['place_of_worship_muslim'],[],Bangladesh,Dhaka,Munshiganj,MunshiganjSadar,MunshiganjPaurashava,5009b17f5858f18eb2b8cea1d224a20d
5645052570.0,893cf1646c7ffff,23.5486695,90.5379492,Haraganga College,,"Haraganga College, Munshiganj, Munshiganj District, Dhaka Division, Bangladesh","হারাগাঙ্গা কলেজ, মুন্সিগঞ্জ জেলা, ঢাকা বিভাগ, বাংলাদেশ",Munshiganj,বাংলাদেশ,ঢাকা বিভাগ,local_admin,boundaries,['university'],[],Bangladesh,Dhaka,Munshiganj,MunshiganjSadar,MunshiganjPaurashava,5009b17f5858f18eb2b8cea1d224a20d
907650824.0,893cf17a357ffff,23.49397689,90.21155964,,,"Sreenagar, Munshiganj District, Dhaka Division, Bangladesh","মুন্সিগঞ্জ জেলা, ঢাকা বিভাগ, বাংলাদেশ",Sreenagar,বাংলাদেশ,ঢাকা বিভাগ,local_admin,boundaries,['island'],[],Bangladesh,Dhaka,Munshiganj,Sreenagar,Bhagyakul,60817250bd7fdc5162b0f0bad37a0771
907670150.0,893cf17a077ffff,23.50817924,90.20155086,,,"Sreenagar, Munshiganj District, Dhaka Division, Bangladesh","মুন্সিগঞ্জ জেলা, ঢাকা বিভাগ, বাংলাদেশ",Sreenagar,বাংলাদেশ,ঢাকা বিভাগ,local_admin,boundaries,['island'],[],Bangladesh,Dhaka,Munshiganj,Sreenagar,Bhagyakul,60817250bd7fdc5162b0f0bad37a0771
957155227.0,893cf171a73ffff,23.53483102,90.29602669,,,"Sreenagar, Munshiganj District, Dhaka Division, Bangladesh","মুন্সিগঞ্জ জেলা, ঢাকা বিভাগ, বাংলাদেশ",Sreenagar,বাংলাদেশ,ঢাকা বিভাগ,local_admin,boundaries,['substation'],[],Bangladesh,Dhaka,Munshiganj,Sreenagar,Patabhog,7aa9ec5f7d44e023ffd7e9643e2c8514
979437267.0,893cf17124bffff,23.5309597,90.22044265,Bikrampur Museum,,"Bikrampur Museum, Sreenagar, Munshiganj District, Dhaka Division, Bangladesh","বিকরামপুর যাদুঘর, মুন্সিগঞ্জ জেলা, ঢাকা বিভাগ, বাংলাদেশ",Sreenagar,বাংলাদেশ,ঢাকা বিভাগ,local_admin,boundaries,['museum'],[],Bangladesh,Dhaka,Munshiganj,Sreenagar,Rarikhal,056374e97ca372089427e522b1852aa8
979437283.0,893cf17adabffff,23.53953803,90.27428224,Shyamsiddhir Moth,,"Shyamsiddhir Moth, Sreenagar, Munshiganj District, Dhaka Division, Bangladesh","শ্যামসিদ্ধির মথ, মুন্সিগঞ্জ জেলা, ঢাকা বিভাগ, বাংলাদেশ",Sreenagar,বাংলাদেশ,ঢাকা বিভাগ,local_admin,boundaries,['place_of_worship'],[],Bangladesh,Dhaka,Munshiganj,Sreenagar,Shyamsiddhi,463882991bd77d4f816f292be680b5f8
1014121562.0,893cf17abcbffff,23.49466909,90.2697628,Cafe Highway Inn,,"Cafe Highway Inn, Louhajang Upazila, Munshiganj District, Dhaka Division, Bangladesh","ক্যাফে হাইওয়ে ইন, লৌহজং উপজেলা, মুন্সিগঞ্জ জেলা, ঢাকা বিভাগ, বাংলাদেশ",লৌহজং উপজেলা,বাংলাদেশ,ঢাকা বিভাগ,local_admin,boundaries,['restaurant'],[],Bangladesh,Dhaka,Munshiganj,Lohajang,MediniMandal,b07e050e17ede98aec1dae9fc2cb5d58
1066936511.0,893cf170597ffff,23.64788116,90.27236346,Humayun Point,,"Humayun Point, Sirajdikhan, Munshiganj District, Dhaka Division, Bangladesh","হুমায়ুন পয়েন্ট, মুন্সিগঞ্জ জেলা, ঢাকা বিভাগ, বাংলাদেশ",Sirajdikhan,বাংলাদেশ,ঢাকা বিভাগ,local_admin,boundaries,['park'],[],Bangladesh,Dhaka,Munshiganj,Serajdikhan,Chitrakot,9c1489ea5c210f1848047268d2eab84e
1066937344.0,893cf170487ffff,23.63819597,90.25112215,Kharshur Bazar,,"Kharshur Bazar, Nawabganj Upazila, Dhaka District, Dhaka Division, Bangladesh","খড়শুর বাজার, নবাবগঞ্জ উপজেলা, ঢাকা জেলা, ঢাকা বিভাগ, বাংলাদেশ",নবাবগঞ্জ উপজেলা,বাংলাদেশ,ঢাকা বিভাগ,local_admin,boundaries,['marketplace'],[],Bangladesh,Dhaka,Munshiganj,Serajdikhan,Chitrakot,9c1489ea5c210f1848047268d2eab84e
1066937345.0,893cf170487ffff,23.63831918,90.25026511,Kharshur High School,,"Kharshur High School, Nawabganj Upazila, Dhaka District, Dhaka Division, Bangladesh","খড়শুর উচ্চ বিদ্যালয়, নবাবগঞ্জ উপজেলা, ঢাকা জেলা, ঢাকা বিভাগ, বাংলাদেশ",নবাবগঞ্জ উপজেলা,বাংলাদেশ,ঢাকা বিভাগ,local_admin,boundaries,['school'],[],Bangladesh,Dhaka,Munshiganj,Serajdikhan,Chitrakot,9c1489ea5c210f1848047268d2eab84e
1067515333.0,893cf17aacfffff,23.48793256,90.2482409,Jashaldia Padma Setu Primary School,,"Jashaldia Padma Setu Primary School, Louhajang Upazila, Munshiganj District, Dhaka Division, Bangladesh","জাশালদিয়া পদ্মা সেতু প্রাথমিক বিদ্যালয়, লৌহজং উপজেলা, মুন্সিগঞ্জ জেলা, ঢাকা বিভাগ, বাংলাদেশ",লৌহজং উপজেলা,বাংলাদেশ,ঢাকা বিভাগ,local_admin,boundaries,['school'],[],Bangladesh,Dhaka,Munshiganj,Lohajang,MediniMandal,b07e050e17ede98aec1dae9fc2cb5d58
1067515403.0,893cf17aacfffff,23.48816912,90.24826514,,,"Louhajang Upazila, Munshiganj District, Dhaka Division, Bangladesh","লৌহজং উপজেলা, মুন্সিগঞ্জ জেলা, ঢাকা বিভাগ, বাংলাদেশ",লৌহজং উপজেলা,বাংলাদেশ,ঢাকা বিভাগ,local_admin,boundaries,['playground'],[],Bangladesh,Dhaka,Munshiganj,Lohajang,MediniMandal,b07e050e17ede98aec1dae9fc2cb5d58
1067526200.0,893cf17aa4fffff,23.47992761,90.25541182,,,"Louhajang Upazila, Munshiganj District, Dhaka Division, Bangladesh","লৌহজং উপজেলা, মুন্সিগঞ্জ জেলা, ঢাকা বিভাগ, বাংলাদেশ",লৌহজং উপজেলা,বাংলাদেশ,ঢাকা বিভাগ,local_admin,boundaries,['swimming_pool'],[],Bangladesh,Dhaka,Munshiganj,Lohajang,MediniMandal,b07e050e17ede98aec1dae9fc2cb5d58
4605647589.0,893cf17060fffff,23.6069297,90.2496653,,,,,Sreenagar,বাংলাদেশ,ঢাকা বিভাগ,housenumber,,,,Bangladesh,Dhaka,Munshiganj,Sreenagar,Baraikhali,9ac1529fc3fadddcaf69ac5985b93c6c
4713465391.0,893cf17060fffff,23.6069013,90.2496278,,,,,Sreenagar,বাংলাদেশ,ঢাকা বিভাগ,housenumber,,,,Bangladesh,Dhaka,Munshiganj,Sreenagar,Baraikhali,9ac1529fc3fadddcaf69ac5985b93c6c
6146878978.0,893cf1641c7ffff,23.5627499,90.5844265,,,"Gazaria, Munshiganj District, Dhaka Division, Bangladesh","মুন্সিগঞ্জ জেলা, ঢাকা বিভাগ, বাংলাদেশ",Gazaria,বাংলাদেশ,ঢাকা বিভাগ,local_admin,boundaries,['ferry_terminal'],[],Bangladesh,Dhaka,Munshiganj,Gazaria,Hossaindi,6255eaa73134d39d7bad7880693978cc
6894048885.0,893cf16554fffff,23.5157701,90.5324705,,['아짐와이프 집'],"Munshiganj, Munshiganj District, Dhaka Division, Bangladesh","মুন্সিগঞ্জ জেলা, ঢাকা বিভাগ, বাংলাদেশ",Munshiganj,বাংলাদেশ,ঢাকা বিভাগ,local_admin,boundaries,['attraction'],[],Bangladesh,Dhaka,Munshiganj,MunshiganjSadar,CharKewar,1a5509544d729a2553961bbd674ba3ca
7001669331.0,893cf16710fffff,23.5616859,90.5273035,Professor Iajuddin Residential Model College Jame Masjid,,"Professor Iajuddin Residential Model College Jame Masjid, Munshiganj, Munshiganj District, Dhaka Division, Bangladesh","অধ্যাপক আইয়জডিন আবাসিক মডেল কলেজ জামে মসজিদ, মুন্সিগঞ্জ জেলা, ঢাকা বিভাগ, বাংলাদেশ",Munshiganj,বাংলাদেশ,ঢাকা বিভাগ,local_admin,boundaries,['place_of_worship_muslim'],[],Bangladesh,Dhaka,Munshiganj,MunshiganjSadar,Panchasar,a7bab12c946b7f40eea227bafb93067b
7383653450.0,893cf16c583ffff,23.4294539,90.5255645,sardarbari jame masjid,['সরদারবাড়ী জামে মসজিদ'],"sardarbari jame masjid, ","সরদারবারি জামে মসজিদ, ",Munshiganj,বাংলাদেশ,ঢাকা বিভাগ,housenumber,sameSource,['place_of_worship_muslim'],[],Bangladesh,Dhaka,Munshiganj,MunshiganjSadar,BanglaBazar,24f1fc8eb63ac05957a414374bee8df9
7383672556.0,893cf16c583ffff,23.4289001,90.5263084,kakon store,['কাকন স্টোর'],"kakon store, ","কাকন স্টোর, ",Munshiganj,বাংলাদেশ,ঢাকা বিভাগ,housenumber,sameSource,['supermarket'],[],Bangladesh,Dhaka,Munshiganj,MunshiganjSadar,BanglaBazar,24f1fc8eb63ac05957a414374bee8df9
7383786272.0,893cf16e363ffff,23.4293385,90.5156228,,,"Munshiganj, Munshiganj District, Dhaka Division, Bangladesh","মুন্সিগঞ্জ জেলা, ঢাকা বিভাগ, বাংলাদেশ",Munshiganj,বাংলাদেশ,ঢাকা বিভাগ,local_admin,boundaries,['taxi'],[],Bangladesh,Dhaka,Munshiganj,MunshiganjSadar,BanglaBazar,24f1fc8eb63ac05957a414374bee8df9
7383803889.0,893cf16ee4fffff,23.4340382,90.5355688,auto station,,"auto station, Munshiganj, Munshiganj District, Dhaka Division, Bangladesh","অটো স্টেশন, মুন্সিগঞ্জ জেলা, ঢাকা বিভাগ, বাংলাদেশ",Munshiganj,বাংলাদেশ,ঢাকা বিভাগ,local_admin,boundaries,['taxi'],[],Bangladesh,Dhaka,Munshiganj,MunshiganjSadar,BanglaBazar,24f1fc8eb63ac05957a414374bee8df9
7384013477.0,893cf16c583ffff,23.4292378,90.5255343,farhad sardar's house,['ফরহাদ সরদার এর বাড়ি'],"farhad sardar's house, ","ফরহাদ সর্দারের বাড়ি, ",Munshiganj,বাংলাদেশ,ঢাকা বিভাগ,housenumber,sameSource,['motel'],[],Bangladesh,Dhaka,Munshiganj,MunshiganjSadar,BanglaBazar,24f1fc8eb63ac05957a414374bee8df9
7384268424.0,893cf16c587ffff,23.4296886,90.5280218,দেওয়ান পুকুর,['dewan pukor'],"Dewan pond, Munshiganj, Munshiganj District, Dhaka Division, Bangladesh","দেওয়ান পুকুর, মুন্সিগঞ্জ জেলা, ঢাকা বিভাগ, বাংলাদেশ",Munshiganj,বাংলাদেশ,ঢাকা বিভাগ,local_admin,boundaries,['sports_centre'],[],Bangladesh,Dhaka,Munshiganj,MunshiganjSadar,BanglaBazar,24f1fc8eb63ac05957a414374bee8df9
7785066255.0,893cf1646d7ffff,23.5523361,90.5343789,R.K. Thai Aluminium & Glass House,,"R.K. Thai Aluminium & Glass House, ","আর.কে.থাই অ্যালুমিনিয়াম এবং গ্লাস হাউস, ",Munshiganj,বাংলাদেশ,ঢাকা বিভাগ,housenumber,sameSource,['hardware'],[],Bangladesh,Dhaka,Munshiganj,MunshiganjSadar,MunshiganjPaurashava,5009b17f5858f18eb2b8cea1d224a20d
9591245763.0,893cf16717bffff,23.5539364,90.5268183,Munnni Pharmacy,,"Munnni Pharmacy, Munshiganj, Munshiganj District, Dhaka Division, Bangladesh","মুন্নি ফার্মাসি, মুন্সিগঞ্জ জেলা, ঢাকা বিভাগ, বাংলাদেশ",Munshiganj,বাংলাদেশ,ঢাকা বিভাগ,local_admin,boundaries,['pharmacy'],[],Bangladesh,Dhaka,Munshiganj,MunshiganjSadar,Panchasar,a7bab12c946b7f40eea227bafb93067b
9591245764.0,893cf16717bffff,23.5537519,90.526953,Femous Health Care,,"Femous Health Care, Munshiganj, Munshiganj District, Dhaka Division, Bangladesh","বিখ্যাত স্বাস্থ্যসেবা, মুন্সিগঞ্জ জেলা, ঢাকা বিভাগ, বাংলাদেশ",Munshiganj,বাংলাদেশ,ঢাকা বিভাগ,local_admin,boundaries,['clinic'],[],Bangladesh,Dhaka,Munshiganj,MunshiganjSadar,Panchasar,a7bab12c946b7f40eea227bafb93067b
9591245765.0,893cf16716bffff,23.5537696,90.5270838,Dr. Kamrul Hasan Chamber,,"Dr. Kamrul Hasan Chamber, Munshiganj, Munshiganj District, Dhaka Division, Bangladesh","ডাঃ কামরুল হাসান চেম্বার, মুন্সিগঞ্জ জেলা, ঢাকা বিভাগ, বাংলাদেশ",Munshiganj,বাংলাদেশ,ঢাকা বিভাগ,local_admin,boundaries,['clinic'],[],Bangladesh,Dhaka,Munshiganj,MunshiganjSadar,Panchasar,a7bab12c946b7f40eea227bafb93067b
9591245766.0,893cf16716bffff,23.5538476,90.5276526,Ma Dental,,"Ma Dental, Munshiganj, Munshiganj District, Dhaka Division, Bangladesh","মা ডেন্টাল, মুন্সিগঞ্জ জেলা, ঢাকা বিভাগ, বাংলাদেশ",Munshiganj,বাংলাদেশ,ঢাকা বিভাগ,local_admin,boundaries,['pharmacy'],[],Bangladesh,Dhaka,Munshiganj,MunshiganjSadar,Panchasar,a7bab12c946b7f40eea227bafb93067b
9591245767.0,893cf16716fffff,23.5538435,90.5300003,Greenleaf Kintergarden,,"Greenleaf Kintergarden, Munshiganj, Munshiganj District, Dhaka Division, Bangladesh","গ্রিনলিফ কিন্ডারগার্টেন, মুন্সিগঞ্জ জেলা, ঢাকা বিভাগ, বাংলাদেশ",Munshiganj,বাংলাদেশ,ঢাকা বিভাগ,local_admin,boundaries,['school'],[],Bangladesh,Dhaka,Munshiganj,MunshiganjSadar,MunshiganjPaurashava,5009b17f5858f18eb2b8cea1d224a20d
9591245768.0,893cf16716fffff,23.5538557,90.5301533,Kiur Diagonestics,,"Kiur Diagonestics, Munshiganj, Munshiganj District, Dhaka Division, Bangladesh","কিউর তির্যক, মুন্সিগঞ্জ জেলা, ঢাকা বিভাগ, বাংলাদেশ",Munshiganj,বাংলাদেশ,ঢাকা বিভাগ,local_admin,boundaries,['clinic'],[],Bangladesh,Dhaka,Munshiganj,MunshiganjSadar,MunshiganjPaurashava,5009b17f5858f18eb2b8cea1d224a20d
9591245769.0,893cf16716fffff,23.5539019,90.5307585,Janosheba Pharmacy,,"Janosheba Pharmacy, Munshiganj, Munshiganj District, Dhaka Division, Bangladesh","জোনোশেবা ফার্মাসি, মুন্সিগঞ্জ জেলা, ঢাকা বিভাগ, বাংলাদেশ",Munshiganj,বাংলাদেশ,ঢাকা বিভাগ,local_admin,boundaries,['pharmacy'],[],Bangladesh,Dhaka,Munshiganj,MunshiganjSadar,MunshiganjPaurashava,5009b17f5858f18eb2b8cea1d224a20d
9591245770.0,893cf16716fffff,23.5539074,90.5308103,Setu Pharmacy,,"Setu Pharmacy, Munshiganj, Munshiganj District, Dhaka Division, Bangladesh","সেতু ফার্মাসি, মুন্সিগঞ্জ জেলা, ঢাকা বিভাগ, বাংলাদেশ",Munshiganj,বাংলাদেশ,ঢাকা বিভাগ,local_admin,boundaries,['pharmacy'],[],Bangladesh,Dhaka,Munshiganj,MunshiganjSadar,MunshiganjPaurashava,5009b17f5858f18eb2b8cea1d224a20d
9591245771.0,893cf16716fffff,23.5539074,90.5307834,Gazi Medical Hall,,"Gazi Medical Hall, Munshiganj, Munshiganj District, Dhaka Division, Bangladesh","গাজী মেডিকেল হল, মুন্সিগঞ্জ জেলা, ঢাকা বিভাগ, বাংলাদেশ",Munshiganj,বাংলাদেশ,ঢাকা বিভাগ,local_admin,boundaries,['pharmacy'],[],Bangladesh,Dhaka,Munshiganj,MunshiganjSadar,MunshiganjPaurashava,5009b17f5858f18eb2b8cea1d224a20d
9591245772.0,893cf16716fffff,23.5539111,90.5308371,New Modern Diagonestics Center,,"New Modern Diagonestics Center, Munshiganj, Munshiganj District, Dhaka Division, Bangladesh","নতুন আধুনিক তির্যক কেন্দ্র, মুন্সিগঞ্জ জেলা, ঢাকা বিভাগ, বাংলাদেশ",Munshiganj,বাংলাদেশ,ঢাকা বিভাগ,local_admin,boundaries,['clinic'],[],Bangladesh,Dhaka,Munshiganj,MunshiganjSadar,MunshiganjPaurashava,5009b17f5858f18eb2b8cea1d224a20d
9591245773.0,893cf16716fffff,23.5539095,90.5308663,Amin Medical Hall,,"Amin Medical Hall, Munshiganj, Munshiganj District, Dhaka Division, Bangladesh","আমিন মেডিকেল হল, মুন্সিগঞ্জ জেলা, ঢাকা বিভাগ, বাংলাদেশ",Munshiganj,বাংলাদেশ,ঢাকা বিভাগ,local_admin,boundaries,['pharmacy'],[],Bangladesh,Dhaka,Munshiganj,MunshiganjSadar,MunshiganjPaurashava,5009b17f5858f18eb2b8cea1d224a20d
9591245774.0,893cf16716fffff,23.553909,90.5308978,Dola Pharmacy,,"Dola Pharmacy, Munshiganj, Munshiganj District, Dhaka Division, Bangladesh","ডোলা ফার্মাসি, মুন্সিগঞ্জ জেলা, ঢাকা বিভাগ, বাংলাদেশ",Munshiganj,বাংলাদেশ,ঢাকা বিভাগ,local_admin,boundaries,['pharmacy'],[],Bangladesh,Dhaka,Munshiganj,MunshiganjSadar,MunshiganjPaurashava,5009b17f5858f18eb2b8cea1d224a20d
9591245775.0,893cf16716fffff,23.5539181,90.5309405,Islam Pharmacy,,"Islam Pharmacy, Munshiganj, Munshiganj District, Dhaka Division, Bangladesh","ইসলাম ফার্মাসি, মুন্সিগঞ্জ জেলা, ঢাকা বিভাগ, বাংলাদেশ",Munshiganj,বাংলাদেশ,ঢাকা বিভাগ,local_admin,boundaries,['pharmacy'],[],Bangladesh,Dhaka,Munshiganj,MunshiganjSadar,MunshiganjPaurashava,5009b17f5858f18eb2b8cea1d224a20d
9591245776.0,893cf16716fffff,23.5539186,90.5310082,New Dola Pharmacy,,"New Dola Pharmacy, Munshiganj, Munshiganj District, Dhaka Division, Bangladesh","নতুন ডোলা ফার্মাসি, মুন্সিগঞ্জ জেলা, ঢাকা বিভাগ, বাংলাদেশ",Munshiganj,বাংলাদেশ,ঢাকা বিভাগ,local_admin,boundaries,['pharmacy'],[],Bangladesh,Dhaka,Munshiganj,MunshiganjSadar,MunshiganjPaurashava,5009b17f5858f18eb2b8cea1d224a20d
9591245777.0,893cf16716fffff,23.5539207,90.531645,New Square Diagonestics Center,,"New Square Diagonestics Center, Munshiganj, Munshiganj District, Dhaka Division, Bangladesh","নতুন বর্গক্ষেত্রের তির্যক কেন্দ্র, মুন্সিগঞ্জ জেলা, ঢাকা বিভাগ, বাংলাদেশ",Munshiganj,বাংলাদেশ,ঢাকা বিভাগ,local_admin,boundaries,['clinic'],[],Bangladesh,Dhaka,Munshiganj,MunshiganjSadar,MunshiganjPaurashava,5009b17f5858f18eb2b8cea1d224a20d
9591245778.0,893cf16716fffff,23.5539352,90.5317799,Apa Dental,,"Apa Dental, Munshiganj, Munshiganj District, Dhaka Division, Bangladesh","এপিএ ডেন্টাল, মুন্সিগঞ্জ জেলা, ঢাকা বিভাগ, বাংলাদেশ",Munshiganj,বাংলাদেশ,ঢাকা বিভাগ,local_admin,boundaries,['pharmacy'],[],Bangladesh,Dhaka,Munshiganj,MunshiganjSadar,MunshiganjPaurashava,5009b17f5858f18eb2b8cea1d224a20d
9591245779.0,893cf16716fffff,23.5539373,90.5318254,Laz Pharma,,"Laz Pharma, Munshiganj, Munshiganj District, Dhaka Division, Bangladesh","লাজ ফার্মা, মুন্সিগঞ্জ জেলা, ঢাকা বিভাগ, বাংলাদেশ",Munshiganj,বাংলাদেশ,ঢাকা বিভাগ,local_admin,boundaries,['pharmacy'],[],Bangladesh,Dhaka,Munshiganj,MunshiganjSadar,MunshiganjPaurashava,5009b17f5858f18eb2b8cea1d224a20d
9591245780.0,893cf16716fffff,23.5540846,90.5318014,Mariom Pharmacy,,"Mariom Pharmacy, Munshiganj, Munshiganj District, Dhaka Division, Bangladesh","মেরিয়ন ফার্মাসি, মুন্সিগঞ্জ জেলা, ঢাকা বিভাগ, বাংলাদেশ",Munshiganj,বাংলাদেশ,ঢাকা বিভাগ,local_admin,boundaries,['pharmacy'],[],Bangladesh,Dhaka,Munshiganj,MunshiganjSadar,MunshiganjPaurashava,5009b17f5858f18eb2b8cea1d224a20d
9591245781.0,893cf16716fffff,23.5540895,90.5318877,Al Amin Pharmacy,,"Al Amin Pharmacy, Munshiganj, Munshiganj District, Dhaka Division, Bangladesh","আল আমিন ফার্মাসি, মুন্সিগঞ্জ জেলা, ঢাকা বিভাগ, বাংলাদেশ",Munshiganj,বাংলাদেশ,ঢাকা বিভাগ,local_admin,boundaries,['pharmacy'],[],Bangladesh,Dhaka,Munshiganj,MunshiganjSadar,MunshiganjPaurashava,5009b17f5858f18eb2b8cea1d224a20d
9591245782.0,893cf16716fffff,23.5540994,90.531967,Khidmah Dental House,,"Khidmah Dental House, Munshiganj, Munshiganj District, Dhaka Division, Bangladesh","খিদমাহ ডেন্টাল হাউস, মুন্সিগঞ্জ জেলা, ঢাকা বিভাগ, বাংলাদেশ",Munshiganj,বাংলাদেশ,ঢাকা বিভাগ,local_admin,boundaries,['pharmacy'],[],Bangladesh,Dhaka,Munshiganj,MunshiganjSadar,MunshiganjPaurashava,5009b17f5858f18eb2b8cea1d224a20d
9591245783.0,893cf16716fffff,23.5541016,90.5320356,Mughdha Pharmacy,,"Mughdha Pharmacy, Munshiganj, Munshiganj District, Dhaka Division, Bangladesh","মুগধ ফার্মাসি, মুন্সিগঞ্জ জেলা, ঢাকা বিভাগ, বাংলাদেশ",Munshiganj,বাংলাদেশ,ঢাকা বিভাগ,local_admin,boundaries,['pharmacy'],[],Bangladesh,Dhaka,Munshiganj,MunshiganjSadar,MunshiganjPaurashava,5009b17f5858f18eb2b8cea1d224a20d
9591245784.0,893cf16716fffff,23.5541121,90.5320756,Munna Pharmacy,,"Munna Pharmacy, Munshiganj, Munshiganj District, Dhaka Division, Bangladesh","মুন্না ফার্মাসি, মুন্সিগঞ্জ জেলা, ঢাকা বিভাগ, বাংলাদেশ",Munshiganj,বাংলাদেশ,ঢাকা বিভাগ,local_admin,boundaries,['pharmacy'],[],Bangladesh,Dhaka,Munshiganj,MunshiganjSadar,MunshiganjPaurashava,5009b17f5858f18eb2b8cea1d224a20d
9591245785.0,893cf16716fffff,23.554115,90.5321288,Tamim Pharmacy,,"Tamim Pharmacy, Munshiganj, Munshiganj District, Dhaka Division, Bangladesh","তামিম ফার্মাসি, মুন্সিগঞ্জ জেলা, ঢাকা বিভাগ, বাংলাদেশ",Munshiganj,বাংলাদেশ,ঢাকা বিভাগ,local_admin,boundaries,['pharmacy'],[],Bangladesh,Dhaka,Munshiganj,MunshiganjSadar,MunshiganjPaurashava,5009b17f5858f18eb2b8cea1d224a20d
9591245786.0,893cf16716fffff,23.5541199,90.532165,Junayed Pharmacy,,"Junayed Pharmacy, Munshiganj, Munshiganj District, Dhaka Division, Bangladesh","জুনায়েদ ফার্মাসি, মুন্সিগঞ্জ জেলা, ঢাকা বিভাগ, বাংলাদেশ",Munshiganj,বাংলাদেশ,ঢাকা বিভাগ,local_admin,boundaries,['pharmacy'],[],Bangladesh,Dhaka,Munshiganj,MunshiganjSadar,MunshiganjPaurashava,5009b17f5858f18eb2b8cea1d224a20d
9591245787.0,893cf16716fffff,23.5541192,90.5322767,R Rahmn Pharmacy,,"R Rahmn Pharmacy, Munshiganj, Munshiganj District, Dhaka Division, Bangladesh","আর রাহমন ফার্মাসি, মুন্সিগঞ্জ জেলা, ঢাকা বিভাগ, বাংলাদেশ",Munshiganj,বাংলাদেশ,ঢাকা বিভাগ,local_admin,boundaries,['pharmacy'],[],Bangladesh,Dhaka,Munshiganj,MunshiganjSadar,MunshiganjPaurashava,5009b17f5858f18eb2b8cea1d224a20d
9591245788.0,893cf16716fffff,23.5538721,90.5320772,Renesha Diagonestics Center,,"Renesha Diagonestics Center, Munshiganj, Munshiganj District, Dhaka Division, Bangladesh","রেনেশা তির্যক কেন্দ্র, মুন্সিগঞ্জ জেলা, ঢাকা বিভাগ, বাংলাদেশ",Munshiganj,বাংলাদেশ,ঢাকা বিভাগ,local_admin,boundaries,['clinic'],[],Bangladesh,Dhaka,Munshiganj,MunshiganjSadar,MunshiganjPaurashava,5009b17f5858f18eb2b8cea1d224a20d
9591245789.0,893cf16716fffff,23.5538848,90.5322281,Best Medical Services,,"Best Medical Services, Munshiganj, Munshiganj District, Dhaka Division, Bangladesh","সেরা চিকিত্সা পরিষেবা, মুন্সিগঞ্জ জেলা, ঢাকা বিভাগ, বাংলাদেশ",Munshiganj,বাংলাদেশ,ঢাকা বিভাগ,local_admin,boundaries,['clinic'],[],Bangladesh,Dhaka,Munshiganj,MunshiganjSadar,MunshiganjPaurashava,5009b17f5858f18eb2b8cea1d224a20d
9591245790.0,893cf16716fffff,23.553889,90.5323876,Munhiganj Care Hospital,,"Munhiganj Care Hospital, Munshiganj, Munshiganj District, Dhaka Division, Bangladesh","মুনিগঞ্জ কেয়ার হাসপাতাল, মুন্সিগঞ্জ জেলা, ঢাকা বিভাগ, বাংলাদেশ",Munshiganj,বাংলাদেশ,ঢাকা বিভাগ,local_admin,boundaries,['hospital'],[],Bangladesh,Dhaka,Munshiganj,MunshiganjSadar,MunshiganjPaurashava,5009b17f5858f18eb2b8cea1d224a20d
9591245791.0,893cf16716fffff,23.553894,90.5324338,Mehedi Pharmacy,,"Mehedi Pharmacy, Munshiganj, Munshiganj District, Dhaka Division, Bangladesh","মেহেদী ফার্মাসি, মুন্সিগঞ্জ জেলা, ঢাকা বিভাগ, বাংলাদেশ",Munshiganj,বাংলাদেশ,ঢাকা বিভাগ,local_admin,boundaries,['pharmacy'],[],Bangladesh,Dhaka,Munshiganj,MunshiganjSadar,MunshiganjPaurashava,5009b17f5858f18eb2b8cea1d224a20d
9591245792.0,893cf16716fffff,23.5538968,90.5324754,Doctors Diagonestics and Consultants,,"Doctors Diagonestics and Consultants, Munshiganj, Munshiganj District, Dhaka Division, Bangladesh","চিকিত্সক তির্যক এবং পরামর্শদাতা, মুন্সিগঞ্জ জেলা, ঢাকা বিভাগ, বাংলাদেশ",Munshiganj,বাংলাদেশ,ঢাকা বিভাগ,local_admin,boundaries,['clinic'],[],Bangladesh,Dhaka,Munshiganj,MunshiganjSadar,MunshiganjPaurashava,5009b17f5858f18eb2b8cea1d224a20d
9591245793.0,893cf16716fffff,23.554264,90.5326479,Renesha Diagonestics Care,,"Renesha Diagonestics Care, Munshiganj, Munshiganj District, Dhaka Division, Bangladesh","রেনেশা তির্যক যত্ন, মুন্সিগঞ্জ জেলা, ঢাকা বিভাগ, বাংলাদেশ",Munshiganj,বাংলাদেশ,ঢাকা বিভাগ,local_admin,boundaries,['clinic'],[],Bangladesh,Dhaka,Munshiganj,MunshiganjSadar,MunshiganjPaurashava,5009b17f5858f18eb2b8cea1d224a20d
9591245794.0,893cf16716fffff,23.5541291,90.5325817,Milon Medicine Corner,,"Milon Medicine Corner, Munshiganj, Munshiganj District, Dhaka Division, Bangladesh","মিলন মেডিসিন কর্নার, মুন্সিগঞ্জ জেলা, ঢাকা বিভাগ, বাংলাদেশ",Munshiganj,বাংলাদেশ,ঢাকা বিভাগ,local_admin,boundaries,['pharmacy'],[],Bangladesh,Dhaka,Munshiganj,MunshiganjSadar,MunshiganjPaurashava,5009b17f5858f18eb2b8cea1d224a20d
9591245795.0,893cf16716fffff,23.5541665,90.5328328,City Health Care,,"City Health Care, Munshiganj, Munshiganj District, Dhaka Division, Bangladesh","শহরের স্বাস্থ্যসেবা, মুন্সিগঞ্জ জেলা, ঢাকা বিভাগ, বাংলাদেশ",Munshiganj,বাংলাদেশ,ঢাকা বিভাগ,local_admin,boundaries,['clinic'],[],Bangladesh,Dhaka,Munshiganj,MunshiganjSadar,MunshiganjPaurashava,5009b17f5858f18eb2b8cea1d224a20d
9591245796.0,893cf16716fffff,23.5542131,90.5326803,Special Physiotherapy Center,,"Special Physiotherapy Center, Munshiganj, Munshiganj District, Dhaka Division, Bangladesh","বিশেষ ফিজিওথেরাপি কেন্দ্র, মুন্সিগঞ্জ জেলা, ঢাকা বিভাগ, বাংলাদেশ",Munshiganj,বাংলাদেশ,ঢাকা বিভাগ,local_admin,boundaries,['clinic'],[],Bangladesh,Dhaka,Munshiganj,MunshiganjSadar,MunshiganjPaurashava,5009b17f5858f18eb2b8cea1d224a20d
9591245797.0,893cf16716fffff,23.5542823,90.5330446,Medilab Digital Physiotherapy,,"Medilab Digital Physiotherapy, Munshiganj, Munshiganj District, Dhaka Division, Bangladesh","মেডিল্যাব ডিজিটাল ফিজিওথেরাপি, মুন্সিগঞ্জ জেলা, ঢাকা বিভাগ, বাংলাদেশ",Munshiganj,বাংলাদেশ,ঢাকা বিভাগ,local_admin,boundaries,['clinic'],[],Bangladesh,Dhaka,Munshiganj,MunshiganjSadar,MunshiganjPaurashava,5009b17f5858f18eb2b8cea1d224a20d
9591245798.0,893cf16716fffff,23.5542908,90.5331047,Biojid Sergical Mart,,"Biojid Sergical Mart, Munshiganj, Munshiganj District, Dhaka Division, Bangladesh","বায়োজিড সার্জিকাল মার্ট, মুন্সিগঞ্জ জেলা, ঢাকা বিভাগ, বাংলাদেশ",Munshiganj,বাংলাদেশ,ঢাকা বিভাগ,local_admin,boundaries,['clinic'],[],Bangladesh,Dhaka,Munshiganj,MunshiganjSadar,MunshiganjPaurashava,5009b17f5858f18eb2b8cea1d224a20d
9591245799.0,893cf16716fffff,23.5542901,90.5330708,Medilab Pharmacy,,"Medilab Pharmacy, Munshiganj, Munshiganj District, Dhaka Division, Bangladesh","মেডিল্যাব ফার্মাসি, মুন্সিগঞ্জ জেলা, ঢাকা বিভাগ, বাংলাদেশ",Munshiganj,বাংলাদেশ,ঢাকা বিভাগ,local_admin,boundaries,['pharmacy'],[],Bangladesh,Dhaka,Munshiganj,MunshiganjSadar,MunshiganjPaurashava,5009b17f5858f18eb2b8cea1d224a20d
9591245800.0,893cf16469bffff,23.5542583,90.533469,Lab Aid Hospital,,"Lab Aid Hospital, Munshiganj, Munshiganj District, Dhaka Division, Bangladesh","ল্যাব এইড হাসপাতাল, মুন্সিগঞ্জ জেলা, ঢাকা বিভাগ, বাংলাদেশ",Munshiganj,বাংলাদেশ,ঢাকা বিভাগ,local_admin,boundaries,['hospital'],[],Bangladesh,Dhaka,Munshiganj,MunshiganjSadar,MunshiganjPaurashava,5009b17f5858f18eb2b8cea1d224a20d
9591245801.0,893cf16716fffff,23.5544165,90.5331732,Adiba Pharmacy,,"Adiba Pharmacy, Munshiganj, Munshiganj District, Dhaka Division, Bangladesh","আদিবা ফার্মাসি, মুন্সিগঞ্জ জেলা, ঢাকা বিভাগ, বাংলাদেশ",Munshiganj,বাংলাদেশ,ঢাকা বিভাগ,local_admin,boundaries,['pharmacy'],[],Bangladesh,Dhaka,Munshiganj,MunshiganjSadar,MunshiganjPaurashava,5009b17f5858f18eb2b8cea1d224a20d
9591245802.0,893cf16469bffff,23.5544186,90.5333989,Pranto Modern Medical,,"Pranto Modern Medical, Munshiganj, Munshiganj District, Dhaka Division, Bangladesh","প্র্যান্টো আধুনিক মেডিকেল, মুন্সিগঞ্জ জেলা, ঢাকা বিভাগ, বাংলাদেশ",Munshiganj,বাংলাদেশ,ঢাকা বিভাগ,local_admin,boundaries,['pharmacy'],[],Bangladesh,Dhaka,Munshiganj,MunshiganjSadar,MunshiganjPaurashava,5009b17f5858f18eb2b8cea1d224a20d
9591245803.0,893cf16469bffff,23.5544546,90.5337817,Life Diagonestics Center,,"Life Diagonestics Center, Munshiganj, Munshiganj District, Dhaka Division, Bangladesh","জীবন তির্যক কেন্দ্র, মুন্সিগঞ্জ জেলা, ঢাকা বিভাগ, বাংলাদেশ",Munshiganj,বাংলাদেশ,ঢাকা বিভাগ,local_admin,boundaries,['clinic'],[],Bangladesh,Dhaka,Munshiganj,MunshiganjSadar,MunshiganjPaurashava,5009b17f5858f18eb2b8cea1d224a20d
9591245804.0,893cf16469bffff,23.5544518,90.5338488,Laz Pharma Medical Hall,,"Laz Pharma Medical Hall, Munshiganj, Munshiganj District, Dhaka Division, Bangladesh","লাজ ফার্মা মেডিকেল হল, মুন্সিগঞ্জ জেলা, ঢাকা বিভাগ, বাংলাদেশ",Munshiganj,বাংলাদেশ,ঢাকা বিভাগ,local_admin,boundaries,['pharmacy'],[],Bangladesh,Dhaka,Munshiganj,MunshiganjSadar,MunshiganjPaurashava,5009b17f5858f18eb2b8cea1d224a20d
9630942071.0,893cf16c003ffff,23.4005407,90.5229213,,,"Munshiganj, Munshiganj District, Dhaka Division, Bangladesh","মুন্সিগঞ্জ জেলা, ঢাকা বিভাগ, বাংলাদেশ",Munshiganj,বাংলাদেশ,ঢাকা বিভাগ,local_admin,boundaries,['ford'],[],Bangladesh,Dhaka,Munshiganj,MunshiganjSadar,BanglaBazar,24f1fc8eb63ac05957a414374bee8df9
845646646.0,893cf17abc3ffff,23.4979478,90.2715535,ঢাকা-মাওয়া এক্সপ্রেসওয়ে,"['ঢাকা-মাওয়া এক্সপ্রেসওয়ে', 'Dhaka-Mawa Expressway']","Dhaka-Mawa Expressway, Sreenagar, Munshiganj District, Dhaka Division, Bangladesh","ঢাকা-মাওয়া এক্সপ্রেসওয়ে, মুন্সিগঞ্জ জেলা, ঢাকা বিভাগ, বাংলাদেশ",Sreenagar,বাংলাদেশ,ঢাকা বিভাগ,street,,,,Bangladesh,Dhaka,Munshiganj,Lohajang,MediniMandal,b07e050e17ede98aec1dae9fc2cb5d58
1066410175.0,893cf17aa23ffff,23.48891121894576,90.2682047855833,ঢাকা-মাওয়া মহাসড়ক,['Dhaka-Mawa Highway'],"Dhaka-Mawa Highway, Louhajang Upazila, Munshiganj District, Dhaka Division, Bangladesh","ঢাকা-মাওয়া মহাসড়ক, লৌহজং উপজেলা, মুন্সিগঞ্জ জেলা, ঢাকা বিভাগ, বাংলাদেশ",লৌহজং উপজেলা,বাংলাদেশ,ঢাকা বিভাগ,street,,,,Bangladesh,Dhaka,Munshiganj,Lohajang,MediniMandal,b07e050e17ede98aec1dae9fc2cb5d58
845646639.0,893cf17abcbffff,23.49351797832128,90.26971258768266,ঢাকা-মাওয়া এক্সপ্রেসওয়ে,"['ঢাকা-মাওয়া এক্সপ্রেসওয়ে', 'Dhaka-Mawa Expressway']","Dhaka-Mawa Expressway, Louhajang Upazila, Munshiganj District, Dhaka Division, Bangladesh","ঢাকা-মাওয়া এক্সপ্রেসওয়ে, লৌহজং উপজেলা, মুন্সিগঞ্জ জেলা, ঢাকা বিভাগ, বাংলাদেশ",লৌহজং উপজেলা,বাংলাদেশ,ঢাকা বিভাগ,street,,,,Bangladesh,Dhaka,Munshiganj,Lohajang,MediniMandal,b07e050e17ede98aec1dae9fc2cb5d58
845646639.0,893cf17abcbffff,23.49351797832128,90.26971258768266,ঢাকা-মাওয়া এক্সপ্রেসওয়ে,"['ঢাকা-মাওয়া এক্সপ্রেসওয়ে', 'Dhaka-Mawa Expressway']","Dhaka-Mawa Expressway, Sreenagar, Munshiganj District, Dhaka Division, Bangladesh","ঢাকা-মাওয়া এক্সপ্রেসওয়ে, মুন্সিগঞ্জ জেলা, ঢাকা বিভাগ, বাংলাদেশ",Sreenagar,বাংলাদেশ,ঢাকা বিভাগ,street,,,,Bangladesh,Dhaka,Munshiganj,Lohajang,MediniMandal,b07e050e17ede98aec1dae9fc2cb5d58
389214220.0,893cf16469bffff,23.55450939,90.53423021,Onkurito Muktijuddho 1971,,"Onkurito Muktijuddho 1971, Munshiganj, Munshiganj District, Dhaka Division, Bangladesh","ওঙ্কুরিতো মুক্তুদাধো 1971, মুন্সিগঞ্জ জেলা, ঢাকা বিভাগ, বাংলাদেশ",Munshiganj,বাংলাদেশ,ঢাকা বিভাগ,local_admin,boundaries,['monument'],[],Bangladesh,Dhaka,Munshiganj,MunshiganjSadar,MunshiganjPaurashava,5009b17f5858f18eb2b8cea1d224a20d
434463558.0,893cf16461bffff,23.54782706,90.53817035,একাত্তরের শহীদ স্বরণে,,"In the martyr's memoir of the seventy -one, Munshiganj, Munshiganj District, Dhaka Division, Bangladesh","একাত্তরের শহীদ স্বরণে, মুন্সিগঞ্জ জেলা, ঢাকা বিভাগ, বাংলাদেশ",Munshiganj,বাংলাদেশ,ঢাকা বিভাগ,local_admin,boundaries,['monument'],[],Bangladesh,Dhaka,Munshiganj,MunshiganjSadar,MunshiganjPaurashava,5009b17f5858f18eb2b8cea1d224a20d
524607755.0,893cf178d8fffff,23.48571572083829,90.29751581790605,Goalimandra-Haldia Road,,"Goalimandra-Haldia Road, Louhajang Upazila, Munshiganj District, Dhaka Division, Bangladesh","গোলিমান্দ্রা-হালদিয়া রোড, লৌহজং উপজেলা, মুন্সিগঞ্জ জেলা, ঢাকা বিভাগ, বাংলাদেশ",লৌহজং উপজেলা,বাংলাদেশ,ঢাকা বিভাগ,street,,,,Bangladesh,Dhaka,Munshiganj,Lohajang,Haldia,b6d7624106db1552e677e7f6cff697c7
1017292533.0,893cf17a907ffff,23.519302943788528,90.29145675141828,Majhee Bari Road,,"Majhee Bari Road, Sreenagar, Munshiganj District, Dhaka Division, Bangladesh","মাজে বারী রোড, মুন্সিগঞ্জ জেলা, ঢাকা বিভাগ, বাংলাদেশ",Sreenagar,বাংলাদেশ,ঢাকা বিভাগ,street,,,,Bangladesh,Dhaka,Munshiganj,Sreenagar,Patabhog,7aa9ec5f7d44e023ffd7e9643e2c8514
995047311.0,893cf178cc3ffff,23.473750011694115,90.26573085061578,পদ্মা সেতু,"['পদ্মা সেতু', 'Padma Bridge', '帕德玛大桥']","Padma Bridge, Louhajang Upazila, Munshiganj District, Dhaka Division, Bangladesh","পদ্মা সেতু, লৌহজং উপজেলা, মুন্সিগঞ্জ জেলা, ঢাকা বিভাগ, বাংলাদেশ",লৌহজং উপজেলা,বাংলাদেশ,ঢাকা বিভাগ,street,,,,Bangladesh,Dhaka,Munshiganj,Lohajang,Kumarbhog,8b24f284aea3f5a4dbf0d068b7128a4b
332102870.0,893cf178c33ffff,23.47661924502121,90.28100897796858,চন্দ্রের বাড়ি সড়ক,['Chondrer Bari Road'],"Lunar's house road, Chondrer Bari Road, Louhajang Upazila, Munshiganj District, Dhaka Division, Bangladesh","চন্দ্রের বাড়ি সড়ক, লৌহজং উপজেলা, মুন্সিগঞ্জ জেলা, ঢাকা বিভাগ, বাংলাদেশ",লৌহজং উপজেলা,বাংলাদেশ,ঢাকা বিভাগ,street,,,,Bangladesh,Dhaka,Munshiganj,Lohajang,Haldia,b6d7624106db1552e677e7f6cff697c7
1024095846.0,893cf171a17ffff,23.5428297,90.29594275,ঢাকা-মাওয়া এক্সপ্রেসওয়ে,"['ঢাকা-মাওয়া এক্সপ্রেসওয়ে', 'Dhaka-Mawa Expressway']","Dhaka-Mawa Expressway, Sreenagar, Munshiganj District, Dhaka Division, Bangladesh","ঢাকা-মাওয়া এক্সপ্রেসওয়ে, মুন্সিগঞ্জ জেলা, ঢাকা বিভাগ, বাংলাদেশ",Sreenagar,বাংলাদেশ,ঢাকা বিভাগ,street,,,,Bangladesh,Dhaka,Munshiganj,Sreenagar,Sreenagar,6e672c2861b198f0a9b55f597eb9d312
236822016.0,893cf17a027ffff,23.515591723702684,90.20948115130771,Sreenagar-Dohar Highway,,"Sreenagar-Dohar Highway, Sreenagar, Munshiganj District, Dhaka Division, Bangladesh","শ্রীনগর-দোহার হাইওয়ে, মুন্সিগঞ্জ জেলা, ঢাকা বিভাগ, বাংলাদেশ",Sreenagar,বাংলাদেশ,ঢাকা বিভাগ,street,,,,Bangladesh,Dhaka,Munshiganj,Sreenagar,Bhagyakul,60817250bd7fdc5162b0f0bad37a0771
236821999.0,893cf178c9bffff,23.48172793224057,90.26700458401064,ঢাকা-মাওয়া মহাসড়ক,['Dhaka-Mawa Highway'],"Dhaka-Mawa Highway, Louhajang Upazila, Munshiganj District, Dhaka Division, Bangladesh","ঢাকা-মাওয়া মহাসড়ক, লৌহজং উপজেলা, মুন্সিগঞ্জ জেলা, ঢাকা বিভাগ, বাংলাদেশ",লৌহজং উপজেলা,বাংলাদেশ,ঢাকা বিভাগ,street,,,,Bangladesh,Dhaka,Munshiganj,Lohajang,Kumarbhog,8b24f284aea3f5a4dbf0d068b7128a4b
713729994.0,893cf172eb7ffff,23.6690316,90.28890505,জিঞ্জিরা - রামেরকান্দা সড়ক,['Zinzira - Ramerkanda Road'],"Ginjira - Ramkanda Road, -, Zinzira - Ramerkanda Road, Sirajdikhan, Munshiganj District, Dhaka Division, Bangladesh","জিঞ্জিরা রামেরকান্দা সড়ক, মুন্সিগঞ্জ জেলা, ঢাকা বিভাগ, বাংলাদেশ",Sirajdikhan,বাংলাদেশ,ঢাকা বিভাগ,street,,,,Bangladesh,Dhaka,Munshiganj,Serajdikhan,Chitrakot,9c1489ea5c210f1848047268d2eab84e
524625357.0,893cf17ab1bffff,23.49417732658369,90.27718359352846,"সার্ভিস এলাকা ১, পদ্মা সেতু প্রকল্প অফিস","['Service Area 1, Padma Bridge Project Office']","Service area 1 Padma Bridge Project Office, Service Area 1, Padma Bridge Project Office, Louhajang Upazila, Munshiganj District, Dhaka Division, Bangladesh","সার্ভিস এলাকা ১ পদ্মা সেতু প্রকল্প অফিস, লৌহজং উপজেলা, মুন্সিগঞ্জ জেলা, ঢাকা বিভাগ, বাংলাদেশ",লৌহজং উপজেলা,বাংলাদেশ,ঢাকা বিভাগ,street,,,,Bangladesh,Dhaka,Munshiganj,Sreenagar,KolaPara,728ce8ad2688f83db42ce0a609400d60
524625357.0,893cf17ab1bffff,23.49417732658369,90.27718359352846,"সার্ভিস এলাকা ১, পদ্মা সেতু প্রকল্প অফিস","['Service Area 1, Padma Bridge Project Office']","Service area 1 Padma Bridge Project Office, Service Area 1, Padma Bridge Project Office, Sreenagar, Munshiganj District, Dhaka Division, Bangladesh","সার্ভিস এলাকা ১ পদ্মা সেতু প্রকল্প অফিস, মুন্সিগঞ্জ জেলা, ঢাকা বিভাগ, বাংলাদেশ",Sreenagar,বাংলাদেশ,ঢাকা বিভাগ,street,,,,Bangladesh,Dhaka,Munshiganj,Sreenagar,KolaPara,728ce8ad2688f83db42ce0a609400d60
557071078.0,893cf178d53ffff,23.476028209564888,90.29336877863658,মুন্সীগঞ্জ-টংগীবাড়ী-মাওয়া সড়ক,['Munshiganj-Tongibari-Mawa Road'],"Munshiganj-Tangibari-Mawa Road, Munshiganj-Tongibari-Mawa Road, Louhajang Upazila, Munshiganj District, Dhaka Division, Bangladesh","মুন্সীগঞ্জ-টংগীবাড়ী-মাওয়া সড়ক, লৌহজং উপজেলা, মুন্সিগঞ্জ জেলা, ঢাকা বিভাগ, বাংলাদেশ",লৌহজং উপজেলা,বাংলাদেশ,ঢাকা বিভাগ,street,,,,Bangladesh,Dhaka,Munshiganj,Lohajang,Haldia,b6d7624106db1552e677e7f6cff697c7
557071081.0,893cf171b17ffff,23.549818674539715,90.3178048913982,Munshiganj-Sreenagar-Ichapura Road,,"Munshiganj-Sreenagar-Ichapura Road, Sreenagar, Munshiganj District, Dhaka Division, Bangladesh","মুন্সিগঞ্জ-শ্রীনগর-ইচাপুরা রোড, মুন্সিগঞ্জ জেলা, ঢাকা বিভাগ, বাংলাদেশ",Sreenagar,বাংলাদেশ,ঢাকা বিভাগ,street,,,,Bangladesh,Dhaka,Munshiganj,Sreenagar,Atpara,944c2906da5412953d103538d5b024f5
845646641.0,893cf17a953ffff,23.51380527476104,90.27780956561703,ঢাকা-মাওয়া এক্সপ্রেসওয়ে,"['ঢাকা-মাওয়া এক্সপ্রেসওয়ে', 'Dhaka-Mawa Expressway']","Dhaka-Mawa Expressway, Sreenagar, Munshiganj District, Dhaka Division, Bangladesh","ঢাকা-মাওয়া এক্সপ্রেসওয়ে, মুন্সিগঞ্জ জেলা, ঢাকা বিভাগ, বাংলাদেশ",Sreenagar,বাংলাদেশ,ঢাকা বিভাগ,street,,,,Bangladesh,Dhaka,Munshiganj,Sreenagar,KolaPara,728ce8ad2688f83db42ce0a609400d60
845596574.0,893cf171847ffff,23.556125597937733,90.29943804750116,ঢাকা-মাওয়া এক্সপ্রেসওয়ে,"['ঢাকা-মাওয়া এক্সপ্রেসওয়ে', 'Dhaka-Mawa Expressway']","Dhaka-Mawa Expressway, Sreenagar, Munshiganj District, Dhaka Division, Bangladesh","ঢাকা-মাওয়া এক্সপ্রেসওয়ে, মুন্সিগঞ্জ জেলা, ঢাকা বিভাগ, বাংলাদেশ",Sreenagar,বাংলাদেশ,ঢাকা বিভাগ,street,,,,Bangladesh,Dhaka,Munshiganj,Sreenagar,Sholaghar,7d7f8ef127ac677cfe9067ed953a7fdd
995047310.0,893cf178cc3ffff,23.473699923346544,90.2650571922332,পদ্মা সেতু,"['পদ্মা সেতু', 'Padma Bridge', '帕德玛大桥']","Padma Bridge, Louhajang Upazila, Munshiganj District, Dhaka Division, Bangladesh","পদ্মা সেতু, লৌহজং উপজেলা, মুন্সিগঞ্জ জেলা, ঢাকা বিভাগ, বাংলাদেশ",লৌহজং উপজেলা,বাংলাদেশ,ঢাকা বিভাগ,street,,,,Bangladesh,Dhaka,Munshiganj,Lohajang,Kumarbhog,8b24f284aea3f5a4dbf0d068b7128a4b
1066410174.0,893cf17aa23ffff,23.48902076296493,90.26816344526505,ঢাকা-মাওয়া মহাসড়ক,['Dhaka-Mawa Highway'],"Dhaka-Mawa Highway, Louhajang Upazila, Munshiganj District, Dhaka Division, Bangladesh","ঢাকা-মাওয়া মহাসড়ক, লৌহজং উপজেলা, মুন্সিগঞ্জ জেলা, ঢাকা বিভাগ, বাংলাদেশ",লৌহজং উপজেলা,বাংলাদেশ,ঢাকা বিভাগ,street,,,,Bangladesh,Dhaka,Munshiganj,Lohajang,MediniMandal,b07e050e17ede98aec1dae9fc2cb5d58
845646648.0,893cf17a953ffff,23.51373956457268,90.27792921006088,ঢাকা-মাওয়া এক্সপ্রেসওয়ে,"['ঢাকা-মাওয়া এক্সপ্রেসওয়ে', 'Dhaka-Mawa Expressway']","Dhaka-Mawa Expressway, Sreenagar, Munshiganj District, Dhaka Division, Bangladesh","ঢাকা-মাওয়া এক্সপ্রেসওয়ে, মুন্সিগঞ্জ জেলা, ঢাকা বিভাগ, বাংলাদেশ",Sreenagar,বাংলাদেশ,ঢাকা বিভাগ,street,,,,Bangladesh,Dhaka,Munshiganj,Sreenagar,KolaPara,728ce8ad2688f83db42ce0a609400d60
236822033.0,893cf17ac6fffff,23.51683503018492,90.2510033005617,Sreenagar-Dohar Highway,,"Sreenagar-Dohar Highway, Sreenagar, Munshiganj District, Dhaka Division, Bangladesh","শ্রীনগর-দোহার হাইওয়ে, মুন্সিগঞ্জ জেলা, ঢাকা বিভাগ, বাংলাদেশ",Sreenagar,বাংলাদেশ,ঢাকা বিভাগ,street,,,,Bangladesh,Dhaka,Munshiganj,Sreenagar,Rarikhal,056374e97ca372089427e522b1852aa8
591466807.0,893cf178c2fffff,23.47061117719334,90.28735679037744,Mawa Ferry Terminal Road(new),,"Mawa Ferry Terminal Road new, Louhajang Upazila, Munshiganj District, Dhaka Division, Bangladesh","মাওয়া ফেরি টার্মিনাল রোড নতুন, লৌহজং উপজেলা, মুন্সিগঞ্জ জেলা, ঢাকা বিভাগ, বাংলাদেশ",লৌহজং উপজেলা,বাংলাদেশ,ঢাকা বিভাগ,street,,,,Bangladesh,Dhaka,Munshiganj,Lohajang,Haldia,b6d7624106db1552e677e7f6cff697c7
591466805.0,893cf17889bffff,23.46537332870714,90.28650240507892,Mawa Ferry Terminal Road(new),,"Mawa Ferry Terminal Road new, Louhajang Upazila, Munshiganj District, Dhaka Division, Bangladesh","মাওয়া ফেরি টার্মিনাল রোড নতুন, লৌহজং উপজেলা, মুন্সিগঞ্জ জেলা, ঢাকা বিভাগ, বাংলাদেশ",লৌহজং উপজেলা,বাংলাদেশ,ঢাকা বিভাগ,street,,,,Bangladesh,Dhaka,Munshiganj,Lohajang,Kumarbhog,8b24f284aea3f5a4dbf0d068b7128a4b
845646647.0,893cf17abcbffff,23.493513548331435,90.26987040281016,ঢাকা-মাওয়া এক্সপ্রেসওয়ে,"['ঢাকা-মাওয়া এক্সপ্রেসওয়ে', 'Dhaka-Mawa Expressway']","Dhaka-Mawa Expressway, Louhajang Upazila, Munshiganj District, Dhaka Division, Bangladesh","ঢাকা-মাওয়া এক্সপ্রেসওয়ে, লৌহজং উপজেলা, মুন্সিগঞ্জ জেলা, ঢাকা বিভাগ, বাংলাদেশ",লৌহজং উপজেলা,বাংলাদেশ,ঢাকা বিভাগ,street,,,,Bangladesh,Dhaka,Munshiganj,Lohajang,MediniMandal,b07e050e17ede98aec1dae9fc2cb5d58
845646647.0,893cf17abcbffff,23.493513548331435,90.26987040281016,ঢাকা-মাওয়া এক্সপ্রেসওয়ে,"['ঢাকা-মাওয়া এক্সপ্রেসওয়ে', 'Dhaka-Mawa Expressway']","Dhaka-Mawa Expressway, Sreenagar, Munshiganj District, Dhaka Division, Bangladesh","ঢাকা-মাওয়া এক্সপ্রেসওয়ে, মুন্সিগঞ্জ জেলা, ঢাকা বিভাগ, বাংলাদেশ",Sreenagar,বাংলাদেশ,ঢাকা বিভাগ,street,,,,Bangladesh,Dhaka,Munshiganj,Lohajang,MediniMandal,b07e050e17ede98aec1dae9fc2cb5d58
845596578.0,893cf171a47ffff,23.53494671935667,90.29074612428728,ঢাকা-মাওয়া এক্সপ্রেসওয়ে,"['ঢাকা-মাওয়া এক্সপ্রেসওয়ে', 'Dhaka-Mawa Expressway']","Dhaka-Mawa Expressway, Sreenagar, Munshiganj District, Dhaka Division, Bangladesh","ঢাকা-মাওয়া এক্সপ্রেসওয়ে, মুন্সিগঞ্জ জেলা, ঢাকা বিভাগ, বাংলাদেশ",Sreenagar,বাংলাদেশ,ঢাকা বিভাগ,street,,,,Bangladesh,Dhaka,Munshiganj,Sreenagar,Patabhog,7aa9ec5f7d44e023ffd7e9643e2c8514
332105394.0,893cf178c03ffff,23.47385026738929,90.27568999256992,মুন্সীগঞ্জ-লৌহজং-মাওয়া সড়ক,['Munshiganj-Louhajong-Mawa Road'],"Munshiganj-Louhjong-Mawa Road, Munshiganj-Louhajong-Mawa Road, Louhajang Upazila, Munshiganj District, Dhaka Division, Bangladesh","মুন্সীগঞ্জ-লৌহজং-মাওয়া সড়ক, লৌহজং উপজেলা, মুন্সিগঞ্জ জেলা, ঢাকা বিভাগ, বাংলাদেশ",লৌহজং উপজেলা,বাংলাদেশ,ঢাকা বিভাগ,street,,,,Bangladesh,Dhaka,Munshiganj,Lohajang,Kumarbhog,8b24f284aea3f5a4dbf0d068b7128a4b
524610518.0,893cf17abb7ffff,23.507928120605293,90.28665876662409,শ্রীনগর-গোয়ালীমান্দ্রা সড়ক,['SriNagar-Goalimandra Road'],"Srinagar-Goalimandra Road, SriNagar-Goalimandra Road, Louhajang Upazila, Munshiganj District, Dhaka Division, Bangladesh","শ্রীনগর-গোয়ালীমান্দ্রা সড়ক, লৌহজং উপজেলা, মুন্সিগঞ্জ জেলা, ঢাকা বিভাগ, বাংলাদেশ",লৌহজং উপজেলা,বাংলাদেশ,ঢাকা বিভাগ,street,,,,Bangladesh,Dhaka,Munshiganj,Sreenagar,KolaPara,728ce8ad2688f83db42ce0a609400d60
524610518.0,893cf17abb7ffff,23.507928120605293,90.28665876662409,শ্রীনগর-গোয়ালীমান্দ্রা সড়ক,['SriNagar-Goalimandra Road'],"Srinagar-Goalimandra Road, SriNagar-Goalimandra Road, Sreenagar, Munshiganj District, Dhaka Division, Bangladesh","শ্রীনগর-গোয়ালীমান্দ্রা সড়ক, মুন্সিগঞ্জ জেলা, ঢাকা বিভাগ, বাংলাদেশ",Sreenagar,বাংলাদেশ,ঢাকা বিভাগ,street,,,,Bangladesh,Dhaka,Munshiganj,Sreenagar,KolaPara,728ce8ad2688f83db42ce0a609400d60
1024095847.0,893cf171a07ffff,23.54277155,90.29603295,ঢাকা-মাওয়া এক্সপ্রেসওয়ে,"['ঢাকা-মাওয়া এক্সপ্রেসওয়ে', 'Dhaka-Mawa Expressway']","Dhaka-Mawa Expressway, Sreenagar, Munshiganj District, Dhaka Division, Bangladesh","ঢাকা-মাওয়া এক্সপ্রেসওয়ে, মুন্সিগঞ্জ জেলা, ঢাকা বিভাগ, বাংলাদেশ",Sreenagar,বাংলাদেশ,ঢাকা বিভাগ,street,,,,Bangladesh,Dhaka,Munshiganj,Sreenagar,Patabhog,7aa9ec5f7d44e023ffd7e9643e2c8514
845646642.0,893cf17a987ffff,23.5273822,90.28802425,ঢাকা-মাওয়া এক্সপ্রেসওয়ে,"['ঢাকা-মাওয়া এক্সপ্রেসওয়ে', 'Dhaka-Mawa Expressway']","Dhaka-Mawa Expressway, Sreenagar, Munshiganj District, Dhaka Division, Bangladesh","ঢাকা-মাওয়া এক্সপ্রেসওয়ে, মুন্সিগঞ্জ জেলা, ঢাকা বিভাগ, বাংলাদেশ",Sreenagar,বাংলাদেশ,ঢাকা বিভাগ,street,,,,Bangladesh,Dhaka,Munshiganj,Sreenagar,Patabhog,7aa9ec5f7d44e023ffd7e9643e2c8514
236822031.0,893cf17a993ffff,23.526758536161264,90.27988526035575,Sreenagar Bazar Bypass,,"Sreenagar Bazar Bypass, Sreenagar, Munshiganj District, Dhaka Division, Bangladesh","শ্রীনগর বাজার বাইপাস, মুন্সিগঞ্জ জেলা, ঢাকা বিভাগ, বাংলাদেশ",Sreenagar,বাংলাদেশ,ঢাকা বিভাগ,street,,,,Bangladesh,Dhaka,Munshiganj,Sreenagar,Patabhog,7aa9ec5f7d44e023ffd7e9643e2c8514
591466803.0,893cf17888bffff,23.4638549150358,90.28633686117934,Mawa Ferry Terminal Road(new),,"Mawa Ferry Terminal Road new, Louhajang Upazila, Munshiganj District, Dhaka Division, Bangladesh","মাওয়া ফেরি টার্মিনাল রোড নতুন, লৌহজং উপজেলা, মুন্সিগঞ্জ জেলা, ঢাকা বিভাগ, বাংলাদেশ",লৌহজং উপজেলা,বাংলাদেশ,ঢাকা বিভাগ,street,,,,Bangladesh,Dhaka,Munshiganj,Lohajang,Kumarbhog,8b24f284aea3f5a4dbf0d068b7128a4b
845646645.0,893cf178cc3ffff,23.474085026973466,90.2651413682927,Dhaka-Mawa Highway,,"Dhaka-Mawa Highway, Louhajang Upazila, Munshiganj District, Dhaka Division, Bangladesh","Dhaka াকা-মাওয়া হাইওয়ে, লৌহজং উপজেলা, মুন্সিগঞ্জ জেলা, ঢাকা বিভাগ, বাংলাদেশ",লৌহজং উপজেলা,বাংলাদেশ,ঢাকা বিভাগ,street,,,,Bangladesh,Dhaka,Munshiganj,Lohajang,Kumarbhog,8b24f284aea3f5a4dbf0d068b7128a4b
604634786.0,893cf178883ffff,23.46533302956149,90.28800686800244,Mawa Ferry Terminal Road(new),,"Mawa Ferry Terminal Road new, Louhajang Upazila, Munshiganj District, Dhaka Division, Bangladesh","মাওয়া ফেরি টার্মিনাল রোড নতুন, লৌহজং উপজেলা, মুন্সিগঞ্জ জেলা, ঢাকা বিভাগ, বাংলাদেশ",লৌহজং উপজেলা,বাংলাদেশ,ঢাকা বিভাগ,street,,,,Bangladesh,Dhaka,Munshiganj,Lohajang,Kumarbhog,8b24f284aea3f5a4dbf0d068b7128a4b
845646637.0,893cf17aa2fffff,23.488780926085838,90.26856657295376,ঢাকা-মাওয়া এক্সপ্রেসওয়ে,"['ঢাকা-মাওয়া এক্সপ্রেসওয়ে', 'Dhaka-Mawa Expressway']","Dhaka-Mawa Expressway, Louhajang Upazila, Munshiganj District, Dhaka Division, Bangladesh","ঢাকা-মাওয়া এক্সপ্রেসওয়ে, লৌহজং উপজেলা, মুন্সিগঞ্জ জেলা, ঢাকা বিভাগ, বাংলাদেশ",লৌহজং উপজেলা,বাংলাদেশ,ঢাকা বিভাগ,street,,,,Bangladesh,Dhaka,Munshiganj,Lohajang,MediniMandal,b07e050e17ede98aec1dae9fc2cb5d58
845596569.0,893cf171847ffff,23.556203588284017,90.29928643537264,ঢাকা-মাওয়া এক্সপ্রেসওয়ে,"['ঢাকা-মাওয়া এক্সপ্রেসওয়ে', 'Dhaka-Mawa Expressway']","Dhaka-Mawa Expressway, Sreenagar, Munshiganj District, Dhaka Division, Bangladesh","ঢাকা-মাওয়া এক্সপ্রেসওয়ে, মুন্সিগঞ্জ জেলা, ঢাকা বিভাগ, বাংলাদেশ",Sreenagar,বাংলাদেশ,ঢাকা বিভাগ,street,,,,Bangladesh,Dhaka,Munshiganj,Sreenagar,Sholaghar,7d7f8ef127ac677cfe9067ed953a7fdd
695491175.0,893cf17a903ffff,23.518791928178683,90.28849924731551,"Khaalpar Sarak, Mashurgaon",,"Khaalpar Sarak Mashurgaon, Sreenagar, Munshiganj District, Dhaka Division, Bangladesh","খালপার সরাক মাশুর্গাঁও, মুন্সিগঞ্জ জেলা, ঢাকা বিভাগ, বাংলাদেশ",Sreenagar,বাংলাদেশ,ঢাকা বিভাগ,street,,,,Bangladesh,Dhaka,Munshiganj,Sreenagar,Patabhog,7aa9ec5f7d44e023ffd7e9643e2c8514
591293673.0,893cf1646c3ffff,23.54733433,90.53401033,Idrakpur Kella,['Idrakpur Fort'],"Idrakpur Kella, Munshiganj, Munshiganj District, Dhaka Division, Bangladesh","ইদ্রাকপুর কেলা, মুন্সিগঞ্জ জেলা, ঢাকা বিভাগ, বাংলাদেশ",Munshiganj,বাংলাদেশ,ঢাকা বিভাগ,local_admin,boundaries,"['monument', 'viewpoint']",[],Bangladesh,Dhaka,Munshiganj,MunshiganjSadar,MunshiganjPaurashava,5009b17f5858f18eb2b8cea1d224a20d
524616356.0,893cf17a987ffff,23.52728935,90.28811355,ঢাকা-মাওয়া এক্সপ্রেসওয়ে,"['ঢাকা-মাওয়া এক্সপ্রেসওয়ে', 'Dhaka-Mawa Expressway']","Dhaka-Mawa Expressway, Sreenagar, Munshiganj District, Dhaka Division, Bangladesh","ঢাকা-মাওয়া এক্সপ্রেসওয়ে, মুন্সিগঞ্জ জেলা, ঢাকা বিভাগ, বাংলাদেশ",Sreenagar,বাংলাদেশ,ঢাকা বিভাগ,street,,,,Bangladesh,Dhaka,Munshiganj,Sreenagar,Patabhog,7aa9ec5f7d44e023ffd7e9643e2c8514
1057857436.0,893cf178c2fffff,23.470642291860816,90.28726100114932,মাওয়া ফেরি টার্মিনাল সড়ক,['Mawa Ferry Terminal Road'],"Mawa Ferry Terminal Road, Louhajang Upazila, Munshiganj District, Dhaka Division, Bangladesh","মাওয়া ফেরি টার্মিনাল সড়ক, লৌহজং উপজেলা, মুন্সিগঞ্জ জেলা, ঢাকা বিভাগ, বাংলাদেশ",লৌহজং উপজেলা,বাংলাদেশ,ঢাকা বিভাগ,street,,,,Bangladesh,Dhaka,Munshiganj,Lohajang,Haldia,b6d7624106db1552e677e7f6cff697c7
591466804.0,893cf17889bffff,23.46527672333969,90.2866576753458,Mawa Ferry Terminal Road(new),,"Mawa Ferry Terminal Road new, Louhajang Upazila, Munshiganj District, Dhaka Division, Bangladesh","মাওয়া ফেরি টার্মিনাল রোড নতুন, লৌহজং উপজেলা, মুন্সিগঞ্জ জেলা, ঢাকা বিভাগ, বাংলাদেশ",লৌহজং উপজেলা,বাংলাদেশ,ঢাকা বিভাগ,street,,,,Bangladesh,Dhaka,Munshiganj,Lohajang,Kumarbhog,8b24f284aea3f5a4dbf0d068b7128a4b
647811904.0,893cf1646c7ffff,23.54801572,90.5366902,Munshiganj District Stadium,['মুন্সিগঞ্জ জেলা স্টেডিয়াম'],"Munshiganj District Stadium, Munshiganj, Munshiganj District, Dhaka Division, Bangladesh","মুনশিগঞ্জ জেলা স্টেডিয়াম, মুন্সিগঞ্জ জেলা, ঢাকা বিভাগ, বাংলাদেশ",Munshiganj,বাংলাদেশ,ঢাকা বিভাগ,local_admin,boundaries,['pitch'],[],Bangladesh,Dhaka,Munshiganj,MunshiganjSadar,MunshiganjPaurashava,5009b17f5858f18eb2b8cea1d224a20d
1017309903.0,893cf17a907ffff,23.520665929573607,90.29201297341872,Majhee Bari Road,,"Majhee Bari Road, Sreenagar, Munshiganj District, Dhaka Division, Bangladesh","মাজে বারী রোড, মুন্সিগঞ্জ জেলা, ঢাকা বিভাগ, বাংলাদেশ",Sreenagar,বাংলাদেশ,ঢাকা বিভাগ,street,,,,Bangladesh,Dhaka,Munshiganj,Sreenagar,Patabhog,7aa9ec5f7d44e023ffd7e9643e2c8514
6146807349.0,893cf16682fffff,23.6016676,90.615221,PBL Industries Site,,"PBL Industries Site, Gazaria, Munshiganj District, Dhaka Division, Bangladesh","পিবিএল ইন্ডাস্ট্রিজ সাইট, মুন্সিগঞ্জ জেলা, ঢাকা বিভাগ, বাংলাদেশ",Gazaria,বাংলাদেশ,ঢাকা বিভাগ,local_admin,boundaries,['marina'],[],Bangladesh,Dhaka,Munshiganj,Gazaria,Baluakandi,9b31eaf2453f68445715416f5460379a
656489141.0,893cf166a97ffff,23.59271095,90.59503333,,,"Gazaria, Munshiganj District, Dhaka Division, Bangladesh","মুন্সিগঞ্জ জেলা, ঢাকা বিভাগ, বাংলাদেশ",Gazaria,বাংলাদেশ,ঢাকা বিভাগ,local_admin,boundaries,['ferry_terminal'],[],Bangladesh,Dhaka,Munshiganj,Gazaria,Hossaindi,6255eaa73134d39d7bad7880693978cc
661103876.0,893cf164157ffff,23.55825911,90.58637468,Gozaria Resort,"['গজারিয়া রিসোর্ট', 'Gazaria Resort']","Gozaria Resort, Gazaria, Munshiganj District, Dhaka Division, Bangladesh","গোজারিয়া রিসর্ট, মুন্সিগঞ্জ জেলা, ঢাকা বিভাগ, বাংলাদেশ",Gazaria,বাংলাদেশ,ঢাকা বিভাগ,local_admin,boundaries,['park'],[],Bangladesh,Dhaka,Munshiganj,Gazaria,Gazaria,f7ef17cf378dc6ceaf9a945dc5222570
661126724.0,893cf166e5bffff,23.59125019,90.57113096,,,"Gazaria, Munshiganj District, Dhaka Division, Bangladesh","মুন্সিগঞ্জ জেলা, ঢাকা বিভাগ, বাংলাদেশ",Gazaria,বাংলাদেশ,ঢাকা বিভাগ,local_admin,boundaries,['island'],[],Bangladesh,Dhaka,Munshiganj,Gazaria,Hossaindi,6255eaa73134d39d7bad7880693978cc
6197679941.0,893cf164d87ffff,23.5824908,90.6384218,Bhaterchor Bus Station,,"Bhaterchor Bus Station, Gazaria, Munshiganj District, Dhaka Division, Bangladesh","ভাটারচার বাস স্টেশন, মুন্সিগঞ্জ জেলা, ঢাকা বিভাগ, বাংলাদেশ",Gazaria,বাংলাদেশ,ঢাকা বিভাগ,street,boundaries,['bus_stop'],[],Bangladesh,Dhaka,Munshiganj,Gazaria,TengerChar,1d31043012f883c0a2812f009aa1a0ce
6253529587.0,893cf16491bffff,23.5595383,90.6557284,ন্যাশনাল ব্যাংক লিমিটেড,['National Bank Limited'],"National Bank Limited, Gazaria, Munshiganj District, Dhaka Division, Bangladesh","ন্যাশনাল ব্যাংক লিমিটেড, মুন্সিগঞ্জ জেলা, ঢাকা বিভাগ, বাংলাদেশ",Gazaria,বাংলাদেশ,ঢাকা বিভাগ,local_admin,boundaries,['bank'],[],Bangladesh,Dhaka,Munshiganj,Gazaria,BhaberChar,29bb61d5b96ff83e7622c059d3796cf6
6273618868.0,893cf164e73ffff,23.5421964,90.6111666,,,"Gazaria, Munshiganj District, Dhaka Division, Bangladesh","মুন্সিগঞ্জ জেলা, ঢাকা বিভাগ, বাংলাদেশ",Gazaria,বাংলাদেশ,ঢাকা বিভাগ,local_admin,boundaries,['ferry_terminal'],[],Bangladesh,Dhaka,Munshiganj,Gazaria,Gazaria,f7ef17cf378dc6ceaf9a945dc5222570
591466802.0,893cf17888bffff,23.464672451903628,90.287499238367,Mawa Ferry Terminal Road(new),,"Mawa Ferry Terminal Road new, Louhajang Upazila, Munshiganj District, Dhaka Division, Bangladesh","মাওয়া ফেরি টার্মিনাল রোড নতুন, লৌহজং উপজেলা, মুন্সিগঞ্জ জেলা, ঢাকা বিভাগ, বাংলাদেশ",লৌহজং উপজেলা,বাংলাদেশ,ঢাকা বিভাগ,street,,,,Bangladesh,Dhaka,Munshiganj,Lohajang,Kumarbhog,8b24f284aea3f5a4dbf0d068b7128a4b
6277769326.0,893cf164e77ffff,23.5418267,90.613131,,,"Gazaria, Munshiganj District, Dhaka Division, Bangladesh","মুন্সিগঞ্জ জেলা, ঢাকা বিভাগ, বাংলাদেশ",Gazaria,বাংলাদেশ,ঢাকা বিভাগ,local_admin,boundaries,['ferry_terminal'],[],Bangladesh,Dhaka,Munshiganj,Gazaria,Imampur,4feb398ed616afcd64b8f730ef2b6bcd
6277840045.0,893cf165ba3ffff,23.4923685,90.6215577,,,"Matlab Uttar Upazila, Chandpur District, Chattogram Division, Bangladesh","মতলব উত্তর উপজেলা, চাঁদপুর জেলা, চট্টগ্রাম বিভাগ, বাংলাদেশ",মতলব উত্তর উপজেলা,বাংলাদেশ,চট্টগ্রাম বিভাগ,local_admin,boundaries,['ferry_terminal'],[],Bangladesh,Dhaka,Munshiganj,Gazaria,Imampur,4feb398ed616afcd64b8f730ef2b6bcd
6284232071.0,893cf164973ffff,23.5547476,90.6590161,Garage,,"Garage, Lakkhipur, Gazaria, Munshiganj District, Dhaka Division, Bangladesh","গ্যারেজ, লক্ষীপুর, মুন্সিগঞ্জ জেলা, ঢাকা বিভাগ, বাংলাদেশ",Gazaria,বাংলাদেশ,ঢাকা বিভাগ,locality,boundaries,['parking'],[],Bangladesh,Dhaka,Munshiganj,Gazaria,Bausia,7d6a3f1ee8d0a204a363223890c73eaa
1024284567.0,893cf17aa2fffff,23.48841257326009,90.26858236815194,ঢাকা-মাওয়া এক্সপ্রেসওয়ে,"['ঢাকা-মাওয়া এক্সপ্রেসওয়ে', 'Dhaka-Mawa Expressway']","Dhaka-Mawa Expressway, Louhajang Upazila, Munshiganj District, Dhaka Division, Bangladesh","ঢাকা-মাওয়া এক্সপ্রেসওয়ে, লৌহজং উপজেলা, মুন্সিগঞ্জ জেলা, ঢাকা বিভাগ, বাংলাদেশ",লৌহজং উপজেলা,বাংলাদেশ,ঢাকা বিভাগ,street,,,,Bangladesh,Dhaka,Munshiganj,Lohajang,MediniMandal,b07e050e17ede98aec1dae9fc2cb5d58
789775610.0,893cf16c583ffff,23.42834498,90.52436928,সরদার বাড়ী কবরস্থান,['সরদার বাড়ী কবরস্থান'],"Sardar's house cemetery, ","সরদার বাড়ী কবরস্থান, ",Munshiganj,বাংলাদেশ,ঢাকা বিভাগ,housenumber,sameSource,['cemetery'],[],Bangladesh,Dhaka,Munshiganj,MunshiganjSadar,BanglaBazar,24f1fc8eb63ac05957a414374bee8df9
1017310405.0,893cf17a917ffff,23.522011628311912,90.28929062216194,Mashurgaon Mosjid Road,,"Mashurgaon Mosjid Road, Sreenagar, Munshiganj District, Dhaka Division, Bangladesh","মাশুরগাঁও মোসজিদ রোড, মুন্সিগঞ্জ জেলা, ঢাকা বিভাগ, বাংলাদেশ",Sreenagar,বাংলাদেশ,ঢাকা বিভাগ,street,,,,Bangladesh,Dhaka,Munshiganj,Sreenagar,Patabhog,7aa9ec5f7d44e023ffd7e9643e2c8514
1017310692.0,893cf17a9abffff,23.521734473687896,90.2921380125432,Mashurgaon School Road,,"Mashurgaon School Road, Sreenagar, Munshiganj District, Dhaka Division, Bangladesh","মাশুরগাঁও স্কুল রোড, মুন্সিগঞ্জ জেলা, ঢাকা বিভাগ, বাংলাদেশ",Sreenagar,বাংলাদেশ,ঢাকা বিভাগ,street,,,,Bangladesh,Dhaka,Munshiganj,Sreenagar,Patabhog,7aa9ec5f7d44e023ffd7e9643e2c8514
986201221.0,893cf1646c3ffff,23.54736529,90.53371834,ইদ্রাকপুর কেল্লা,['Idrakpur Fort'],"Idrakpur Fort, Munshiganj, Munshiganj District, Dhaka Division, Bangladesh","ইদ্রাকপুর কেল্লা, মুন্সিগঞ্জ জেলা, ঢাকা বিভাগ, বাংলাদেশ",Munshiganj,বাংলাদেশ,ঢাকা বিভাগ,local_admin,boundaries,['castle'],[],Bangladesh,Dhaka,Munshiganj,MunshiganjSadar,MunshiganjPaurashava,5009b17f5858f18eb2b8cea1d224a20d
845646644.0,893cf171a47ffff,23.534846426134624,90.29086526710142,ঢাকা-মাওয়া এক্সপ্রেসওয়ে,"['ঢাকা-মাওয়া এক্সপ্রেসওয়ে', 'Dhaka-Mawa Expressway']","Dhaka-Mawa Expressway, Sreenagar, Munshiganj District, Dhaka Division, Bangladesh","ঢাকা-মাওয়া এক্সপ্রেসওয়ে, মুন্সিগঞ্জ জেলা, ঢাকা বিভাগ, বাংলাদেশ",Sreenagar,বাংলাদেশ,ঢাকা বিভাগ,street,,,,Bangladesh,Dhaka,Munshiganj,Sreenagar,Patabhog,7aa9ec5f7d44e023ffd7e9643e2c8514
845646640.0,893cf17abc3ffff,23.4979798,90.2714178,ঢাকা-মাওয়া এক্সপ্রেসওয়ে,"['ঢাকা-মাওয়া এক্সপ্রেসওয়ে', 'Dhaka-Mawa Expressway']","Dhaka-Mawa Expressway, Sreenagar, Munshiganj District, Dhaka Division, Bangladesh","ঢাকা-মাওয়া এক্সপ্রেসওয়ে, মুন্সিগঞ্জ জেলা, ঢাকা বিভাগ, বাংলাদেশ",Sreenagar,বাংলাদেশ,ঢাকা বিভাগ,street,,,,Bangladesh,Dhaka,Munshiganj,Lohajang,MediniMandal,b07e050e17ede98aec1dae9fc2cb5d58
995047312.0,893cf178c9bffff,23.47993357096659,90.26759820483916,ঢাকা-মাওয়া এক্সপ্রেসওয়ে,"['ঢাকা-মাওয়া এক্সপ্রেসওয়ে', 'Dhaka-Mawa Expressway']","Dhaka-Mawa Expressway, Louhajang Upazila, Munshiganj District, Dhaka Division, Bangladesh","ঢাকা-মাওয়া এক্সপ্রেসওয়ে, লৌহজং উপজেলা, মুন্সিগঞ্জ জেলা, ঢাকা বিভাগ, বাংলাদেশ",লৌহজং উপজেলা,বাংলাদেশ,ঢাকা বিভাগ,street,,,,Bangladesh,Dhaka,Munshiganj,Lohajang,Kumarbhog,8b24f284aea3f5a4dbf0d068b7128a4b
1037464855.0,893cf171a1bffff,23.540384278984657,90.2905017888634,Sreenagar-Dohar Highway,,"Sreenagar-Dohar Highway, Sreenagar, Munshiganj District, Dhaka Division, Bangladesh","শ্রীনগর-দোহার হাইওয়ে, মুন্সিগঞ্জ জেলা, ঢাকা বিভাগ, বাংলাদেশ",Sreenagar,বাংলাদেশ,ঢাকা বিভাগ,street,,,,Bangladesh,Dhaka,Munshiganj,Sreenagar,Patabhog,7aa9ec5f7d44e023ffd7e9643e2c8514
2185603.0,893cf1646c7ffff,23.54803277,90.53668164,,,"Munshiganj, Munshiganj District, Dhaka Division, Bangladesh","মুন্সিগঞ্জ জেলা, ঢাকা বিভাগ, বাংলাদেশ",Munshiganj,বাংলাদেশ,ঢাকা বিভাগ,local_admin,boundaries,['stadium'],[],Bangladesh,Dhaka,Munshiganj,MunshiganjSadar,MunshiganjPaurashava,5009b17f5858f18eb2b8cea1d224a20d
7559110381.0,893cf17ac37ffff,23.5299171,90.2556037,রাঢ়ীখাল,['Rarikhal'],"Radhikhal, Rarikhal, Sreenagar, Munshiganj District, Dhaka Division, Bangladesh","রাঢ়ীখাল, মুন্সিগঞ্জ জেলা, ঢাকা বিভাগ, বাংলাদেশ",Sreenagar,বাংলাদেশ,ঢাকা বিভাগ,locality,,,,Bangladesh,Dhaka,Munshiganj,Sreenagar,Rarikhal,056374e97ca372089427e522b1852aa8
3392927645.0,893cf178c0fffff,23.4718006,90.2787904,কুমারভোগ,"['কুমারভোগ', 'Kumarvog']","Pottery, Kumarvog, Louhajang Upazila, Munshiganj District, Dhaka Division, Bangladesh","কুমারভোগ, লৌহজং উপজেলা, মুন্সিগঞ্জ জেলা, ঢাকা বিভাগ, বাংলাদেশ",লৌহজং উপজেলা,বাংলাদেশ,ঢাকা বিভাগ,locality,,,,Bangladesh,Dhaka,Munshiganj,Lohajang,Kumarbhog,8b24f284aea3f5a4dbf0d068b7128a4b
2447157332.0,893cf178cdbffff,23.4722843,90.2627571,মাওয়া,"['মাওয়া', 'Mawa']","Mawa, Louhajang Upazila, Munshiganj District, Dhaka Division, Bangladesh","মাওয়া, লৌহজং উপজেলা, মুন্সিগঞ্জ জেলা, ঢাকা বিভাগ, বাংলাদেশ",লৌহজং উপজেলা,বাংলাদেশ,ঢাকা বিভাগ,locality,,,,Bangladesh,Dhaka,Munshiganj,Lohajang,MediniMandal,b07e050e17ede98aec1dae9fc2cb5d58
7383653450.0,893cf16c583ffff,23.4294539,90.5255645,sardarbari jame masjid,,"sardarbari jame masjid, ","সরদারবারি জামে মসজিদ, ",Munshiganj,বাংলাদেশ,ঢাকা বিভাগ,housenumber,,,,Bangladesh,Dhaka,Munshiganj,MunshiganjSadar,BanglaBazar,24f1fc8eb63ac05957a414374bee8df9
7383672556.0,893cf16c583ffff,23.4289001,90.5263084,kakon store,,"kakon store, ","কাকন স্টোর, ",Munshiganj,বাংলাদেশ,ঢাকা বিভাগ,housenumber,,,,Bangladesh,Dhaka,Munshiganj,MunshiganjSadar,BanglaBazar,24f1fc8eb63ac05957a414374bee8df9
7383803912.0,893cf16c5b7ffff,23.4334694,90.535256,banglabazar,,"banglabazar, ","বাংলাবাজার, ",Munshiganj,বাংলাদেশ,ঢাকা বিভাগ,housenumber,,,,Bangladesh,Dhaka,Munshiganj,MunshiganjSadar,BanglaBazar,24f1fc8eb63ac05957a414374bee8df9
