osm_id,h3level9,lat,lon,name,alt_names,name_en,name_bn,local_admin_name,admin0_name,admin2_name,addr_level,poi_addr_match,poi_class,poi_keywords,country,division,district,thana,union,region_hash
4631403754.0,893cf12f56bffff,23.7684692,90.7251313,,,"Araihazar Upazila, Narayanganj District, Dhaka Division, Bangladesh","আড়াইহাজার উপজেলা, নারায়নগঞ্জ জেলা, নারায়ণগঞ্জ জেলা, ঢাকা বিভাগ, বাংলাদেশ",আড়াইহাজার উপজেলা,বাংলাদেশ,ঢাকা বিভাগ,local_admin,boundaries,['ferry_terminal'],[],Bangladesh,Dhaka,Narayanganj,Araihazar,Bishnandi,f84bf22b2904472b4a41e2ed6551102a
5028153083.0,893cf12890fffff,23.7117463,90.7035596,,,"Araihazar Upazila, Narayanganj District, Dhaka Division, Bangladesh","আড়াইহাজার উপজেলা, নারায়নগঞ্জ জেলা, নারায়ণগঞ্জ জেলা, ঢাকা বিভাগ, বাংলাদেশ",আড়াইহাজার উপজেলা,বাংলাদেশ,ঢাকা বিভাগ,local_admin,boundaries,['ferry_terminal'],[],Bangladesh,Dhaka,Narayanganj,Araihazar,KalaPaharia,c050c795000a41d3f0ac38690f848c81
5028153230.0,893cc692563ffff,23.668488,90.7179496,,,"Araihazar Upazila, Narayanganj District, Dhaka Division, Bangladesh","আড়াইহাজার উপজেলা, নারায়নগঞ্জ জেলা, নারায়ণগঞ্জ জেলা, ঢাকা বিভাগ, বাংলাদেশ",আড়াইহাজার উপজেলা,বাংলাদেশ,ঢাকা বিভাগ,local_admin,boundaries,['ferry_terminal'],[],Bangladesh,Dhaka,Narayanganj,Araihazar,KalaPaharia,c050c795000a41d3f0ac38690f848c81
9530634428.0,893cf121bafffff,23.8018373,90.7115793,GOPALDI GIRLS HIGH SCHOOL,,"GOPALDI GIRLS HIGH SCHOOL, Araihazar Upazila, Narayanganj District, Dhaka Division, Bangladesh","গোপালডি গার্লস হাই স্কুল, আড়াইহাজার উপজেলা, নারায়নগঞ্জ জেলা, নারায়ণগঞ্জ জেলা, ঢাকা বিভাগ, বাংলাদেশ",আড়াইহাজার উপজেলা,বাংলাদেশ,ঢাকা বিভাগ,local_admin,boundaries,"['educational_institution', 'school']",[],Bangladesh,Dhaka,Narayanganj,Araihazar,Sadasardi,b78b59cfc58f1e0cba522de8e771350c
9530634429.0,893cf121bafffff,23.8011912,90.7124011,SADASADI M.L.HIGH SCHOOL,,"SADASADI M.L.HIGH SCHOOL, Araihazar Upazila, Narayanganj District, Dhaka Division, Bangladesh","সাদাসাদি এম.এল.এইচ স্কুল, আড়াইহাজার উপজেলা, নারায়নগঞ্জ জেলা, নারায়ণগঞ্জ জেলা, ঢাকা বিভাগ, বাংলাদেশ",আড়াইহাজার উপজেলা,বাংলাদেশ,ঢাকা বিভাগ,local_admin,boundaries,"['educational_institution', 'school']",[],Bangladesh,Dhaka,Narayanganj,Araihazar,Sadasardi,b78b59cfc58f1e0cba522de8e771350c
535697035.0,893cc6925b7ffff,23.68724060703781,90.72065606835908,khaliyar char-kalapaharia moddharchar sarak,,"khaliyar char-kalapaharia moddharchar sarak, Araihazar Upazila, Narayanganj District, Dhaka Division, Bangladesh","খালিয়ার চর-কালাপাহারিয়া মোডধারচার সারক, আড়াইহাজার উপজেলা, নারায়নগঞ্জ জেলা, নারায়ণগঞ্জ জেলা, ঢাকা বিভাগ, বাংলাদেশ",আড়াইহাজার উপজেলা,বাংলাদেশ,ঢাকা বিভাগ,street,,,,Bangladesh,Dhaka,Narayanganj,Araihazar,KalaPaharia,c050c795000a41d3f0ac38690f848c81
535697036.0,893cc6925abffff,23.67978601347947,90.71847935608268,khaliyar char-kalapaharia moddharchar sarak,,"khaliyar char-kalapaharia moddharchar sarak, Araihazar Upazila, Narayanganj District, Dhaka Division, Bangladesh","খালিয়ার চর-কালাপাহারিয়া মোডধারচার সারক, আড়াইহাজার উপজেলা, নারায়নগঞ্জ জেলা, নারায়ণগঞ্জ জেলা, ঢাকা বিভাগ, বাংলাদেশ",আড়াইহাজার উপজেলা,বাংলাদেশ,ঢাকা বিভাগ,street,,,,Bangladesh,Dhaka,Narayanganj,Araihazar,KalaPaharia,c050c795000a41d3f0ac38690f848c81
514731943.0,893cf12d6c7ffff,23.69880335535565,90.71364615716983,khaliyar char-kalapaharia moddharchar sarak,,"khaliyar char-kalapaharia moddharchar sarak, Araihazar Upazila, Narayanganj District, Dhaka Division, Bangladesh","খালিয়ার চর-কালাপাহারিয়া মোডধারচার সারক, আড়াইহাজার উপজেলা, নারায়নগঞ্জ জেলা, নারায়ণগঞ্জ জেলা, ঢাকা বিভাগ, বাংলাদেশ",আড়াইহাজার উপজেলা,বাংলাদেশ,ঢাকা বিভাগ,street,,,,Bangladesh,Dhaka,Narayanganj,Araihazar,KalaPaharia,c050c795000a41d3f0ac38690f848c81
9167070763.0,893cf121bafffff,23.8020868,90.7109859,গোপালদী,"['গোপালদী', 'Gopaldi']","Gopaldi, Araihazar Upazila, Narayanganj District, Dhaka Division, Bangladesh","গোপালদী, আড়াইহাজার উপজেলা, নারায়নগঞ্জ জেলা, নারায়ণগঞ্জ জেলা, ঢাকা বিভাগ, বাংলাদেশ",আড়াইহাজার উপজেলা,বাংলাদেশ,ঢাকা বিভাগ,locality,,,,Bangladesh,Dhaka,Narayanganj,Araihazar,Sadasardi,b78b59cfc58f1e0cba522de8e771350c
818600758.0,893cf174a6bffff,23.6272308,90.5052256,Khanpur Lal Mosque,,"Khanpur Lal Mosque, Narayanganj, Narayanganj District, Dhaka Division, Bangladesh","খানপুর লাল মসজিদ, নারায়নগঞ্জ জেলা, নারায়ণগঞ্জ জেলা, ঢাকা বিভাগ, বাংলাদেশ",Narayanganj,বাংলাদেশ,ঢাকা বিভাগ,local_admin,boundaries,['place_of_worship_muslim'],[],Bangladesh,Dhaka,Narayanganj,NarayanganjSadar,NarayanganjPaurashava,780ea0df78abb5aafb51ed5b251475f2
819580530.0,893cf1759a7ffff,23.6252796,90.5051021,,,"Narayanganj, Narayanganj District, Dhaka Division, Bangladesh","নারায়নগঞ্জ জেলা, নারায়ণগঞ্জ জেলা, ঢাকা বিভাগ, বাংলাদেশ",Narayanganj,বাংলাদেশ,ঢাকা বিভাগ,local_admin,boundaries,['bank'],[],Bangladesh,Dhaka,Narayanganj,NarayanganjSadar,NarayanganjPaurashava,780ea0df78abb5aafb51ed5b251475f2
819615524.0,893cf1664d3ffff,23.6252157,90.5052659,Khanpur Main Road,,"Khanpur Main Road, Narayanganj, Narayanganj District, Dhaka Division, Bangladesh","খানপুর মেইন রোড, নারায়নগঞ্জ জেলা, নারায়ণগঞ্জ জেলা, ঢাকা বিভাগ, বাংলাদেশ",Narayanganj,বাংলাদেশ,ঢাকা বিভাগ,street,boundaries,['bus_stop'],[],Bangladesh,Dhaka,Narayanganj,NarayanganjSadar,NarayanganjPaurashava,780ea0df78abb5aafb51ed5b251475f2
825448095.0,893cf17592fffff,23.6130882,90.5058942,,,"Narayanganj, Narayanganj District, Dhaka Division, Bangladesh","নারায়নগঞ্জ জেলা, নারায়ণগঞ্জ জেলা, ঢাকা বিভাগ, বাংলাদেশ",Narayanganj,বাংলাদেশ,ঢাকা বিভাগ,local_admin,boundaries,['ferry_terminal'],[],Bangladesh,Dhaka,Narayanganj,Bandar,KadamRasulPaurashava,6395d893f42fe5fbe4b2e78035aa881c
2344450874.0,893cf1664a3ffff,23.6294025,90.5251277,Bandar Upazila Health Complex,,"Bandar Upazila Health Complex, Bandar, Narayanganj District, Dhaka Division, Bangladesh","বান্দর উপজিলা স্বাস্থ্য কমপ্লেক্স, নারায়নগঞ্জ জেলা, নারায়ণগঞ্জ জেলা, ঢাকা বিভাগ, বাংলাদেশ",Bandar,বাংলাদেশ,ঢাকা বিভাগ,local_admin,boundaries,['hospital'],[],Bangladesh,Dhaka,Narayanganj,Bandar,Bandar,7f1ab5248ad19f62cfece3018a781f54
2702804261.0,893cf175923ffff,23.6161677,90.5056667,নারায়ণগঞ্জ লঞ্চ ঘাট,,"Narayanganj Launch Ghat, Narayanganj, Narayanganj District, Dhaka Division, Bangladesh","নারায়ণগঞ্জ লঞ্চ ঘাট, নারায়নগঞ্জ জেলা, নারায়ণগঞ্জ জেলা, ঢাকা বিভাগ, বাংলাদেশ",Narayanganj,বাংলাদেশ,ঢাকা বিভাগ,local_admin,boundaries,['ferry_terminal'],[],Bangladesh,Dhaka,Narayanganj,NarayanganjSadar,NarayanganjPaurashava,780ea0df78abb5aafb51ed5b251475f2
3370370633.0,893cf16645bffff,23.6150283,90.5099867,ডিবিবিএল ফাস্ট ট্র্যাক এটিএম বুথ,"['ডিবিবিএল ফাস্ট ট্র্যাক এটিএম বুথ', 'DBBL Fast Track ATM Booth']","DBBL Fast Track ATM booth, Narayanganj, Narayanganj District, Dhaka Division, Bangladesh","ডিবিবিএল ফাস্ট ট্র্যাক এটিএম বুথ, নারায়নগঞ্জ জেলা, নারায়ণগঞ্জ জেলা, ঢাকা বিভাগ, বাংলাদেশ",Narayanganj,বাংলাদেশ,ঢাকা বিভাগ,local_admin,boundaries,['atm'],[],Bangladesh,Dhaka,Narayanganj,Bandar,KadamRasulPaurashava,6395d893f42fe5fbe4b2e78035aa881c
4068095607.0,893cf17593bffff,23.6143996,90.5010123,Morgan Girl's High School,,"Morgan Girl's High School, Narayanganj, Narayanganj District, Dhaka Division, Bangladesh","মরগান গার্লস হাই স্কুল, নারায়নগঞ্জ জেলা, নারায়ণগঞ্জ জেলা, ঢাকা বিভাগ, বাংলাদেশ",Narayanganj,বাংলাদেশ,ঢাকা বিভাগ,local_admin,boundaries,['school'],[],Bangladesh,Dhaka,Narayanganj,NarayanganjSadar,NarayanganjPaurashava,780ea0df78abb5aafb51ed5b251475f2
4104184789.0,893cf175937ffff,23.617983,90.505575,নারায়ণগঞ্জ,['Narayanganj Railway station'],"Narayanganj, Narayanganj District, Dhaka Division, Bangladesh","নারায়ণগঞ্জ, নারায়নগঞ্জ জেলা, নারায়ণগঞ্জ জেলা, ঢাকা বিভাগ, বাংলাদেশ",Narayanganj,বাংলাদেশ,ঢাকা বিভাগ,local_admin,boundaries,['railway_station'],[],Bangladesh,Dhaka,Narayanganj,NarayanganjSadar,NarayanganjPaurashava,780ea0df78abb5aafb51ed5b251475f2
4316280697.0,893cf175933ffff,23.6191593,90.5026387,রূপালী ব্যাংক এস কে রোড শাখা,"['রূপালী ব্যাংক এস কে রোড শাখা', 'Rupali Bank S.K Road Branch']","Silver Bank SK Road Branch, Narayanganj, Narayanganj District, Dhaka Division, Bangladesh","রূপালী ব্যাংক এস কে রোড শাখা, নারায়নগঞ্জ জেলা, নারায়ণগঞ্জ জেলা, ঢাকা বিভাগ, বাংলাদেশ",Narayanganj,বাংলাদেশ,ঢাকা বিভাগ,local_admin,boundaries,['bank'],[],Bangladesh,Dhaka,Narayanganj,NarayanganjSadar,NarayanganjPaurashava,780ea0df78abb5aafb51ed5b251475f2
4316325889.0,893cf175933ffff,23.6191606,90.5025291,,,"Narayanganj, Narayanganj District, Dhaka Division, Bangladesh","নারায়নগঞ্জ জেলা, নারায়ণগঞ্জ জেলা, ঢাকা বিভাগ, বাংলাদেশ",Narayanganj,বাংলাদেশ,ঢাকা বিভাগ,local_admin,boundaries,['atm'],[],Bangladesh,Dhaka,Narayanganj,NarayanganjSadar,NarayanganjPaurashava,780ea0df78abb5aafb51ed5b251475f2
4409059790.0,893cf138d47ffff,23.8316554,90.5547463,,['Kanchan'],"Rupganj Upazila, Narayanganj District, Dhaka Division, Bangladesh","রূপগঞ্জ উপজেলা, নারায়নগঞ্জ জেলা, নারায়ণগঞ্জ জেলা, ঢাকা বিভাগ, বাংলাদেশ",রূপগঞ্জ উপজেলা,বাংলাদেশ,ঢাকা বিভাগ,local_admin,boundaries,['school'],[],Bangladesh,Dhaka,Narayanganj,Rupganj,KanchanPaurashava,3da045d6b6bcf6ba13e0fa33afff1896
4441164194.0,893cf174dbbffff,23.6882372,90.5150023,,,"Narayanganj, Narayanganj District, Dhaka Division, Bangladesh","নারায়নগঞ্জ জেলা, নারায়ণগঞ্জ জেলা, ঢাকা বিভাগ, বাংলাদেশ",Narayanganj,বাংলাদেশ,ঢাকা বিভাগ,local_admin,boundaries,['water_well'],[],Bangladesh,Dhaka,Narayanganj,NarayanganjSadar,SiddirganjPaurashava,9f535d2806f71a0a1b89d7dad9aa718b
4452837289.0,893cf175933ffff,23.6190523,90.502122,,['Agrani Bank Zonal Office'],,,Narayanganj,বাংলাদেশ,ঢাকা বিভাগ,housenumber,sameSource,['bank'],[],Bangladesh,Dhaka,Narayanganj,NarayanganjSadar,NarayanganjPaurashava,780ea0df78abb5aafb51ed5b251475f2
4634501289.0,893cf12a4afffff,23.7841871,90.5705582,,['DR. Telecom Center (ডি.আর. টেলিকম সেন্টার)'],,,রূপগঞ্জ উপজেলা,বাংলাদেশ,ঢাকা বিভাগ,housenumber,sameSource,['mobile_phone'],[],Bangladesh,Dhaka,Narayanganj,Rupganj,Bulta,a13a97acaa1ba3400c1fefff95aa4d07
4693167191.0,893cf12b6cfffff,23.7028321,90.512646,,,"Narayanganj, Narayanganj District, Dhaka Division, Bangladesh","নারায়নগঞ্জ জেলা, নারায়ণগঞ্জ জেলা, ঢাকা বিভাগ, বাংলাদেশ",Narayanganj,বাংলাদেশ,ঢাকা বিভাগ,local_admin,boundaries,['guest_house'],[],Bangladesh,Dhaka,Narayanganj,NarayanganjSadar,SiddirganjPaurashava,9f535d2806f71a0a1b89d7dad9aa718b
5114715839.0,893cf176b27ffff,23.6976757,90.5086602,,,"Narayanganj, Narayanganj District, Dhaka Division, Bangladesh","নারায়নগঞ্জ জেলা, নারায়ণগঞ্জ জেলা, ঢাকা বিভাগ, বাংলাদেশ",Narayanganj,বাংলাদেশ,ঢাকা বিভাগ,local_admin,boundaries,['atm'],[],Bangladesh,Dhaka,Narayanganj,NarayanganjSadar,SiddirganjPaurashava,9f535d2806f71a0a1b89d7dad9aa718b
5115216384.0,893cf12b223ffff,23.6904798,90.5468875,Modonpur Bus Stop মদনপুর বাস স্টপ,,"Modonpur Bus Stop, Bandar, Narayanganj District, Dhaka Division, Bangladesh","মদনপুর বাস স্টপ, নারায়নগঞ্জ জেলা, নারায়ণগঞ্জ জেলা, ঢাকা বিভাগ, বাংলাদেশ",Bandar,বাংলাদেশ,ঢাকা বিভাগ,street,boundaries,['bus_stop'],[],Bangladesh,Dhaka,Narayanganj,Bandar,Madanpur,e505dfcc6800afc3e8400d0118f39c0c
5115229527.0,893cf12b223ffff,23.6899391,90.5468894,Bhai Bhai Batasra Bitan,,"Bhai Bhai Batasra Bitan, Bandar, Narayanganj District, Dhaka Division, Bangladesh","ভাই ভাই বাতাসরা বিটান, নারায়নগঞ্জ জেলা, নারায়ণগঞ্জ জেলা, ঢাকা বিভাগ, বাংলাদেশ",Bandar,বাংলাদেশ,ঢাকা বিভাগ,local_admin,boundaries,['clothes'],[],Bangladesh,Dhaka,Narayanganj,Bandar,Madanpur,e505dfcc6800afc3e8400d0118f39c0c
5116388691.0,893cf12b603ffff,23.7058474,90.5211155,কাঁচপুর বাস স্টপ,['Kanchpur Bus Stop'],"Kanchpur bus stop, Kanchpur Bus Stop, Sonargaon, Narayanganj, Narayanganj District, Dhaka Division, Bangladesh","কাঁচপুর বাস স্টপ, নারায়নগঞ্জ জেলা, নারায়ণগঞ্জ জেলা, ঢাকা বিভাগ, বাংলাদেশ",Narayanganj,বাংলাদেশ,ঢাকা বিভাগ,street,boundaries,['bus_stop'],[],Bangladesh,Dhaka,Narayanganj,Sonargaon,Kachpur,9cadefa834957c2f72123d7d55d9d928
5116389415.0,893cf12b607ffff,23.7058407,90.5217403,কাঁচপুর বাস স্টপ,['Kanchpur Bus Stop'],"Kanchpur bus stop, Sonargaon, Narayanganj District, Dhaka Division, Bangladesh","কাঁচপুর বাস স্টপ, নারায়নগঞ্জ জেলা, নারায়ণগঞ্জ জেলা, ঢাকা বিভাগ, বাংলাদেশ",Sonargaon,বাংলাদেশ,ঢাকা বিভাগ,local_admin,boundaries,['bus_station'],[],Bangladesh,Dhaka,Narayanganj,Sonargaon,Kachpur,9cadefa834957c2f72123d7d55d9d928
5116397328.0,893cf12b607ffff,23.7059208,90.522942,Kachpur Jame Masjid,,"Kachpur Jame Masjid, Sonargaon, Narayanganj District, Dhaka Division, Bangladesh","কাচপুর জামে মসজিদ, নারায়নগঞ্জ জেলা, নারায়ণগঞ্জ জেলা, ঢাকা বিভাগ, বাংলাদেশ",Sonargaon,বাংলাদেশ,ঢাকা বিভাগ,local_admin,boundaries,['place_of_worship_muslim'],[],Bangladesh,Dhaka,Narayanganj,Sonargaon,Kachpur,9cadefa834957c2f72123d7d55d9d928
5116433430.0,893cf12b223ffff,23.6889199,90.5479186,Rafi Filling Station ,,"Rafi Filling Station, Bandar, Narayanganj District, Dhaka Division, Bangladesh","রাফি ফিলিং স্টেশন, নারায়নগঞ্জ জেলা, নারায়ণগঞ্জ জেলা, ঢাকা বিভাগ, বাংলাদেশ",Bandar,বাংলাদেশ,ঢাকা বিভাগ,local_admin,boundaries,['fuel'],[],Bangladesh,Dhaka,Narayanganj,Bandar,Madanpur,e505dfcc6800afc3e8400d0118f39c0c
5116441540.0,893cf12948fffff,23.6787533,90.5550573,Rojonigandha CNG & Fuling Station,,"Rojonigandha CNG & Fuling Station, Bandar, Narayanganj District, Dhaka Division, Bangladesh","রোজনিগন্ধা সিএনজি এবং ফুলিং স্টেশন, নারায়নগঞ্জ জেলা, নারায়ণগঞ্জ জেলা, ঢাকা বিভাগ, বাংলাদেশ",Bandar,বাংলাদেশ,ঢাকা বিভাগ,local_admin,boundaries,['fuel'],[],Bangladesh,Dhaka,Narayanganj,Bandar,Madanpur,e505dfcc6800afc3e8400d0118f39c0c
5116452221.0,893cf12948fffff,23.6785623,90.556043,Mega City CNG & Re-Fueling Station,,"Mega City CNG & Re-Fueling Station, Bandar, Narayanganj District, Dhaka Division, Bangladesh","মেগা সিটি সিএনজি এবং পুনরায় জ্বালানী স্টেশন, নারায়নগঞ্জ জেলা, নারায়ণগঞ্জ জেলা, ঢাকা বিভাগ, বাংলাদেশ",Bandar,বাংলাদেশ,ঢাকা বিভাগ,local_admin,boundaries,['fuel'],[],Bangladesh,Dhaka,Narayanganj,Bandar,Madanpur,e505dfcc6800afc3e8400d0118f39c0c
5116454430.0,893cf129417ffff,23.676252,90.5572788,Siam CNG & Re-Fueling Station,,"Siam CNG & Re-Fueling Station, Bandar, Narayanganj District, Dhaka Division, Bangladesh","সিয়াম সিএনজি এবং পুনরায় জ্বালানী স্টেশন, নারায়নগঞ্জ জেলা, নারায়ণগঞ্জ জেলা, ঢাকা বিভাগ, বাংলাদেশ",Bandar,বাংলাদেশ,ঢাকা বিভাগ,local_admin,boundaries,['fuel'],[],Bangladesh,Dhaka,Narayanganj,Bandar,Madanpur,e505dfcc6800afc3e8400d0118f39c0c
5116457095.0,893cf129403ffff,23.6741892,90.5571347,BSRM Regional Sales Office- Jungal,,"BSRM Regional Sales Office- Jungal, Bandar, Narayanganj District, Dhaka Division, Bangladesh","বিএসআরএম আঞ্চলিক বিক্রয় অফিস- জাঙ্গাল, নারায়নগঞ্জ জেলা, নারায়ণগঞ্জ জেলা, ঢাকা বিভাগ, বাংলাদেশ",Bandar,বাংলাদেশ,ঢাকা বিভাগ,local_admin,boundaries,['place_of_worship'],[],Bangladesh,Dhaka,Narayanganj,Bandar,Madanpur,e505dfcc6800afc3e8400d0118f39c0c
5116459168.0,893cf12940fffff,23.6712419,90.5600025,Sundarban Re-Fueling Station,,"Sundarban Re-Fueling Station, Bandar, Narayanganj District, Dhaka Division, Bangladesh","সুন্দরবান পুনরায় জ্বালানী স্টেশন, নারায়নগঞ্জ জেলা, নারায়ণগঞ্জ জেলা, ঢাকা বিভাগ, বাংলাদেশ",Bandar,বাংলাদেশ,ঢাকা বিভাগ,local_admin,boundaries,['fuel'],[],Bangladesh,Dhaka,Narayanganj,Bandar,Dhamgar,53cc8bacffeacbb974498dc07d3b9252
5116465337.0,893cf129477ffff,23.6682505,90.5615925,Nitol Motors,,"Nitol Motors, Bandar, Narayanganj District, Dhaka Division, Bangladesh","নিতল মোটর, নারায়নগঞ্জ জেলা, নারায়ণগঞ্জ জেলা, ঢাকা বিভাগ, বাংলাদেশ",Bandar,বাংলাদেশ,ঢাকা বিভাগ,local_admin,boundaries,"['car_repair', 'car_wash']",[],Bangladesh,Dhaka,Narayanganj,Bandar,Dhamgar,53cc8bacffeacbb974498dc07d3b9252
5116469342.0,893cf129477ffff,23.6681627,90.5607208,CH Castle & Resort   ,,"CH Castle & Resort, Bandar, Narayanganj District, Dhaka Division, Bangladesh","সিএইচ ক্যাসেল এবং রিসর্ট, নারায়নগঞ্জ জেলা, নারায়ণগঞ্জ জেলা, ঢাকা বিভাগ, বাংলাদেশ",Bandar,বাংলাদেশ,ঢাকা বিভাগ,local_admin,boundaries,['motel'],[],Bangladesh,Dhaka,Narayanganj,Bandar,Dhamgar,53cc8bacffeacbb974498dc07d3b9252
5116837688.0,893cf12b217ffff,23.6937689,90.5387144,Aqib Fast Food,,"Aqib Fast Food, Sonargaon, Narayanganj District, Dhaka Division, Bangladesh","আকিব ফাস্ট ফুড, নারায়নগঞ্জ জেলা, নারায়ণগঞ্জ জেলা, ঢাকা বিভাগ, বাংলাদেশ",Sonargaon,বাংলাদেশ,ঢাকা বিভাগ,local_admin,boundaries,['fast_food'],[],Bangladesh,Dhaka,Narayanganj,Bandar,KadamRasulPaurashava,6395d893f42fe5fbe4b2e78035aa881c
5116849871.0,893cf12b217ffff,23.6909752,90.5394169,Sonali Bandar Jame Masjid সোনালী বন্দর জামে মসজিদ,,"Sonali Bandar Jame Masjid, Bandar, Narayanganj District, Dhaka Division, Bangladesh","সোনালী বন্দর জামে মসজিদ, নারায়নগঞ্জ জেলা, নারায়ণগঞ্জ জেলা, ঢাকা বিভাগ, বাংলাদেশ",Bandar,বাংলাদেশ,ঢাকা বিভাগ,local_admin,boundaries,['place_of_worship_muslim'],[],Bangladesh,Dhaka,Narayanganj,Bandar,KadamRasulPaurashava,6395d893f42fe5fbe4b2e78035aa881c
5116867221.0,893cf12b233ffff,23.6903225,90.5460281,"Mama Bhagina Glass & H/W, Madonpur Shopping Complex Madonpur , Bondor, Narayangonj, Bondor - Modonpur Hwy, Bandar 1400",,"Mama Bhagina Glass & H/W Madonpur Shopping Complex Madonpur Bondor Narayangonj Bondor - Modonpur Hwy Bandar 1400, Bandar, Narayanganj District, Dhaka Division, Bangladesh","মামা ভগিনা গ্লাস & এইচ/ডাব্লু ম্যাডনপুর শপিং কমপ্লেক্স ম্যাডনপুর বন্ডোর নারায়ঙ্গঞ্জনজ বন্ডর - মোডনপুর হুই বান্দার 1400, নারায়নগঞ্জ জেলা, নারায়ণগঞ্জ জেলা, ঢাকা বিভাগ, বাংলাদেশ",Bandar,বাংলাদেশ,ঢাকা বিভাগ,local_admin,boundaries,['paint'],[],Bangladesh,Dhaka,Narayanganj,Bandar,Madanpur,e505dfcc6800afc3e8400d0118f39c0c
5117017487.0,893cf1290c7ffff,23.6603884,90.566961,Langolband Bus Stop,,"Langolband Bus Stop, Bandar, Narayanganj District, Dhaka Division, Bangladesh","ল্যাংলব্যান্ড বাস স্টপ, নারায়নগঞ্জ জেলা, নারায়ণগঞ্জ জেলা, ঢাকা বিভাগ, বাংলাদেশ",Bandar,বাংলাদেশ,ঢাকা বিভাগ,street,boundaries,['bus_stop'],[],Bangladesh,Dhaka,Narayanganj,Sonargaon,Sanmandi,5399e4e6a55e79539419dad8d00312fb
5117025765.0,893cf12900bffff,23.6564829,90.5739396,Darikandi Bazar দাড়িকান্দি বাজার,,"Darikandi Bazar, Sonargaon, Narayanganj District, Dhaka Division, Bangladesh","দাড়িকান্দি বাজার, নারায়নগঞ্জ জেলা, নারায়ণগঞ্জ জেলা, ঢাকা বিভাগ, বাংলাদেশ",Sonargaon,বাংলাদেশ,ঢাকা বিভাগ,local_admin,boundaries,['variety_store'],[],Bangladesh,Dhaka,Narayanganj,Sonargaon,Sanmandi,5399e4e6a55e79539419dad8d00312fb
5117079207.0,893cf12939bffff,23.649003,90.5855224,Toyota friends motors টয়োটা বন্ধুদের মোটর,,"Toyota friends motors, Sonargaon, Narayanganj District, Dhaka Division, Bangladesh","টয়োটা বন্ধুদের মোটর, নারায়নগঞ্জ জেলা, নারায়ণগঞ্জ জেলা, ঢাকা বিভাগ, বাংলাদেশ",Sonargaon,বাংলাদেশ,ঢাকা বিভাগ,local_admin,boundaries,['car'],[],Bangladesh,Dhaka,Narayanganj,Sonargaon,SonargaonPaurashava,7aac69e39d07b52ad4ea7497a36ec3f9
5118659877.0,893cf129363ffff,23.6365707,90.5954201,Rajon Mobile Shop রাজন মোবাইল দোকান,,"Rajon Mobile Shop, Sonargaon, Narayanganj District, Dhaka Division, Bangladesh","রাজন মোবাইল দোকান, নারায়নগঞ্জ জেলা, নারায়ণগঞ্জ জেলা, ঢাকা বিভাগ, বাংলাদেশ",Sonargaon,বাংলাদেশ,ঢাকা বিভাগ,local_admin,boundaries,['mobile_phone'],[],Bangladesh,Dhaka,Narayanganj,Sonargaon,SonargaonPaurashava,7aac69e39d07b52ad4ea7497a36ec3f9
5118660111.0,893cf129363ffff,23.6356653,90.5948662,Fastfood Shop,,"Fastfood Shop, Sonargaon, Narayanganj District, Dhaka Division, Bangladesh","ফাস্টফুড শপ, নারায়নগঞ্জ জেলা, নারায়ণগঞ্জ জেলা, ঢাকা বিভাগ, বাংলাদেশ",Sonargaon,বাংলাদেশ,ঢাকা বিভাগ,local_admin,boundaries,['fast_food'],[],Bangladesh,Dhaka,Narayanganj,Sonargaon,SonargaonPaurashava,7aac69e39d07b52ad4ea7497a36ec3f9
5118663811.0,893cf129363ffff,23.6355273,90.5962283,,,"Sonargaon, Narayanganj District, Dhaka Division, Bangladesh","নারায়নগঞ্জ জেলা, নারায়ণগঞ্জ জেলা, ঢাকা বিভাগ, বাংলাদেশ",Sonargaon,বাংলাদেশ,ঢাকা বিভাগ,local_admin,boundaries,['atm'],[],Bangladesh,Dhaka,Narayanganj,Sonargaon,SonargaonPaurashava,7aac69e39d07b52ad4ea7497a36ec3f9
5118670036.0,893cf12936fffff,23.6324089,90.5998185,Chittagong Restaurant & Mama Hotel চট্টগ্রাম রেঁস্তোরা & মামা হোটেলে,,"Chittagong Restaurant & Mama Hotel &, Sonargaon, Narayanganj District, Dhaka Division, Bangladesh","চট্টগ্রাম রেঁস্তোরা মামা হোটেলে, নারায়নগঞ্জ জেলা, নারায়ণগঞ্জ জেলা, ঢাকা বিভাগ, বাংলাদেশ",Sonargaon,বাংলাদেশ,ঢাকা বিভাগ,local_admin,boundaries,['restaurant'],[],Bangladesh,Dhaka,Narayanganj,Sonargaon,Pirijpur,b00c14c426830bccf3757955e9b5d148
5128152782.0,893cf176b23ffff,23.6966627,90.5036033,মাদ্রাসা রোড বাস স্টেশন,"['মাদ্রাসা রোড বাস স্টেশন', 'Madrasha Road Bus Station']","Madrasa Road bus station, Madrasha Road Bus Station, Narayanganj, Narayanganj District, Dhaka Division, Bangladesh","মাদ্রাসা রোড বাস স্টেশন, নারায়নগঞ্জ জেলা, নারায়ণগঞ্জ জেলা, ঢাকা বিভাগ, বাংলাদেশ",Narayanganj,বাংলাদেশ,ঢাকা বিভাগ,street,boundaries,['bus_stop'],[],Bangladesh,Dhaka,Narayanganj,NarayanganjSadar,SiddirganjPaurashava,9f535d2806f71a0a1b89d7dad9aa718b
5128157785.0,893cf176b2fffff,23.6966802,90.5065556,আজমহল চাইনিজ রেস্টুরেন্ট এন্ড কমিউনিটি সেন্টার,"['আজমহল চাইনিজ রেস্টুরেন্ট এন্ড কমিউনিটি সেন্টার', 'ajmahal Chinese Restaurant and Community Center']","Azamhal Chinese Restaurant and Community Center, Narayanganj, Narayanganj District, Dhaka Division, Bangladesh","আজমহল চাইনিজ রেস্টুরেন্ট এন্ড কমিউনিটি সেন্টার, নারায়নগঞ্জ জেলা, নারায়ণগঞ্জ জেলা, ঢাকা বিভাগ, বাংলাদেশ",Narayanganj,বাংলাদেশ,ঢাকা বিভাগ,local_admin,boundaries,['restaurant'],[],Bangladesh,Dhaka,Narayanganj,NarayanganjSadar,SiddirganjPaurashava,9f535d2806f71a0a1b89d7dad9aa718b
5187690775.0,893cf1759a3ffff,23.6238101,90.5002704,Ice Corner,,"Ice Corner, Narayanganj, Narayanganj District, Dhaka Division, Bangladesh","বরফ কর্নার, নারায়নগঞ্জ জেলা, নারায়ণগঞ্জ জেলা, ঢাকা বিভাগ, বাংলাদেশ",Narayanganj,বাংলাদেশ,ঢাকা বিভাগ,local_admin,boundaries,['restaurant'],[],Bangladesh,Dhaka,Narayanganj,NarayanganjSadar,NarayanganjPaurashava,780ea0df78abb5aafb51ed5b251475f2
5187696215.0,893cf1759a3ffff,23.6238299,90.5003567,Sugonda Fast Food,,"Sugonda Fast Food, Narayanganj, Narayanganj District, Dhaka Division, Bangladesh","সুগোন্ডা ফাস্ট ফুড, নারায়নগঞ্জ জেলা, নারায়ণগঞ্জ জেলা, ঢাকা বিভাগ, বাংলাদেশ",Narayanganj,বাংলাদেশ,ঢাকা বিভাগ,local_admin,boundaries,['restaurant'],[],Bangladesh,Dhaka,Narayanganj,NarayanganjSadar,NarayanganjPaurashava,780ea0df78abb5aafb51ed5b251475f2
5187714277.0,893cf1759a3ffff,23.6237206,90.5001909,,,"Narayanganj, Narayanganj District, Dhaka Division, Bangladesh","নারায়নগঞ্জ জেলা, নারায়ণগঞ্জ জেলা, ঢাকা বিভাগ, বাংলাদেশ",Narayanganj,বাংলাদেশ,ঢাকা বিভাগ,local_admin,boundaries,['atm'],[],Bangladesh,Dhaka,Narayanganj,NarayanganjSadar,NarayanganjPaurashava,780ea0df78abb5aafb51ed5b251475f2
5187730434.0,893cf1759a3ffff,23.6232351,90.5004304,Munshiganj iT মুন্সিগঞ্জ আইটি,,"Munshiganj iT, Narayanganj, Narayanganj District, Dhaka Division, Bangladesh","মুন্সিগঞ্জ আইটি, নারায়নগঞ্জ জেলা, নারায়ণগঞ্জ জেলা, ঢাকা বিভাগ, বাংলাদেশ",Narayanganj,বাংলাদেশ,ঢাকা বিভাগ,local_admin,boundaries,['computer'],[],Bangladesh,Dhaka,Narayanganj,NarayanganjSadar,NarayanganjPaurashava,780ea0df78abb5aafb51ed5b251475f2
5187738027.0,893cf1759a3ffff,23.6233956,90.5005524,Bangla News,,"Bangla News, Narayanganj, Narayanganj District, Dhaka Division, Bangladesh","বাংলা খবর, নারায়নগঞ্জ জেলা, নারায়ণগঞ্জ জেলা, ঢাকা বিভাগ, বাংলাদেশ",Narayanganj,বাংলাদেশ,ঢাকা বিভাগ,local_admin,boundaries,['newspaper'],[],Bangladesh,Dhaka,Narayanganj,NarayanganjSadar,NarayanganjPaurashava,780ea0df78abb5aafb51ed5b251475f2
5187738684.0,893cf1759a3ffff,23.6235021,90.5007719,Somobay Market Masjid সমবায় মার্কেট মসজিদ,,"Somobay Market Masjid, Narayanganj, Narayanganj District, Dhaka Division, Bangladesh","সমবায় মার্কেট মসজিদ, নারায়নগঞ্জ জেলা, নারায়ণগঞ্জ জেলা, ঢাকা বিভাগ, বাংলাদেশ",Narayanganj,বাংলাদেশ,ঢাকা বিভাগ,local_admin,boundaries,['place_of_worship_muslim'],[],Bangladesh,Dhaka,Narayanganj,NarayanganjSadar,NarayanganjPaurashava,780ea0df78abb5aafb51ed5b251475f2
5187738767.0,893cf1759a3ffff,23.6234469,90.5007558,AR Computer,,"AR Computer, Narayanganj, Narayanganj District, Dhaka Division, Bangladesh","এআর কম্পিউটার, নারায়নগঞ্জ জেলা, নারায়ণগঞ্জ জেলা, ঢাকা বিভাগ, বাংলাদেশ",Narayanganj,বাংলাদেশ,ঢাকা বিভাগ,local_admin,boundaries,['computer'],[],Bangladesh,Dhaka,Narayanganj,NarayanganjSadar,NarayanganjPaurashava,780ea0df78abb5aafb51ed5b251475f2
5187740407.0,893cf1759a3ffff,23.623152,90.5005314,Symphony Mobile Phone সিম্ফনি মোবাইল ফোন,,"Symphony Mobile Phone, Narayanganj, Narayanganj District, Dhaka Division, Bangladesh","সিম্ফনি মোবাইল ফোন, নারায়নগঞ্জ জেলা, নারায়ণগঞ্জ জেলা, ঢাকা বিভাগ, বাংলাদেশ",Narayanganj,বাংলাদেশ,ঢাকা বিভাগ,local_admin,boundaries,['mobile_phone'],[],Bangladesh,Dhaka,Narayanganj,NarayanganjSadar,NarayanganjPaurashava,780ea0df78abb5aafb51ed5b251475f2
5187742704.0,893cf1759a3ffff,23.6231531,90.5006836,Pacific Fast Food প্যাসিফিক ফাস্ট ফুড,,"Pacific Fast Food, Narayanganj, Narayanganj District, Dhaka Division, Bangladesh","প্যাসিফিক ফাস্ট ফুড, নারায়নগঞ্জ জেলা, নারায়ণগঞ্জ জেলা, ঢাকা বিভাগ, বাংলাদেশ",Narayanganj,বাংলাদেশ,ঢাকা বিভাগ,local_admin,boundaries,['restaurant'],[],Bangladesh,Dhaka,Narayanganj,NarayanganjSadar,NarayanganjPaurashava,780ea0df78abb5aafb51ed5b251475f2
5187750486.0,893cf1759a3ffff,23.6227743,90.5006421,,,"Narayanganj, Narayanganj District, Dhaka Division, Bangladesh","নারায়নগঞ্জ জেলা, নারায়ণগঞ্জ জেলা, ঢাকা বিভাগ, বাংলাদেশ",Narayanganj,বাংলাদেশ,ঢাকা বিভাগ,local_admin,boundaries,['atm'],[],Bangladesh,Dhaka,Narayanganj,NarayanganjSadar,NarayanganjPaurashava,780ea0df78abb5aafb51ed5b251475f2
5187788592.0,893cf1759a3ffff,23.6226827,90.5007089,Fun Club,,"Fun Club, Narayanganj, Narayanganj District, Dhaka Division, Bangladesh","বিনোদন সমিতি, নারায়নগঞ্জ জেলা, নারায়ণগঞ্জ জেলা, ঢাকা বিভাগ, বাংলাদেশ",Narayanganj,বাংলাদেশ,ঢাকা বিভাগ,local_admin,boundaries,['restaurant'],[],Bangladesh,Dhaka,Narayanganj,NarayanganjSadar,NarayanganjPaurashava,780ea0df78abb5aafb51ed5b251475f2
5187800499.0,893cf1759a3ffff,23.6224089,90.5008418,Cafe 16,,"Cafe 16, Narayanganj, Narayanganj District, Dhaka Division, Bangladesh","ক্যাফে 16, নারায়নগঞ্জ জেলা, নারায়ণগঞ্জ জেলা, ঢাকা বিভাগ, বাংলাদেশ",Narayanganj,বাংলাদেশ,ঢাকা বিভাগ,local_admin,boundaries,['cafe'],[],Bangladesh,Dhaka,Narayanganj,NarayanganjSadar,NarayanganjPaurashava,780ea0df78abb5aafb51ed5b251475f2
5187822957.0,893cf1759a3ffff,23.6223004,90.5008788,CoffeeKing cafe কফি কিং ক্যাফে,,"CoffeeKing cafe, Narayanganj, Narayanganj District, Dhaka Division, Bangladesh","কফি কিং ক্যাফে, নারায়নগঞ্জ জেলা, নারায়ণগঞ্জ জেলা, ঢাকা বিভাগ, বাংলাদেশ",Narayanganj,বাংলাদেশ,ঢাকা বিভাগ,local_admin,boundaries,['restaurant'],[],Bangladesh,Dhaka,Narayanganj,NarayanganjSadar,NarayanganjPaurashava,780ea0df78abb5aafb51ed5b251475f2
5187823979.0,893cf1759a3ffff,23.622258,90.5008851,Banquet Chinese Restaurant,,"Banquet Chinese Restaurant, Narayanganj, Narayanganj District, Dhaka Division, Bangladesh","বনভোজন চাইনিজ রেস্তোঁরা, নারায়নগঞ্জ জেলা, নারায়ণগঞ্জ জেলা, ঢাকা বিভাগ, বাংলাদেশ",Narayanganj,বাংলাদেশ,ঢাকা বিভাগ,local_admin,boundaries,['restaurant'],[],Bangladesh,Dhaka,Narayanganj,NarayanganjSadar,NarayanganjPaurashava,780ea0df78abb5aafb51ed5b251475f2
5187824061.0,893cf1759afffff,23.621269,90.50102,zakir super market জাকির সুপার মার্কেট,,"zakir super market, Narayanganj, Narayanganj District, Dhaka Division, Bangladesh","জাকির সুপার মার্কেট, নারায়নগঞ্জ জেলা, নারায়ণগঞ্জ জেলা, ঢাকা বিভাগ, বাংলাদেশ",Narayanganj,বাংলাদেশ,ঢাকা বিভাগ,local_admin,boundaries,['electronics'],[],Bangladesh,Dhaka,Narayanganj,NarayanganjSadar,NarayanganjPaurashava,780ea0df78abb5aafb51ed5b251475f2
5187825943.0,893cf1759afffff,23.6219647,90.5010423,Mukti General Hospital মুক্তি জেনারেল হাসপাতাল লিঃ,,"Mukti General Hospital, Narayanganj, Narayanganj District, Dhaka Division, Bangladesh","মুক্তি জেনারেল হাসপাতাল লিঃ, নারায়নগঞ্জ জেলা, নারায়ণগঞ্জ জেলা, ঢাকা বিভাগ, বাংলাদেশ",Narayanganj,বাংলাদেশ,ঢাকা বিভাগ,local_admin,boundaries,['hospital'],[],Bangladesh,Dhaka,Narayanganj,NarayanganjSadar,NarayanganjPaurashava,780ea0df78abb5aafb51ed5b251475f2
5188285923.0,893cf1759afffff,23.6202188,90.5011795,GrameenPhone Center গ্রামীণফোন সেন্টার,,"GrameenPhone Center, Narayanganj, Narayanganj District, Dhaka Division, Bangladesh","গ্রামীণফোন সেন্টার, নারায়নগঞ্জ জেলা, নারায়ণগঞ্জ জেলা, ঢাকা বিভাগ, বাংলাদেশ",Narayanganj,বাংলাদেশ,ঢাকা বিভাগ,local_admin,boundaries,['mobile_phone'],[],Bangladesh,Dhaka,Narayanganj,NarayanganjSadar,NarayanganjPaurashava,780ea0df78abb5aafb51ed5b251475f2
5189819509.0,893cf1759afffff,23.6200611,90.5014666,Nabiganj money exchange নবীগঞ্জে টাকা বিনিময়,,"Nabiganj money exchange, Narayanganj, Narayanganj District, Dhaka Division, Bangladesh","নবীগঞ্জে টাকা বিনিময়, নারায়নগঞ্জ জেলা, নারায়ণগঞ্জ জেলা, ঢাকা বিভাগ, বাংলাদেশ",Narayanganj,বাংলাদেশ,ঢাকা বিভাগ,local_admin,boundaries,['currencyexchange'],[],Bangladesh,Dhaka,Narayanganj,NarayanganjSadar,NarayanganjPaurashava,780ea0df78abb5aafb51ed5b251475f2
5189820260.0,893cf175933ffff,23.6198418,90.5012365,Alam Cabin আলম কেবিন,,"Alam Cabin, Narayanganj, Narayanganj District, Dhaka Division, Bangladesh","আলম কেবিন, নারায়নগঞ্জ জেলা, নারায়ণগঞ্জ জেলা, ঢাকা বিভাগ, বাংলাদেশ",Narayanganj,বাংলাদেশ,ঢাকা বিভাগ,local_admin,boundaries,['restaurant'],[],Bangladesh,Dhaka,Narayanganj,NarayanganjSadar,NarayanganjPaurashava,780ea0df78abb5aafb51ed5b251475f2
5190284915.0,893cf175933ffff,23.6194059,90.5012907,Anondo Food আনন্দ ফুড,,"Anondo Food, Narayanganj, Narayanganj District, Dhaka Division, Bangladesh","আনন্দ ফুড, নারায়নগঞ্জ জেলা, নারায়ণগঞ্জ জেলা, ঢাকা বিভাগ, বাংলাদেশ",Narayanganj,বাংলাদেশ,ঢাকা বিভাগ,local_admin,boundaries,['restaurant'],[],Bangladesh,Dhaka,Narayanganj,NarayanganjSadar,NarayanganjPaurashava,780ea0df78abb5aafb51ed5b251475f2
5190289861.0,893cf175933ffff,23.6191588,90.5012748,পুরাতন কোট ব্যাংক মোড় বাস স্টপ,['Puratan Court Bank Mor Bus Stop'],"Old coat bank twist bus stop, Puratan Court Bank Mor Bus Stop, Narayanganj, Narayanganj District, Dhaka Division, Bangladesh","পুরাতন কোট ব্যাংক মোড় বাস স্টপ, নারায়নগঞ্জ জেলা, নারায়ণগঞ্জ জেলা, ঢাকা বিভাগ, বাংলাদেশ",Narayanganj,বাংলাদেশ,ঢাকা বিভাগ,street,boundaries,['bus_stop'],[],Bangladesh,Dhaka,Narayanganj,NarayanganjSadar,NarayanganjPaurashava,780ea0df78abb5aafb51ed5b251475f2
5190307220.0,893cf175933ffff,23.6193193,90.5014504,,,"Narayanganj, Narayanganj District, Dhaka Division, Bangladesh","নারায়নগঞ্জ জেলা, নারায়ণগঞ্জ জেলা, ঢাকা বিভাগ, বাংলাদেশ",Narayanganj,বাংলাদেশ,ঢাকা বিভাগ,local_admin,boundaries,['atm'],[],Bangladesh,Dhaka,Narayanganj,NarayanganjSadar,NarayanganjPaurashava,780ea0df78abb5aafb51ed5b251475f2
5190325265.0,893cf175937ffff,23.6191833,90.5038986,Kazi Fabrics কাজী ফেব্রিক্স,,"Kazi Fabrics, Narayanganj, Narayanganj District, Dhaka Division, Bangladesh","কাজী ফেব্রিক্স, নারায়নগঞ্জ জেলা, নারায়ণগঞ্জ জেলা, ঢাকা বিভাগ, বাংলাদেশ",Narayanganj,বাংলাদেশ,ঢাকা বিভাগ,local_admin,boundaries,['clothes'],[],Bangladesh,Dhaka,Narayanganj,NarayanganjSadar,NarayanganjPaurashava,780ea0df78abb5aafb51ed5b251475f2
5190368061.0,893cf175933ffff,23.619583,90.5024926,Gurodeb Store,,"Gurodeb Store, Narayanganj, Narayanganj District, Dhaka Division, Bangladesh","গুরোদেব স্টোর, নারায়নগঞ্জ জেলা, নারায়ণগঞ্জ জেলা, ঢাকা বিভাগ, বাংলাদেশ",Narayanganj,বাংলাদেশ,ঢাকা বিভাগ,local_admin,boundaries,['mall'],[],Bangladesh,Dhaka,Narayanganj,NarayanganjSadar,NarayanganjPaurashava,780ea0df78abb5aafb51ed5b251475f2
5190394143.0,893cf175937ffff,23.6186794,90.5040401,Narayanganj Post Office নারায়নগঞ্জ ডাকঘর,,"Narayanganj Post Office, Narayanganj, Narayanganj District, Dhaka Division, Bangladesh","নারায়নগঞ্জ ডাকঘর, নারায়নগঞ্জ জেলা, নারায়ণগঞ্জ জেলা, ঢাকা বিভাগ, বাংলাদেশ",Narayanganj,বাংলাদেশ,ঢাকা বিভাগ,local_admin,boundaries,['post_office'],[],Bangladesh,Dhaka,Narayanganj,NarayanganjSadar,NarayanganjPaurashava,780ea0df78abb5aafb51ed5b251475f2
5190399213.0,893cf175933ffff,23.6186281,90.5013922,,,"Narayanganj, Narayanganj District, Dhaka Division, Bangladesh","নারায়নগঞ্জ জেলা, নারায়ণগঞ্জ জেলা, ঢাকা বিভাগ, বাংলাদেশ",Narayanganj,বাংলাদেশ,ঢাকা বিভাগ,local_admin,boundaries,['atm'],[],Bangladesh,Dhaka,Narayanganj,NarayanganjSadar,NarayanganjPaurashava,780ea0df78abb5aafb51ed5b251475f2
5190527104.0,893cf175933ffff,23.6176417,90.5011677,ইউনিয়ন ব্য্ংক লিমিটেড;Marcel Electronics মার্সেল ইলেক্ট্রনিক্স,['Union Bank'],"Marcel Electronics, Narayanganj, Narayanganj District, Dhaka Division, Bangladesh","ইউনিয়ন ব্য্ংক লিমিটেড মার্সেল ইলেক্ট্রনিক্স, নারায়নগঞ্জ জেলা, নারায়ণগঞ্জ জেলা, ঢাকা বিভাগ, বাংলাদেশ",Narayanganj,বাংলাদেশ,ঢাকা বিভাগ,local_admin,boundaries,"['bank', 'electronics']",[],Bangladesh,Dhaka,Narayanganj,NarayanganjSadar,NarayanganjPaurashava,780ea0df78abb5aafb51ed5b251475f2
5195261406.0,893cf175933ffff,23.6176165,90.5011964,Grameen Mishtanno Bhandar গ্রামীন মিষ্টান্ন ভান্ডার,,"Grameen Mishtanno Bhandar, Narayanganj, Narayanganj District, Dhaka Division, Bangladesh","গ্রামীন মিষ্টান্ন ভান্ডার, নারায়নগঞ্জ জেলা, নারায়ণগঞ্জ জেলা, ঢাকা বিভাগ, বাংলাদেশ",Narayanganj,বাংলাদেশ,ঢাকা বিভাগ,local_admin,boundaries,['restaurant'],[],Bangladesh,Dhaka,Narayanganj,NarayanganjSadar,NarayanganjPaurashava,780ea0df78abb5aafb51ed5b251475f2
5195266600.0,893cf175933ffff,23.6165816,90.5019145,HAFEZ TEXTILE হাফেজ টেক্সটাইল,,"HAFEZ TEXTILE, Narayanganj, Narayanganj District, Dhaka Division, Bangladesh","হাফেজ টেক্সটাইল, নারায়নগঞ্জ জেলা, নারায়ণগঞ্জ জেলা, ঢাকা বিভাগ, বাংলাদেশ",Narayanganj,বাংলাদেশ,ঢাকা বিভাগ,local_admin,boundaries,['clothes'],[],Bangladesh,Dhaka,Narayanganj,NarayanganjSadar,NarayanganjPaurashava,780ea0df78abb5aafb51ed5b251475f2
5195270715.0,893cf175933ffff,23.6182597,90.5014881,Ananda Restaurant - 2 আনন্দ রেস্তোরা - ২,,"Ananda Restaurant - 2 -, Narayanganj, Narayanganj District, Dhaka Division, Bangladesh","আনন্দ রেস্তোরা ২, নারায়নগঞ্জ জেলা, নারায়ণগঞ্জ জেলা, ঢাকা বিভাগ, বাংলাদেশ",Narayanganj,বাংলাদেশ,ঢাকা বিভাগ,local_admin,boundaries,['restaurant'],[],Bangladesh,Dhaka,Narayanganj,NarayanganjSadar,NarayanganjPaurashava,780ea0df78abb5aafb51ed5b251475f2
5195276989.0,893cf17593bffff,23.6158367,90.5017844,2 No Railgate Bus Stop ২ নং রেল গেইট বাস স্ট্যান্ড,,"2 No Railgate Bus Stop, Narayanganj, Narayanganj District, Dhaka Division, Bangladesh","২ নং রেল গেইট বাস স্ট্যান্ড, নারায়নগঞ্জ জেলা, নারায়ণগঞ্জ জেলা, ঢাকা বিভাগ, বাংলাদেশ",Narayanganj,বাংলাদেশ,ঢাকা বিভাগ,street,boundaries,['bus_stop'],[],Bangladesh,Dhaka,Narayanganj,NarayanganjSadar,NarayanganjPaurashava,780ea0df78abb5aafb51ed5b251475f2
5195277276.0,893cf17593bffff,23.6160681,90.5017403,Jennys,,"Jennys, Narayanganj, Narayanganj District, Dhaka Division, Bangladesh","জেনিস, নারায়নগঞ্জ জেলা, নারায়ণগঞ্জ জেলা, ঢাকা বিভাগ, বাংলাদেশ",Narayanganj,বাংলাদেশ,ঢাকা বিভাগ,local_admin,boundaries,['shoes'],[],Bangladesh,Dhaka,Narayanganj,NarayanganjSadar,NarayanganjPaurashava,780ea0df78abb5aafb51ed5b251475f2
5195284020.0,893cf175933ffff,23.6171111,90.5017799,ইস্টার্ন ব্যাংক লিমিটেড,['Eastern Bank Limited'],"Eastern Bank Limited, Narayanganj, Narayanganj District, Dhaka Division, Bangladesh","ইস্টার্ন ব্যাংক লিমিটেড, নারায়নগঞ্জ জেলা, নারায়ণগঞ্জ জেলা, ঢাকা বিভাগ, বাংলাদেশ",Narayanganj,বাংলাদেশ,ঢাকা বিভাগ,local_admin,boundaries,['bank'],[],Bangladesh,Dhaka,Narayanganj,NarayanganjSadar,NarayanganjPaurashava,780ea0df78abb5aafb51ed5b251475f2
5195285250.0,893cf175933ffff,23.6171052,90.5025276,Mofiz Market মফিজ বাজার,,"Mofiz Market, Narayanganj, Narayanganj District, Dhaka Division, Bangladesh","মফিজ বাজার, নারায়নগঞ্জ জেলা, নারায়ণগঞ্জ জেলা, ঢাকা বিভাগ, বাংলাদেশ",Narayanganj,বাংলাদেশ,ঢাকা বিভাগ,local_admin,boundaries,['marketplace'],[],Bangladesh,Dhaka,Narayanganj,NarayanganjSadar,NarayanganjPaurashava,780ea0df78abb5aafb51ed5b251475f2
5195285521.0,893cf175933ffff,23.6169376,90.5015993,,,"Narayanganj, Narayanganj District, Dhaka Division, Bangladesh","নারায়নগঞ্জ জেলা, নারায়ণগঞ্জ জেলা, ঢাকা বিভাগ, বাংলাদেশ",Narayanganj,বাংলাদেশ,ঢাকা বিভাগ,local_admin,boundaries,['atm'],[],Bangladesh,Dhaka,Narayanganj,NarayanganjSadar,NarayanganjPaurashava,780ea0df78abb5aafb51ed5b251475f2
5195295160.0,893cf17593bffff,23.6156772,90.5018395,ফিরে দেখা ৭১ স্তম্ভ,,"Looking back, the pillar, Narayanganj, Narayanganj District, Dhaka Division, Bangladesh","ফিরে দেখা ৭১ স্তম্ভ, নারায়নগঞ্জ জেলা, নারায়ণগঞ্জ জেলা, ঢাকা বিভাগ, বাংলাদেশ",Narayanganj,বাংলাদেশ,ঢাকা বিভাগ,local_admin,boundaries,['monument'],[],Bangladesh,Dhaka,Narayanganj,NarayanganjSadar,NarayanganjPaurashava,780ea0df78abb5aafb51ed5b251475f2
5195298166.0,893cf17593bffff,23.6156706,90.5022737,Anada Bekary & Restaurant,,"Anada Bekary & Restaurant, Narayanganj, Narayanganj District, Dhaka Division, Bangladesh","আনন্দ বেকারি ও রেস্তোঁরা, নারায়নগঞ্জ জেলা, নারায়ণগঞ্জ জেলা, ঢাকা বিভাগ, বাংলাদেশ",Narayanganj,বাংলাদেশ,ঢাকা বিভাগ,local_admin,boundaries,['restaurant'],[],Bangladesh,Dhaka,Narayanganj,NarayanganjSadar,NarayanganjPaurashava,780ea0df78abb5aafb51ed5b251475f2
5195303081.0,893cf175923ffff,23.6158792,90.5033443,Confectionari Corner,,"Confectionari Corner, Narayanganj, Narayanganj District, Dhaka Division, Bangladesh","কনফেকশনারি কর্নার, নারায়নগঞ্জ জেলা, নারায়ণগঞ্জ জেলা, ঢাকা বিভাগ, বাংলাদেশ",Narayanganj,বাংলাদেশ,ঢাকা বিভাগ,local_admin,boundaries,['restaurant'],[],Bangladesh,Dhaka,Narayanganj,NarayanganjSadar,NarayanganjPaurashava,780ea0df78abb5aafb51ed5b251475f2
5195308460.0,893cf175923ffff,23.6160103,90.5040711,Shaheen Telecom শাহিন টেলিকম,,"Shaheen Telecom, Narayanganj, Narayanganj District, Dhaka Division, Bangladesh","শাহিন টেলিকম, নারায়নগঞ্জ জেলা, নারায়ণগঞ্জ জেলা, ঢাকা বিভাগ, বাংলাদেশ",Narayanganj,বাংলাদেশ,ঢাকা বিভাগ,local_admin,boundaries,['mobile_phone'],[],Bangladesh,Dhaka,Narayanganj,NarayanganjSadar,NarayanganjPaurashava,780ea0df78abb5aafb51ed5b251475f2
5195317618.0,893cf17593bffff,23.615078,90.5016803,Binodon Super Market,,"Binodon Super Market, Narayanganj, Narayanganj District, Dhaka Division, Bangladesh","বিনডন সুপার মার্কেট, নারায়নগঞ্জ জেলা, নারায়ণগঞ্জ জেলা, ঢাকা বিভাগ, বাংলাদেশ",Narayanganj,বাংলাদেশ,ঢাকা বিভাগ,local_admin,boundaries,['supermarket'],[],Bangladesh,Dhaka,Narayanganj,NarayanganjSadar,NarayanganjPaurashava,780ea0df78abb5aafb51ed5b251475f2
5195317838.0,893cf17593bffff,23.615373,90.5016103,Sugondha Laschi,,"Sugondha Laschi, Narayanganj, Narayanganj District, Dhaka Division, Bangladesh","সুগন্ডা লাসচি, নারায়নগঞ্জ জেলা, নারায়ণগঞ্জ জেলা, ঢাকা বিভাগ, বাংলাদেশ",Narayanganj,বাংলাদেশ,ঢাকা বিভাগ,local_admin,boundaries,['restaurant'],[],Bangladesh,Dhaka,Narayanganj,NarayanganjSadar,NarayanganjPaurashava,780ea0df78abb5aafb51ed5b251475f2
5195317877.0,893cf17593bffff,23.614097,90.501869,,,"Narayanganj, Narayanganj District, Dhaka Division, Bangladesh","নারায়নগঞ্জ জেলা, নারায়ণগঞ্জ জেলা, ঢাকা বিভাগ, বাংলাদেশ",Narayanganj,বাংলাদেশ,ঢাকা বিভাগ,local_admin,boundaries,['atm'],[],Bangladesh,Dhaka,Narayanganj,NarayanganjSadar,NarayanganjPaurashava,780ea0df78abb5aafb51ed5b251475f2
5195318195.0,893cf17593bffff,23.615223,90.5016601,Chittagonj Bekary 2,,"Chittagonj Bekary 2, Narayanganj, Narayanganj District, Dhaka Division, Bangladesh","চট্টগ্রাম বেকারি 2, নারায়নগঞ্জ জেলা, নারায়ণগঞ্জ জেলা, ঢাকা বিভাগ, বাংলাদেশ",Narayanganj,বাংলাদেশ,ঢাকা বিভাগ,local_admin,boundaries,['bakery'],[],Bangladesh,Dhaka,Narayanganj,NarayanganjSadar,NarayanganjPaurashava,780ea0df78abb5aafb51ed5b251475f2
5195319471.0,893cf17593bffff,23.6142594,90.5011656,Hridom Plaza,,"Hridom Plaza, Narayanganj, Narayanganj District, Dhaka Division, Bangladesh","হিডম প্লাজা, নারায়নগঞ্জ জেলা, নারায়ণগঞ্জ জেলা, ঢাকা বিভাগ, বাংলাদেশ",Narayanganj,বাংলাদেশ,ঢাকা বিভাগ,local_admin,boundaries,['mall'],[],Bangladesh,Dhaka,Narayanganj,NarayanganjSadar,NarayanganjPaurashava,780ea0df78abb5aafb51ed5b251475f2
5195325543.0,893cf17593bffff,23.6148078,90.502026,Gulsan Market গুলশান মার্কেট,,"Gulsan Market, Narayanganj, Narayanganj District, Dhaka Division, Bangladesh","গুলশান মার্কেট, নারায়নগঞ্জ জেলা, নারায়ণগঞ্জ জেলা, ঢাকা বিভাগ, বাংলাদেশ",Narayanganj,বাংলাদেশ,ঢাকা বিভাগ,local_admin,boundaries,['marketplace'],[],Bangladesh,Dhaka,Narayanganj,NarayanganjSadar,NarayanganjPaurashava,780ea0df78abb5aafb51ed5b251475f2
5195367103.0,893cf175967ffff,23.6109251,90.5023207,Mondol Para Bus Stop মন্ডলপাড়া বাস স্টপ,,"Mondol Para Bus Stop, Narayanganj, Narayanganj District, Dhaka Division, Bangladesh","মন্ডলপাড়া বাস স্টপ, নারায়নগঞ্জ জেলা, নারায়ণগঞ্জ জেলা, ঢাকা বিভাগ, বাংলাদেশ",Narayanganj,বাংলাদেশ,ঢাকা বিভাগ,street,boundaries,['bus_stop'],[],Bangladesh,Dhaka,Narayanganj,NarayanganjSadar,NarayanganjPaurashava,780ea0df78abb5aafb51ed5b251475f2
5195367394.0,893cf175967ffff,23.6107321,90.5017073,Mother Restaurants মা রেস্তোঁরা,,"Mother Restaurants, Narayanganj, Narayanganj District, Dhaka Division, Bangladesh","মা রেস্তোঁরা, নারায়নগঞ্জ জেলা, নারায়ণগঞ্জ জেলা, ঢাকা বিভাগ, বাংলাদেশ",Narayanganj,বাংলাদেশ,ঢাকা বিভাগ,local_admin,boundaries,['restaurant'],[],Bangladesh,Dhaka,Narayanganj,NarayanganjSadar,NarayanganjPaurashava,780ea0df78abb5aafb51ed5b251475f2
5195375338.0,893cf17596fffff,23.6066054,90.5026995,,,"Narayanganj, Narayanganj District, Dhaka Division, Bangladesh","নারায়নগঞ্জ জেলা, নারায়ণগঞ্জ জেলা, ঢাকা বিভাগ, বাংলাদেশ",Narayanganj,বাংলাদেশ,ঢাকা বিভাগ,local_admin,boundaries,['atm'],[],Bangladesh,Dhaka,Narayanganj,NarayanganjSadar,NarayanganjPaurashava,780ea0df78abb5aafb51ed5b251475f2
5195380375.0,893cf175967ffff,23.6096922,90.502703,অগ্রণী ব্যাংক লিমিটেড,['Agrani Bank Limited'],"Agrani Bank Limited, Narayanganj, Narayanganj District, Dhaka Division, Bangladesh","অগ্রণী ব্যাংক লিমিটেড, নারায়নগঞ্জ জেলা, নারায়ণগঞ্জ জেলা, ঢাকা বিভাগ, বাংলাদেশ",Narayanganj,বাংলাদেশ,ঢাকা বিভাগ,local_admin,boundaries,['bank'],[],Bangladesh,Dhaka,Narayanganj,NarayanganjSadar,NarayanganjPaurashava,780ea0df78abb5aafb51ed5b251475f2
5195386974.0,893cf17596fffff,23.6063946,90.5029005,Singer Plus সিঙ্গার প্লাস,,"Singer Plus, Narayanganj, Narayanganj District, Dhaka Division, Bangladesh","সিঙ্গার প্লাস, নারায়নগঞ্জ জেলা, নারায়ণগঞ্জ জেলা, ঢাকা বিভাগ, বাংলাদেশ",Narayanganj,বাংলাদেশ,ঢাকা বিভাগ,local_admin,boundaries,['electronics'],[],Bangladesh,Dhaka,Narayanganj,NarayanganjSadar,NarayanganjPaurashava,780ea0df78abb5aafb51ed5b251475f2
5195388236.0,893cf17596fffff,23.6062754,90.5029644,Netaiganj Moor Bus Stop,,"Netaiganj Moor Bus Stop, Narayanganj, Narayanganj District, Dhaka Division, Bangladesh","নেতাইগানজ মুর বাস স্টপ, নারায়নগঞ্জ জেলা, নারায়ণগঞ্জ জেলা, ঢাকা বিভাগ, বাংলাদেশ",Narayanganj,বাংলাদেশ,ঢাকা বিভাগ,street,boundaries,['bus_stop'],[],Bangladesh,Dhaka,Narayanganj,NarayanganjSadar,NarayanganjPaurashava,780ea0df78abb5aafb51ed5b251475f2
5195390918.0,893cf175923ffff,23.6148563,90.5045452,,,"Narayanganj, Narayanganj District, Dhaka Division, Bangladesh","নারায়নগঞ্জ জেলা, নারায়ণগঞ্জ জেলা, ঢাকা বিভাগ, বাংলাদেশ",Narayanganj,বাংলাদেশ,ঢাকা বিভাগ,local_admin,boundaries,['atm'],[],Bangladesh,Dhaka,Narayanganj,NarayanganjSadar,NarayanganjPaurashava,780ea0df78abb5aafb51ed5b251475f2
5195391194.0,893cf166693ffff,23.6107739,90.5044248,Al Jainal Jewelry Plaza অলংকার প্লাজা,,"Al Jainal Jewelry Plaza, Narayanganj, Narayanganj District, Dhaka Division, Bangladesh","অলংকার প্লাজা, নারায়নগঞ্জ জেলা, নারায়ণগঞ্জ জেলা, ঢাকা বিভাগ, বাংলাদেশ",Narayanganj,বাংলাদেশ,ঢাকা বিভাগ,local_admin,boundaries,['jewelry'],[],Bangladesh,Dhaka,Narayanganj,NarayanganjSadar,NarayanganjPaurashava,780ea0df78abb5aafb51ed5b251475f2
5195391382.0,893cf166693ffff,23.6106997,90.5046191,Silviya restaurant,,"Silviya restaurant, Narayanganj, Narayanganj District, Dhaka Division, Bangladesh","সিলভিয়া রেস্তোঁরা, নারায়নগঞ্জ জেলা, নারায়ণগঞ্জ জেলা, ঢাকা বিভাগ, বাংলাদেশ",Narayanganj,বাংলাদেশ,ঢাকা বিভাগ,local_admin,boundaries,['restaurant'],[],Bangladesh,Dhaka,Narayanganj,NarayanganjSadar,NarayanganjPaurashava,780ea0df78abb5aafb51ed5b251475f2
5195394808.0,893cf166693ffff,23.6105601,90.5044516,Orpar Sweater Ltd,,"Orpar Sweater Ltd, Narayanganj, Narayanganj District, Dhaka Division, Bangladesh","অর্পার সোয়েটার লিমিটেড, নারায়নগঞ্জ জেলা, নারায়ণগঞ্জ জেলা, ঢাকা বিভাগ, বাংলাদেশ",Narayanganj,বাংলাদেশ,ঢাকা বিভাগ,local_admin,boundaries,['clothes'],[],Bangladesh,Dhaka,Narayanganj,NarayanganjSadar,NarayanganjPaurashava,780ea0df78abb5aafb51ed5b251475f2
5195394814.0,893cf166693ffff,23.61059,90.5046267,Mokter jewellers,,"Mokter jewellers, Narayanganj, Narayanganj District, Dhaka Division, Bangladesh","মোকার জুয়েলার্স, নারায়নগঞ্জ জেলা, নারায়ণগঞ্জ জেলা, ঢাকা বিভাগ, বাংলাদেশ",Narayanganj,বাংলাদেশ,ঢাকা বিভাগ,local_admin,boundaries,['jewelry'],[],Bangladesh,Dhaka,Narayanganj,NarayanganjSadar,NarayanganjPaurashava,780ea0df78abb5aafb51ed5b251475f2
5195395040.0,893cf166693ffff,23.6106842,90.5044207,Mitu Jeweler মিতু গহণা,,"Mitu Jeweler, Narayanganj, Narayanganj District, Dhaka Division, Bangladesh","মিতু গহণা, নারায়নগঞ্জ জেলা, নারায়ণগঞ্জ জেলা, ঢাকা বিভাগ, বাংলাদেশ",Narayanganj,বাংলাদেশ,ঢাকা বিভাগ,local_admin,boundaries,['jewelry'],[],Bangladesh,Dhaka,Narayanganj,NarayanganjSadar,NarayanganjPaurashava,780ea0df78abb5aafb51ed5b251475f2
5195400143.0,893cf166693ffff,23.6111205,90.5046442,,,"Narayanganj, Narayanganj District, Dhaka Division, Bangladesh","নারায়নগঞ্জ জেলা, নারায়ণগঞ্জ জেলা, ঢাকা বিভাগ, বাংলাদেশ",Narayanganj,বাংলাদেশ,ঢাকা বিভাগ,local_admin,boundaries,['atm'],[],Bangladesh,Dhaka,Narayanganj,NarayanganjSadar,NarayanganjPaurashava,780ea0df78abb5aafb51ed5b251475f2
5195400211.0,893cf17592bffff,23.6133011,90.5045695,,,"Narayanganj, Narayanganj District, Dhaka Division, Bangladesh","নারায়নগঞ্জ জেলা, নারায়ণগঞ্জ জেলা, ঢাকা বিভাগ, বাংলাদেশ",Narayanganj,বাংলাদেশ,ঢাকা বিভাগ,local_admin,boundaries,['atm'],[],Bangladesh,Dhaka,Narayanganj,NarayanganjSadar,NarayanganjPaurashava,780ea0df78abb5aafb51ed5b251475f2
5195400215.0,893cf17592bffff,23.6141501,90.5043806,প্রাইম ব্যাংক লিমিটেড,['Prime Bank Limited'],"Prime Bank Limited, Narayanganj, Narayanganj District, Dhaka Division, Bangladesh","প্রাইম ব্যাংক লিমিটেড, নারায়নগঞ্জ জেলা, নারায়ণগঞ্জ জেলা, ঢাকা বিভাগ, বাংলাদেশ",Narayanganj,বাংলাদেশ,ঢাকা বিভাগ,local_admin,boundaries,['bank'],[],Bangladesh,Dhaka,Narayanganj,NarayanganjSadar,NarayanganjPaurashava,780ea0df78abb5aafb51ed5b251475f2
5195409379.0,893cf175923ffff,23.6146831,90.5041649,Mosjid Market মসজিদ মার্কেট,,"Mosjid Market, Narayanganj, Narayanganj District, Dhaka Division, Bangladesh","মসজিদ মার্কেট, নারায়নগঞ্জ জেলা, নারায়ণগঞ্জ জেলা, ঢাকা বিভাগ, বাংলাদেশ",Narayanganj,বাংলাদেশ,ঢাকা বিভাগ,local_admin,boundaries,['clothes'],[],Bangladesh,Dhaka,Narayanganj,NarayanganjSadar,NarayanganjPaurashava,780ea0df78abb5aafb51ed5b251475f2
5195414426.0,893cf175923ffff,23.6148158,90.5043374,,,"Narayanganj, Narayanganj District, Dhaka Division, Bangladesh","নারায়নগঞ্জ জেলা, নারায়ণগঞ্জ জেলা, ঢাকা বিভাগ, বাংলাদেশ",Narayanganj,বাংলাদেশ,ঢাকা বিভাগ,local_admin,boundaries,['atm'],[],Bangladesh,Dhaka,Narayanganj,NarayanganjSadar,NarayanganjPaurashava,780ea0df78abb5aafb51ed5b251475f2
5195415660.0,893cf175923ffff,23.6149673,90.5043476,Al-Joynal Plaza আল-জয়নাল প্লাজা,,"Al-Joynal Plaza, Narayanganj, Narayanganj District, Dhaka Division, Bangladesh","আল-জয়নাল প্লাজা, নারায়নগঞ্জ জেলা, নারায়ণগঞ্জ জেলা, ঢাকা বিভাগ, বাংলাদেশ",Narayanganj,বাংলাদেশ,ঢাকা বিভাগ,local_admin,boundaries,['mall'],[],Bangladesh,Dhaka,Narayanganj,NarayanganjSadar,NarayanganjPaurashava,780ea0df78abb5aafb51ed5b251475f2
5195480698.0,893cf175923ffff,23.6160273,90.5052813,Symphony Outlet Store,,"Symphony Outlet Store, Narayanganj, Narayanganj District, Dhaka Division, Bangladesh","সিম্ফনি আউটলেট স্টোর, নারায়নগঞ্জ জেলা, নারায়ণগঞ্জ জেলা, ঢাকা বিভাগ, বাংলাদেশ",Narayanganj,বাংলাদেশ,ঢাকা বিভাগ,local_admin,boundaries,['mobile_phone'],[],Bangladesh,Dhaka,Narayanganj,NarayanganjSadar,NarayanganjPaurashava,780ea0df78abb5aafb51ed5b251475f2
5195481519.0,893cf175923ffff,23.6167095,90.5052962,Narayanganj Bus Stand,,"Narayanganj Bus Stand, Narayanganj, Narayanganj District, Dhaka Division, Bangladesh","নারায়ঙ্গঞ্জ বাস স্ট্যান্ড, নারায়নগঞ্জ জেলা, নারায়ণগঞ্জ জেলা, ঢাকা বিভাগ, বাংলাদেশ",Narayanganj,বাংলাদেশ,ঢাকা বিভাগ,street,boundaries,['bus_stop'],[],Bangladesh,Dhaka,Narayanganj,NarayanganjSadar,NarayanganjPaurashava,780ea0df78abb5aafb51ed5b251475f2
5195605992.0,893cf16752bffff,23.5752313,90.5149282,Akiz Match Factory Ltd. আকিজ ম্যাচ ফ্যাক্টরি,,"Akiz Match Factory Ltd., Munshiganj, Munshiganj District, Dhaka Division, Bangladesh","আকিজ ম্যাচ ফ্যাক্টরি, মুন্সিগঞ্জ জেলা, ঢাকা বিভাগ, বাংলাদেশ",Munshiganj,বাংলাদেশ,ঢাকা বিভাগ,local_admin,boundaries,['pharmacy'],[],Bangladesh,Dhaka,Narayanganj,NarayanganjSadar,NarayanganjPaurashava,780ea0df78abb5aafb51ed5b251475f2
5195645326.0,893cf16753bffff,23.5785182,90.5121779,,,"Munshiganj, Munshiganj District, Dhaka Division, Bangladesh","মুন্সিগঞ্জ জেলা, ঢাকা বিভাগ, বাংলাদেশ",Munshiganj,বাংলাদেশ,ঢাকা বিভাগ,local_admin,boundaries,['atm'],[],Bangladesh,Dhaka,Narayanganj,NarayanganjSadar,NarayanganjPaurashava,780ea0df78abb5aafb51ed5b251475f2
5195648729.0,893cf167507ffff,23.5794414,90.5102641,,,"Narayanganj, Narayanganj District, Dhaka Division, Bangladesh","নারায়নগঞ্জ জেলা, নারায়ণগঞ্জ জেলা, ঢাকা বিভাগ, বাংলাদেশ",Narayanganj,বাংলাদেশ,ঢাকা বিভাগ,local_admin,boundaries,['atm'],[],Bangladesh,Dhaka,Narayanganj,NarayanganjSadar,NarayanganjPaurashava,780ea0df78abb5aafb51ed5b251475f2
5195668166.0,893cf167513ffff,23.580006,90.5043421,Kathpotti Bus Stop কাঠপট্টি বাস স্টপ,,"Kathpotti Bus Stop, Narayanganj, Narayanganj District, Dhaka Division, Bangladesh","কাঠপট্টি বাস স্টপ, নারায়নগঞ্জ জেলা, নারায়ণগঞ্জ জেলা, ঢাকা বিভাগ, বাংলাদেশ",Narayanganj,বাংলাদেশ,ঢাকা বিভাগ,street,boundaries,['bus_stop'],[],Bangladesh,Dhaka,Narayanganj,NarayanganjSadar,Gognagar,c92f80849b5f7188ce7d1572c9256db2
5195688667.0,893cf167593ffff,23.5896023,90.5002848,"সৈয়দপুর, ফকিরবাড়ি",,"Saidpur Fakirbari, Narayanganj, Narayanganj District, Dhaka Division, Bangladesh","সৈয়দপুর ফকিরবাড়ি, নারায়নগঞ্জ জেলা, নারায়ণগঞ্জ জেলা, ঢাকা বিভাগ, বাংলাদেশ",Narayanganj,বাংলাদেশ,ঢাকা বিভাগ,local_admin,boundaries,['supermarket'],[],Bangladesh,Dhaka,Narayanganj,NarayanganjSadar,Gognagar,c92f80849b5f7188ce7d1572c9256db2
5197923431.0,893cf12b64bffff,23.6935969,90.5141939,M/S Mayer Doya Pharmacy,,"M/S Mayer Doya Pharmacy, Narayanganj, Narayanganj District, Dhaka Division, Bangladesh","মেসার্স মায়ার দোয়া ফার্মাসি, নারায়নগঞ্জ জেলা, নারায়ণগঞ্জ জেলা, ঢাকা বিভাগ, বাংলাদেশ",Narayanganj,বাংলাদেশ,ঢাকা বিভাগ,local_admin,boundaries,['pharmacy'],[],Bangladesh,Dhaka,Narayanganj,NarayanganjSadar,SiddirganjPaurashava,9f535d2806f71a0a1b89d7dad9aa718b
5199227904.0,893cf174dbbffff,23.6898639,90.5139064,Electra International ইলেক্ট্রা ইন্টারন্যাশনাল,,"Electra International, Narayanganj, Narayanganj District, Dhaka Division, Bangladesh","ইলেক্ট্রা ইন্টারন্যাশনাল, নারায়নগঞ্জ জেলা, নারায়ণগঞ্জ জেলা, ঢাকা বিভাগ, বাংলাদেশ",Narayanganj,বাংলাদেশ,ঢাকা বিভাগ,local_admin,boundaries,['electronics'],[],Bangladesh,Dhaka,Narayanganj,NarayanganjSadar,SiddirganjPaurashava,9f535d2806f71a0a1b89d7dad9aa718b
5199228423.0,893cf174dbbffff,23.6897718,90.5139225,,,"Narayanganj, Narayanganj District, Dhaka Division, Bangladesh","নারায়নগঞ্জ জেলা, নারায়ণগঞ্জ জেলা, ঢাকা বিভাগ, বাংলাদেশ",Narayanganj,বাংলাদেশ,ঢাকা বিভাগ,local_admin,boundaries,['atm'],[],Bangladesh,Dhaka,Narayanganj,NarayanganjSadar,SiddirganjPaurashava,9f535d2806f71a0a1b89d7dad9aa718b
5199228905.0,893cf174dbbffff,23.689902,90.513881,,,"Narayanganj, Narayanganj District, Dhaka Division, Bangladesh","নারায়নগঞ্জ জেলা, নারায়ণগঞ্জ জেলা, ঢাকা বিভাগ, বাংলাদেশ",Narayanganj,বাংলাদেশ,ঢাকা বিভাগ,local_admin,boundaries,['atm'],[],Bangladesh,Dhaka,Narayanganj,NarayanganjSadar,SiddirganjPaurashava,9f535d2806f71a0a1b89d7dad9aa718b
5199229764.0,893cf174dbbffff,23.689832,90.5139185,Nitcom System,,"Nitcom System, Narayanganj, Narayanganj District, Dhaka Division, Bangladesh","নিটকম সিস্টেম, নারায়নগঞ্জ জেলা, নারায়ণগঞ্জ জেলা, ঢাকা বিভাগ, বাংলাদেশ",Narayanganj,বাংলাদেশ,ঢাকা বিভাগ,local_admin,boundaries,['computer'],[],Bangladesh,Dhaka,Narayanganj,NarayanganjSadar,SiddirganjPaurashava,9f535d2806f71a0a1b89d7dad9aa718b
5199230660.0,893cf174dbbffff,23.6896799,90.5139405,,,"Narayanganj, Narayanganj District, Dhaka Division, Bangladesh","নারায়নগঞ্জ জেলা, নারায়ণগঞ্জ জেলা, ঢাকা বিভাগ, বাংলাদেশ",Narayanganj,বাংলাদেশ,ঢাকা বিভাগ,local_admin,boundaries,['atm'],[],Bangladesh,Dhaka,Narayanganj,NarayanganjSadar,SiddirganjPaurashava,9f535d2806f71a0a1b89d7dad9aa718b
5199230669.0,893cf174dbbffff,23.6894859,90.5139834,WALTON Plaza ওয়ালটন,,"WALTON Plaza, Narayanganj, Narayanganj District, Dhaka Division, Bangladesh","ওয়ালটন, নারায়নগঞ্জ জেলা, নারায়ণগঞ্জ জেলা, ঢাকা বিভাগ, বাংলাদেশ",Narayanganj,বাংলাদেশ,ঢাকা বিভাগ,local_admin,boundaries,['electronics'],[],Bangladesh,Dhaka,Narayanganj,NarayanganjSadar,SiddirganjPaurashava,9f535d2806f71a0a1b89d7dad9aa718b
5199235085.0,893cf174dbbffff,23.6893173,90.5139995,CP Five Star সিপি ফাইভ স্টার,,"CP Five Star, Narayanganj, Narayanganj District, Dhaka Division, Bangladesh","সিপি ফাইভ স্টার, নারায়নগঞ্জ জেলা, নারায়ণগঞ্জ জেলা, ঢাকা বিভাগ, বাংলাদেশ",Narayanganj,বাংলাদেশ,ঢাকা বিভাগ,local_admin,boundaries,['food_court'],[],Bangladesh,Dhaka,Narayanganj,NarayanganjSadar,SiddirganjPaurashava,9f535d2806f71a0a1b89d7dad9aa718b
2815588588.0,893cf12005bffff,23.8556632,90.6468563,Bagbari Market,,"Bagbari Market, Araihazar Upazila, Narayanganj District, Dhaka Division, Bangladesh","বাগবাড়ী বাজার, আড়াইহাজার উপজেলা, নারায়নগঞ্জ জেলা, নারায়ণগঞ্জ জেলা, ঢাকা বিভাগ, বাংলাদেশ",আড়াইহাজার উপজেলা,বাংলাদেশ,ঢাকা বিভাগ,local_admin,boundaries,['marketplace'],[],Bangladesh,Dhaka,Narayanganj,Araihazar,Satgram,7eb19b30ff9e2977508141acc736f9bf
5199238012.0,893cf174dbbffff,23.6894192,90.5139713,,,"Narayanganj, Narayanganj District, Dhaka Division, Bangladesh","নারায়নগঞ্জ জেলা, নারায়ণগঞ্জ জেলা, ঢাকা বিভাগ, বাংলাদেশ",Narayanganj,বাংলাদেশ,ঢাকা বিভাগ,local_admin,boundaries,['atm'],[],Bangladesh,Dhaka,Narayanganj,NarayanganjSadar,SiddirganjPaurashava,9f535d2806f71a0a1b89d7dad9aa718b
2815591191.0,893cf12005bffff,23.8557559,90.6466946,Bagbari Bus Stop,,"Bagbari Bus Stop, Araihazar Upazila, Narayanganj District, Dhaka Division, Bangladesh","বাগবাড়ী বাস স্টপ, আড়াইহাজার উপজেলা, নারায়নগঞ্জ জেলা, নারায়ণগঞ্জ জেলা, ঢাকা বিভাগ, বাংলাদেশ",আড়াইহাজার উপজেলা,বাংলাদেশ,ঢাকা বিভাগ,street,boundaries,['bus_stop'],[],Bangladesh,Dhaka,Narayanganj,Araihazar,Satgram,7eb19b30ff9e2977508141acc736f9bf
2815594887.0,893cf12062fffff,23.8556232,90.6413452,Purinda Bazar,,"Purinda Bazar, Araihazar Upazila, Narayanganj District, Dhaka Division, Bangladesh","পুরিন্ডা বাজার, আড়াইহাজার উপজেলা, নারায়নগঞ্জ জেলা, নারায়ণগঞ্জ জেলা, ঢাকা বিভাগ, বাংলাদেশ",আড়াইহাজার উপজেলা,বাংলাদেশ,ঢাকা বিভাগ,street,boundaries,['bus_stop'],[],Bangladesh,Dhaka,Narayanganj,Araihazar,Satgram,7eb19b30ff9e2977508141acc736f9bf
5199240740.0,893cf174dbbffff,23.6893243,90.51416,Siddirganj News Club,,"Siddirganj News Club, Narayanganj, Narayanganj District, Dhaka Division, Bangladesh","সিদ্দিরগঞ্জ নিউজ ক্লাব, নারায়নগঞ্জ জেলা, নারায়ণগঞ্জ জেলা, ঢাকা বিভাগ, বাংলাদেশ",Narayanganj,বাংলাদেশ,ঢাকা বিভাগ,local_admin,boundaries,['newspaper'],[],Bangladesh,Dhaka,Narayanganj,NarayanganjSadar,SiddirganjPaurashava,9f535d2806f71a0a1b89d7dad9aa718b
5199254029.0,893cf174dbbffff,23.6888929,90.5140604,সিদ্ধিরগঞ্জ পুল বাস স্ট্যান্ড,['Siddhirganj Pool Bus Stop'],"Siddhirganj Pool Bus Stand, Siddhirganj Pool Bus Stop, Narayanganj, Narayanganj District, Dhaka Division, Bangladesh","সিদ্ধিরগঞ্জ পুল বাস স্ট্যান্ড, নারায়নগঞ্জ জেলা, নারায়ণগঞ্জ জেলা, ঢাকা বিভাগ, বাংলাদেশ",Narayanganj,বাংলাদেশ,ঢাকা বিভাগ,street,boundaries,['bus_stop'],[],Bangladesh,Dhaka,Narayanganj,NarayanganjSadar,SiddirganjPaurashava,9f535d2806f71a0a1b89d7dad9aa718b
5199254110.0,893cf174dbbffff,23.6887603,90.5142318,New Pran Ballav Sweets,,"New Pran Ballav Sweets, Narayanganj, Narayanganj District, Dhaka Division, Bangladesh","নতুন প্রাণ বলাভ মিষ্টি, নারায়নগঞ্জ জেলা, নারায়ণগঞ্জ জেলা, ঢাকা বিভাগ, বাংলাদেশ",Narayanganj,বাংলাদেশ,ঢাকা বিভাগ,local_admin,boundaries,['confectionery'],[],Bangladesh,Dhaka,Narayanganj,NarayanganjSadar,SiddirganjPaurashava,9f535d2806f71a0a1b89d7dad9aa718b
5199265480.0,893cf174d0fffff,23.6798355,90.516905,,,"Narayanganj, Narayanganj District, Dhaka Division, Bangladesh","নারায়নগঞ্জ জেলা, নারায়ণগঞ্জ জেলা, ঢাকা বিভাগ, বাংলাদেশ",Narayanganj,বাংলাদেশ,ঢাকা বিভাগ,local_admin,boundaries,['atm'],[],Bangladesh,Dhaka,Narayanganj,NarayanganjSadar,SiddirganjPaurashava,9f535d2806f71a0a1b89d7dad9aa718b
5199269209.0,893cf174d07ffff,23.683015,90.5171067,PDB Play Ground,,"PDB Play Ground, Narayanganj, Narayanganj District, Dhaka Division, Bangladesh","পিডিবি প্লে গ্রাউন্ড, নারায়নগঞ্জ জেলা, নারায়ণগঞ্জ জেলা, ঢাকা বিভাগ, বাংলাদেশ",Narayanganj,বাংলাদেশ,ঢাকা বিভাগ,local_admin,boundaries,['playground'],[],Bangladesh,Dhaka,Narayanganj,NarayanganjSadar,SiddirganjPaurashava,9f535d2806f71a0a1b89d7dad9aa718b
5199304834.0,893cf174d77ffff,23.6785345,90.5173257,,,"Narayanganj, Narayanganj District, Dhaka Division, Bangladesh","নারায়নগঞ্জ জেলা, নারায়ণগঞ্জ জেলা, ঢাকা বিভাগ, বাংলাদেশ",Narayanganj,বাংলাদেশ,ঢাকা বিভাগ,local_admin,boundaries,['atm'],[],Bangladesh,Dhaka,Narayanganj,NarayanganjSadar,SiddirganjPaurashava,9f535d2806f71a0a1b89d7dad9aa718b
5199311795.0,893cf174d77ffff,23.6783895,90.5173391,,,"Narayanganj, Narayanganj District, Dhaka Division, Bangladesh","নারায়নগঞ্জ জেলা, নারায়ণগঞ্জ জেলা, ঢাকা বিভাগ, বাংলাদেশ",Narayanganj,বাংলাদেশ,ঢাকা বিভাগ,local_admin,boundaries,['atm'],[],Bangladesh,Dhaka,Narayanganj,NarayanganjSadar,SiddirganjPaurashava,9f535d2806f71a0a1b89d7dad9aa718b
5199318614.0,893cf174d77ffff,23.6782049,90.517236,Adamjee EPZ Bus Stand আদমজী ইপিজেড বাস স্ট্যান্ড,,"Adamjee EPZ Bus Stand, Narayanganj, Narayanganj District, Dhaka Division, Bangladesh","আদমজী ইপিজেড বাস স্ট্যান্ড, নারায়নগঞ্জ জেলা, নারায়ণগঞ্জ জেলা, ঢাকা বিভাগ, বাংলাদেশ",Narayanganj,বাংলাদেশ,ঢাকা বিভাগ,street,boundaries,['bus_stop'],[],Bangladesh,Dhaka,Narayanganj,NarayanganjSadar,SiddirganjPaurashava,9f535d2806f71a0a1b89d7dad9aa718b
5199320252.0,893cf174d63ffff,23.6764046,90.5177799,Adamjee Komol Minibus Stand,,"Adamjee Komol Minibus Stand, Narayanganj, Narayanganj District, Dhaka Division, Bangladesh","অ্যাডামজি কমল মিনিবাস স্ট্যান্ড, নারায়নগঞ্জ জেলা, নারায়ণগঞ্জ জেলা, ঢাকা বিভাগ, বাংলাদেশ",Narayanganj,বাংলাদেশ,ঢাকা বিভাগ,street,boundaries,['bus_stop'],[],Bangladesh,Dhaka,Narayanganj,NarayanganjSadar,SiddirganjPaurashava,9f535d2806f71a0a1b89d7dad9aa718b
5199342423.0,893cf174d63ffff,23.6735081,90.5184519,Adamjee Nagar Bus Stop আদমজী নগর বাস স্টপ,,"Adamjee Nagar Bus Stop, Narayanganj, Narayanganj District, Dhaka Division, Bangladesh","আদমজী নগর বাস স্টপ, নারায়নগঞ্জ জেলা, নারায়ণগঞ্জ জেলা, ঢাকা বিভাগ, বাংলাদেশ",Narayanganj,বাংলাদেশ,ঢাকা বিভাগ,street,boundaries,['bus_stop'],[],Bangladesh,Dhaka,Narayanganj,NarayanganjSadar,SiddirganjPaurashava,9f535d2806f71a0a1b89d7dad9aa718b
5199345221.0,893cf174d63ffff,23.6734027,90.5183595,Sonamia Market Bus Stop সোনামিয়া মার্কেট বাস স্টপ,,"Sonamia Market Bus Stop, Narayanganj, Narayanganj District, Dhaka Division, Bangladesh","সোনামিয়া মার্কেট বাস স্টপ, নারায়নগঞ্জ জেলা, নারায়ণগঞ্জ জেলা, ঢাকা বিভাগ, বাংলাদেশ",Narayanganj,বাংলাদেশ,ঢাকা বিভাগ,street,boundaries,['bus_stop'],[],Bangladesh,Dhaka,Narayanganj,NarayanganjSadar,SiddirganjPaurashava,9f535d2806f71a0a1b89d7dad9aa718b
5199348274.0,893cf174d6fffff,23.673455,90.5186128,Suma Pharmacy সোমা ফার্মেসি,,"Suma Pharmacy, Narayanganj, Narayanganj District, Dhaka Division, Bangladesh","সোমা ফার্মেসি, নারায়নগঞ্জ জেলা, নারায়ণগঞ্জ জেলা, ঢাকা বিভাগ, বাংলাদেশ",Narayanganj,বাংলাদেশ,ঢাকা বিভাগ,local_admin,boundaries,['pharmacy'],[],Bangladesh,Dhaka,Narayanganj,NarayanganjSadar,SiddirganjPaurashava,9f535d2806f71a0a1b89d7dad9aa718b
5199458216.0,893cf1748a7ffff,23.6676011,90.516093,SO Bus stand,,"SO Bus stand, Narayanganj, Narayanganj District, Dhaka Division, Bangladesh","তাই বাস স্ট্যান্ড, নারায়নগঞ্জ জেলা, নারায়ণগঞ্জ জেলা, ঢাকা বিভাগ, বাংলাদেশ",Narayanganj,বাংলাদেশ,ঢাকা বিভাগ,street,boundaries,['bus_stop'],[],Bangladesh,Dhaka,Narayanganj,NarayanganjSadar,SiddirganjPaurashava,9f535d2806f71a0a1b89d7dad9aa718b
5199635159.0,893cf1748afffff,23.664427,90.514506,Barma Stand Bus Stop বার্মাস্ট্যান্ড বাস স্টপ,,"Barma Stand Bus Stop, Narayanganj, Narayanganj District, Dhaka Division, Bangladesh","বার্মাস্ট্যান্ড বাস স্টপ, নারায়নগঞ্জ জেলা, নারায়ণগঞ্জ জেলা, ঢাকা বিভাগ, বাংলাদেশ",Narayanganj,বাংলাদেশ,ঢাকা বিভাগ,street,boundaries,['bus_stop'],[],Bangladesh,Dhaka,Narayanganj,NarayanganjSadar,SiddirganjPaurashava,9f535d2806f71a0a1b89d7dad9aa718b
5199690656.0,893cf174877ffff,23.6576172,90.5118646,Dui Nong Bus Stop দুই নং বাস স্টপ,,"Dui Nong Bus Stop, Narayanganj, Narayanganj District, Dhaka Division, Bangladesh","দুই নং বাস স্টপ, নারায়নগঞ্জ জেলা, নারায়ণগঞ্জ জেলা, ঢাকা বিভাগ, বাংলাদেশ",Narayanganj,বাংলাদেশ,ঢাকা বিভাগ,street,boundaries,['bus_stop'],[],Bangladesh,Dhaka,Narayanganj,NarayanganjSadar,SiddirganjPaurashava,9f535d2806f71a0a1b89d7dad9aa718b
5199703093.0,893cf174863ffff,23.6538581,90.5113118,Syed Para Bus Stop সৈয়দ পাড়া বাস স্টপ,,"Syed Para Bus Stop, Narayanganj, Narayanganj District, Dhaka Division, Bangladesh","সৈয়দ পাড়া বাস স্টপ, নারায়নগঞ্জ জেলা, নারায়ণগঞ্জ জেলা, ঢাকা বিভাগ, বাংলাদেশ",Narayanganj,বাংলাদেশ,ঢাকা বিভাগ,street,boundaries,['bus_stop'],[],Bangladesh,Dhaka,Narayanganj,NarayanganjSadar,SiddirganjPaurashava,9f535d2806f71a0a1b89d7dad9aa718b
5199714450.0,893cf17486fffff,23.6509762,90.5121375,Tatkhana Bus stop তাতখানা বাস স্টপ,,"Tatkhana Bus stop, Narayanganj, Narayanganj District, Dhaka Division, Bangladesh","তাতখানা বাস স্টপ, নারায়নগঞ্জ জেলা, নারায়ণগঞ্জ জেলা, ঢাকা বিভাগ, বাংলাদেশ",Narayanganj,বাংলাদেশ,ঢাকা বিভাগ,street,boundaries,['bus_stop'],[],Bangladesh,Dhaka,Narayanganj,NarayanganjSadar,SiddirganjPaurashava,9f535d2806f71a0a1b89d7dad9aa718b
5199730777.0,893cf174bd3ffff,23.6478482,90.5133769,Chowdhury Bari Bus Stop চৌধুরী বারী বাস স্টপ,,"Chowdhury Bari Bus Stop, Narayanganj, Narayanganj District, Dhaka Division, Bangladesh","চৌধুরী বারী বাস স্টপ, নারায়নগঞ্জ জেলা, নারায়ণগঞ্জ জেলা, ঢাকা বিভাগ, বাংলাদেশ",Narayanganj,বাংলাদেশ,ঢাকা বিভাগ,street,boundaries,['bus_stop'],[],Bangladesh,Dhaka,Narayanganj,NarayanganjSadar,SiddirganjPaurashava,9f535d2806f71a0a1b89d7dad9aa718b
5199745610.0,893cf174bd3ffff,23.648242,90.5135963,Surprise Super Shop,,"Surprise Super Shop, Narayanganj, Narayanganj District, Dhaka Division, Bangladesh","চমকপ্রদ সুপার শপ, নারায়নগঞ্জ জেলা, নারায়ণগঞ্জ জেলা, ঢাকা বিভাগ, বাংলাদেশ",Narayanganj,বাংলাদেশ,ঢাকা বিভাগ,local_admin,boundaries,['supermarket'],[],Bangladesh,Dhaka,Narayanganj,NarayanganjSadar,SiddirganjPaurashava,9f535d2806f71a0a1b89d7dad9aa718b
5199765227.0,893cf174bdbffff,23.6438476,90.512947,Mazipara Pol Bus Stop মাজিপারা পুল বাস স্টপ,,"Mazipara Pol Bus Stop, Narayanganj, Narayanganj District, Dhaka Division, Bangladesh","মাজিপারা পুল বাস স্টপ, নারায়নগঞ্জ জেলা, নারায়ণগঞ্জ জেলা, ঢাকা বিভাগ, বাংলাদেশ",Narayanganj,বাংলাদেশ,ঢাকা বিভাগ,street,boundaries,['bus_stop'],[],Bangladesh,Dhaka,Narayanganj,NarayanganjSadar,SiddirganjPaurashava,9f535d2806f71a0a1b89d7dad9aa718b
5199778964.0,893cf174a23ffff,23.6390998,90.5108968,Pathantuli Bus Stop পাঠানটুলি বাস স্টপ,,"Pathantuli Bus Stop, Narayanganj, Narayanganj District, Dhaka Division, Bangladesh","পাঠানটুলি বাস স্টপ, নারায়নগঞ্জ জেলা, নারায়ণগঞ্জ জেলা, ঢাকা বিভাগ, বাংলাদেশ",Narayanganj,বাংলাদেশ,ঢাকা বিভাগ,street,boundaries,['bus_stop'],[],Bangladesh,Dhaka,Narayanganj,NarayanganjSadar,SiddirganjPaurashava,9f535d2806f71a0a1b89d7dad9aa718b
5199788356.0,893cf174a2fffff,23.636333,90.5113437,Haziganj Mazar Bus Stop হাজিগঞ্জ মাজার বাস স্টপ,,"Haziganj Mazar Bus Stop, Narayanganj, Narayanganj District, Dhaka Division, Bangladesh","হাজিগঞ্জ মাজার বাস স্টপ, নারায়নগঞ্জ জেলা, নারায়ণগঞ্জ জেলা, ঢাকা বিভাগ, বাংলাদেশ",Narayanganj,বাংলাদেশ,ঢাকা বিভাগ,street,boundaries,['bus_stop'],[],Bangladesh,Dhaka,Narayanganj,NarayanganjSadar,Fatullah(part),ba9906b5181b0dc1c441938f3d4ced41
5199792074.0,893cf174a2fffff,23.6349194,90.5118339,IET School Bus Stop আই ই টি স্কুল বাস স্টপ,,"IET School Bus Stop, Narayanganj, Narayanganj District, Dhaka Division, Bangladesh","আই ই টি স্কুল বাস স্টপ, নারায়নগঞ্জ জেলা, নারায়ণগঞ্জ জেলা, ঢাকা বিভাগ, বাংলাদেশ",Narayanganj,বাংলাদেশ,ঢাকা বিভাগ,street,boundaries,['bus_stop'],[],Bangladesh,Dhaka,Narayanganj,NarayanganjSadar,Fatullah(part),ba9906b5181b0dc1c441938f3d4ced41
5199796149.0,893cf174a2fffff,23.6349182,90.5117682,Hajigonj Police Box,,"Hajigonj Police Box, Narayanganj, Narayanganj District, Dhaka Division, Bangladesh","হাজিগনজ পুলিশ বক্স, নারায়নগঞ্জ জেলা, নারায়ণগঞ্জ জেলা, ঢাকা বিভাগ, বাংলাদেশ",Narayanganj,বাংলাদেশ,ঢাকা বিভাগ,local_admin,boundaries,['police'],[],Bangladesh,Dhaka,Narayanganj,NarayanganjSadar,Fatullah(part),ba9906b5181b0dc1c441938f3d4ced41
5199831489.0,893cf166497ffff,23.6338642,90.5148194,Nobiganj Godara Ghat নবিগঞ্জ গুদারা ঘাট,,"Nobiganj Godara Ghat, Narayanganj, Narayanganj District, Dhaka Division, Bangladesh","নবিগঞ্জ গুদারা ঘাট, নারায়নগঞ্জ জেলা, নারায়ণগঞ্জ জেলা, ঢাকা বিভাগ, বাংলাদেশ",Narayanganj,বাংলাদেশ,ঢাকা বিভাগ,street,boundaries,['bus_stop'],[],Bangladesh,Dhaka,Narayanganj,Bandar,KadamRasulPaurashava,6395d893f42fe5fbe4b2e78035aa881c
5199917765.0,893cf166493ffff,23.6314543,90.5116348,Kellarpool Bus stop কেল্লারপুল বাস স্টপ,,"Kellarpool Bus stop, Narayanganj, Narayanganj District, Dhaka Division, Bangladesh","কেল্লারপুল বাস স্টপ, নারায়নগঞ্জ জেলা, নারায়ণগঞ্জ জেলা, ঢাকা বিভাগ, বাংলাদেশ",Narayanganj,বাংলাদেশ,ঢাকা বিভাগ,street,boundaries,['bus_stop'],[],Bangladesh,Dhaka,Narayanganj,NarayanganjSadar,Fatullah(part),ba9906b5181b0dc1c441938f3d4ced41
5201268893.0,893cf16649bffff,23.6297544,90.5106959,Borofkol Bus Stop বরফকল বাস স্টপ,,"Borofkol Bus Stop, Narayanganj, Narayanganj District, Dhaka Division, Bangladesh","বরফকল বাস স্টপ, নারায়নগঞ্জ জেলা, নারায়ণগঞ্জ জেলা, ঢাকা বিভাগ, বাংলাদেশ",Narayanganj,বাংলাদেশ,ঢাকা বিভাগ,street,boundaries,['bus_stop'],[],Bangladesh,Dhaka,Narayanganj,NarayanganjSadar,Fatullah(part),ba9906b5181b0dc1c441938f3d4ced41
5201280377.0,893cf1664d3ffff,23.6249963,90.505368,Metro AC Bus Stop মেট্রো এসি বাস স্টপ,,"Metro AC Bus Stop, Narayanganj, Narayanganj District, Dhaka Division, Bangladesh","মেট্রো এসি বাস স্টপ, নারায়নগঞ্জ জেলা, নারায়ণগঞ্জ জেলা, ঢাকা বিভাগ, বাংলাদেশ",Narayanganj,বাংলাদেশ,ঢাকা বিভাগ,street,boundaries,['bus_stop'],[],Bangladesh,Dhaka,Narayanganj,NarayanganjSadar,NarayanganjPaurashava,780ea0df78abb5aafb51ed5b251475f2
5201280992.0,893cf1664d3ffff,23.6256523,90.5068844,Hospital Bus Stop হাসপাতাল বাস স্টপ,,"Hospital Bus Stop, Narayanganj, Narayanganj District, Dhaka Division, Bangladesh","হাসপাতাল বাস স্টপ, নারায়নগঞ্জ জেলা, নারায়ণগঞ্জ জেলা, ঢাকা বিভাগ, বাংলাদেশ",Narayanganj,বাংলাদেশ,ঢাকা বিভাগ,street,boundaries,['bus_stop'],[],Bangladesh,Dhaka,Narayanganj,NarayanganjSadar,NarayanganjPaurashava,780ea0df78abb5aafb51ed5b251475f2
5201284261.0,893cf1759a7ffff,23.6248138,90.5048512,Narayanganj BRTC AC Bus Stop,,"Narayanganj BRTC AC Bus Stop, Narayanganj, Narayanganj District, Dhaka Division, Bangladesh","নারায়ঙ্গঞ্জ বিআরটিসি এসি বাস স্টপ, নারায়নগঞ্জ জেলা, নারায়ণগঞ্জ জেলা, ঢাকা বিভাগ, বাংলাদেশ",Narayanganj,বাংলাদেশ,ঢাকা বিভাগ,street,boundaries,['bus_stop'],[],Bangladesh,Dhaka,Narayanganj,NarayanganjSadar,NarayanganjPaurashava,780ea0df78abb5aafb51ed5b251475f2
5201304923.0,893cf1759a7ffff,23.6246567,90.5024504,Mission Para Mor Bus Stop মিশন পাড়া মোর বাস স্টপ,,"Mission Para Mor Bus Stop, Narayanganj, Narayanganj District, Dhaka Division, Bangladesh","মিশন পাড়া মোর বাস স্টপ, নারায়নগঞ্জ জেলা, নারায়ণগঞ্জ জেলা, ঢাকা বিভাগ, বাংলাদেশ",Narayanganj,বাংলাদেশ,ঢাকা বিভাগ,street,boundaries,['bus_stop'],[],Bangladesh,Dhaka,Narayanganj,NarayanganjSadar,NarayanganjPaurashava,780ea0df78abb5aafb51ed5b251475f2
5201349093.0,893cf1759a3ffff,23.6242919,90.5006673,Food Land Bakery ফুড ল্যান্ড বেকারি,,"Food Land Bakery, Narayanganj, Narayanganj District, Dhaka Division, Bangladesh","ফুড ল্যান্ড বেকারি, নারায়নগঞ্জ জেলা, নারায়ণগঞ্জ জেলা, ঢাকা বিভাগ, বাংলাদেশ",Narayanganj,বাংলাদেশ,ঢাকা বিভাগ,local_admin,boundaries,['bakery'],[],Bangladesh,Dhaka,Narayanganj,NarayanganjSadar,NarayanganjPaurashava,780ea0df78abb5aafb51ed5b251475f2
5201352351.0,893cf1759a3ffff,23.6242283,90.5004751,Aytel Mati Restaurant এটেল মাটি রেস্টুরেন্ট,,"Aytel Mati Restaurant, Narayanganj, Narayanganj District, Dhaka Division, Bangladesh","এটেল মাটি রেস্টুরেন্ট, নারায়নগঞ্জ জেলা, নারায়ণগঞ্জ জেলা, ঢাকা বিভাগ, বাংলাদেশ",Narayanganj,বাংলাদেশ,ঢাকা বিভাগ,local_admin,boundaries,['restaurant'],[],Bangladesh,Dhaka,Narayanganj,NarayanganjSadar,NarayanganjPaurashava,780ea0df78abb5aafb51ed5b251475f2
5201573142.0,893cf1759a3ffff,23.6242792,90.5001449,Khan Tea Cafe খান চা ক্যাফে,,"Khan Tea Cafe, Narayanganj, Narayanganj District, Dhaka Division, Bangladesh","খান চা ক্যাফে, নারায়নগঞ্জ জেলা, নারায়ণগঞ্জ জেলা, ঢাকা বিভাগ, বাংলাদেশ",Narayanganj,বাংলাদেশ,ঢাকা বিভাগ,local_admin,boundaries,['restaurant'],[],Bangladesh,Dhaka,Narayanganj,NarayanganjSadar,NarayanganjPaurashava,780ea0df78abb5aafb51ed5b251475f2
5203912374.0,893cf16640bffff,23.6186767,90.5193898,BAITUN NUR JAME MOSJID ( বায়তুন নূর জামে মসজিদ),,"BAITUN NUR JAME MOSJID, Bandar, Narayanganj District, Dhaka Division, Bangladesh","বায়তুন নূর জামে মসজিদ, নারায়নগঞ্জ জেলা, নারায়ণগঞ্জ জেলা, ঢাকা বিভাগ, বাংলাদেশ",Bandar,বাংলাদেশ,ঢাকা বিভাগ,local_admin,boundaries,['place_of_worship_muslim'],[],Bangladesh,Dhaka,Narayanganj,Bandar,KadamRasulPaurashava,6395d893f42fe5fbe4b2e78035aa881c
5206025792.0,893cf12147bffff,23.8188372,90.5989835,Pacamrukhi Market,,"Pacamrukhi Market, Araihazar Upazila, Narayanganj District, Dhaka Division, Bangladesh","প্যাকমরুখী বাজার, আড়াইহাজার উপজেলা, নারায়নগঞ্জ জেলা, নারায়ণগঞ্জ জেলা, ঢাকা বিভাগ, বাংলাদেশ",আড়াইহাজার উপজেলা,বাংলাদেশ,ঢাকা বিভাগ,local_admin,boundaries,['marketplace'],[],Bangladesh,Dhaka,Narayanganj,Araihazar,Satgram,7eb19b30ff9e2977508141acc736f9bf
5206026248.0,893cf12147bffff,23.8188771,90.5995689,Pachrukhi Bus Stop,,"Pachrukhi Bus Stop, Araihazar Upazila, Narayanganj District, Dhaka Division, Bangladesh","পাছরুখী বাস স্টপ, আড়াইহাজার উপজেলা, নারায়নগঞ্জ জেলা, নারায়ণগঞ্জ জেলা, ঢাকা বিভাগ, বাংলাদেশ",আড়াইহাজার উপজেলা,বাংলাদেশ,ঢাকা বিভাগ,local_admin,boundaries,['bus_station'],[],Bangladesh,Dhaka,Narayanganj,Araihazar,Satgram,7eb19b30ff9e2977508141acc736f9bf
5206028263.0,893cf121653ffff,23.8015904,90.5844214,Adhuria Bus Stand,,"Adhuria Bus Stand, Rupganj Upazila, Narayanganj District, Dhaka Division, Bangladesh","অধুরিয়া বাস স্ট্যান্ড, রূপগঞ্জ উপজেলা, নারায়নগঞ্জ জেলা, নারায়ণগঞ্জ জেলা, ঢাকা বিভাগ, বাংলাদেশ",রূপগঞ্জ উপজেলা,বাংলাদেশ,ঢাকা বিভাগ,local_admin,boundaries,['bus_station'],[],Bangladesh,Dhaka,Narayanganj,Rupganj,Golakandail,dcf9834d2c0f17aacba3c87cb40307c6
5206032203.0,893cf1216b3ffff,23.8152899,90.5957769,Banti Bazzar Bus Stop,,"Banti Bazzar Bus Stop, Rupganj Upazila, Narayanganj District, Dhaka Division, Bangladesh","বান্টি বাজর বাস স্টপ, রূপগঞ্জ উপজেলা, নারায়নগঞ্জ জেলা, নারায়ণগঞ্জ জেলা, ঢাকা বিভাগ, বাংলাদেশ",রূপগঞ্জ উপজেলা,বাংলাদেশ,ঢাকা বিভাগ,local_admin,boundaries,['bus_station'],[],Bangladesh,Dhaka,Narayanganj,Araihazar,Duptara,6302dc36b8b4f0466c28c10a01a14471
5206036035.0,893cf1216b3ffff,23.8147586,90.5951827,Hazi Barek Molla Super Market,,"Hazi Barek Molla Super Market, Rupganj Upazila, Narayanganj District, Dhaka Division, Bangladesh","হাজি বেয়ার্ক মোল্লা সুপার মার্কেট, রূপগঞ্জ উপজেলা, নারায়নগঞ্জ জেলা, নারায়ণগঞ্জ জেলা, ঢাকা বিভাগ, বাংলাদেশ",রূপগঞ্জ উপজেলা,বাংলাদেশ,ঢাকা বিভাগ,local_admin,boundaries,['marketplace'],[],Bangladesh,Dhaka,Narayanganj,Araihazar,Duptara,6302dc36b8b4f0466c28c10a01a14471
5206043441.0,893cf1216b3ffff,23.8149244,90.5954282,Alif Homoeo Hall,,"Alif Homoeo Hall, Rupganj Upazila, Narayanganj District, Dhaka Division, Bangladesh","আলিফ হোমোও হল, রূপগঞ্জ উপজেলা, নারায়নগঞ্জ জেলা, নারায়ণগঞ্জ জেলা, ঢাকা বিভাগ, বাংলাদেশ",রূপগঞ্জ উপজেলা,বাংলাদেশ,ঢাকা বিভাগ,local_admin,boundaries,['pharmacy'],[],Bangladesh,Dhaka,Narayanganj,Araihazar,Duptara,6302dc36b8b4f0466c28c10a01a14471
5206046616.0,893cf1216b3ffff,23.8144645,90.5956076,Banti Bazar,,"Banti Bazar, Araihazar Upazila, Narayanganj District, Dhaka Division, Bangladesh","বান্টি বাজার, আড়াইহাজার উপজেলা, নারায়নগঞ্জ জেলা, নারায়ণগঞ্জ জেলা, ঢাকা বিভাগ, বাংলাদেশ",আড়াইহাজার উপজেলা,বাংলাদেশ,ঢাকা বিভাগ,local_admin,boundaries,['marketplace'],[],Bangladesh,Dhaka,Narayanganj,Araihazar,Duptara,6302dc36b8b4f0466c28c10a01a14471
5206050783.0,893cf1216bbffff,23.8135966,90.5942006,Haji A.Mannan Plaza,,"Haji A.Mannan Plaza, Rupganj Upazila, Narayanganj District, Dhaka Division, Bangladesh","হাজী এমানান প্লাজা, রূপগঞ্জ উপজেলা, নারায়নগঞ্জ জেলা, নারায়ণগঞ্জ জেলা, ঢাকা বিভাগ, বাংলাদেশ",রূপগঞ্জ উপজেলা,বাংলাদেশ,ঢাকা বিভাগ,local_admin,boundaries,['mall'],[],Bangladesh,Dhaka,Narayanganj,Araihazar,Duptara,6302dc36b8b4f0466c28c10a01a14471
5206055005.0,893cf1216c7ffff,23.8070631,90.5889769,Temple,,"Temple, Rupganj Upazila, Narayanganj District, Dhaka Division, Bangladesh","মন্দির, রূপগঞ্জ উপজেলা, নারায়নগঞ্জ জেলা, নারায়ণগঞ্জ জেলা, ঢাকা বিভাগ, বাংলাদেশ",রূপগঞ্জ উপজেলা,বাংলাদেশ,ঢাকা বিভাগ,local_admin,boundaries,['place_of_worship'],[],Bangladesh,Dhaka,Narayanganj,Rupganj,Golakandail,dcf9834d2c0f17aacba3c87cb40307c6
5206065585.0,893cf121653ffff,23.8014646,90.5845192,Al-modina Hotel,,"Al-modina Hotel, Rupganj Upazila, Narayanganj District, Dhaka Division, Bangladesh","আল-মোডিনা হোটেল, রূপগঞ্জ উপজেলা, নারায়নগঞ্জ জেলা, নারায়ণগঞ্জ জেলা, ঢাকা বিভাগ, বাংলাদেশ",রূপগঞ্জ উপজেলা,বাংলাদেশ,ঢাকা বিভাগ,local_admin,boundaries,['restaurant'],[],Bangladesh,Dhaka,Narayanganj,Rupganj,Golakandail,dcf9834d2c0f17aacba3c87cb40307c6
5206074811.0,893cf121653ffff,23.8013163,90.5842929,Asraf Tea Store,,"Asraf Tea Store, Rupganj Upazila, Narayanganj District, Dhaka Division, Bangladesh","আসরাফ চা স্টোর, রূপগঞ্জ উপজেলা, নারায়নগঞ্জ জেলা, নারায়ণগঞ্জ জেলা, ঢাকা বিভাগ, বাংলাদেশ",রূপগঞ্জ উপজেলা,বাংলাদেশ,ঢাকা বিভাগ,local_admin,boundaries,['tea'],[],Bangladesh,Dhaka,Narayanganj,Rupganj,Golakandail,dcf9834d2c0f17aacba3c87cb40307c6
5206075224.0,893cf121653ffff,23.8014616,90.5844184,BRTC Passenger Platform,,"BRTC Passenger Platform, Rupganj Upazila, Narayanganj District, Dhaka Division, Bangladesh","বিআরটিসি যাত্রী প্ল্যাটফর্ম, রূপগঞ্জ উপজেলা, নারায়নগঞ্জ জেলা, নারায়ণগঞ্জ জেলা, ঢাকা বিভাগ, বাংলাদেশ",রূপগঞ্জ উপজেলা,বাংলাদেশ,ঢাকা বিভাগ,local_admin,boundaries,['bus_station'],[],Bangladesh,Dhaka,Narayanganj,Rupganj,Golakandail,dcf9834d2c0f17aacba3c87cb40307c6
5206160285.0,893cf121653ffff,23.8010776,90.5844811,Mahona Bus Stop,,"Mahona Bus Stop, Rupganj Upazila, Narayanganj District, Dhaka Division, Bangladesh","মাহোনা বাস স্টপ, রূপগঞ্জ উপজেলা, নারায়নগঞ্জ জেলা, নারায়ণগঞ্জ জেলা, ঢাকা বিভাগ, বাংলাদেশ",রূপগঞ্জ উপজেলা,বাংলাদেশ,ঢাকা বিভাগ,local_admin,boundaries,['bus_station'],[],Bangladesh,Dhaka,Narayanganj,Rupganj,Golakandail,dcf9834d2c0f17aacba3c87cb40307c6
5209598169.0,893cf12a4a7ffff,23.7855444,90.5705166,Saoghat Bus Stand,,"Saoghat Bus Stand, Rupganj Upazila, Narayanganj District, Dhaka Division, Bangladesh","সাওগাত বাস স্ট্যান্ড, রূপগঞ্জ উপজেলা, নারায়নগঞ্জ জেলা, নারায়ণগঞ্জ জেলা, ঢাকা বিভাগ, বাংলাদেশ",রূপগঞ্জ উপজেলা,বাংলাদেশ,ঢাকা বিভাগ,local_admin,boundaries,['bus_station'],[],Bangladesh,Dhaka,Narayanganj,Rupganj,Golakandail,dcf9834d2c0f17aacba3c87cb40307c6
5209602292.0,893cf12a4a3ffff,23.7853577,90.5685788,Golakandail Bus Stand,,"Golakandail Bus Stand, Rupganj Upazila, Narayanganj District, Dhaka Division, Bangladesh","গোলাকান্দাইল বাস স্ট্যান্ড, রূপগঞ্জ উপজেলা, নারায়নগঞ্জ জেলা, নারায়ণগঞ্জ জেলা, ঢাকা বিভাগ, বাংলাদেশ",রূপগঞ্জ উপজেলা,বাংলাদেশ,ঢাকা বিভাগ,local_admin,boundaries,['bus_station'],[],Bangladesh,Dhaka,Narayanganj,Rupganj,Bulta,a13a97acaa1ba3400c1fefff95aa4d07
5209602377.0,893cf12a4a3ffff,23.7851455,90.5685438,,,"Rupganj Upazila, Narayanganj District, Dhaka Division, Bangladesh","রূপগঞ্জ উপজেলা, নারায়নগঞ্জ জেলা, নারায়ণগঞ্জ জেলা, ঢাকা বিভাগ, বাংলাদেশ",রূপগঞ্জ উপজেলা,বাংলাদেশ,ঢাকা বিভাগ,local_admin,boundaries,['atm'],[],Bangladesh,Dhaka,Narayanganj,Rupganj,Bulta,a13a97acaa1ba3400c1fefff95aa4d07
5209604735.0,893cf12a4a3ffff,23.7850557,90.5684833,BRAC Bank Limited,,"BRAC Bank Limited, Rupganj Upazila, Narayanganj District, Dhaka Division, Bangladesh","ব্র্যাক ব্যাংক লিমিটেড, রূপগঞ্জ উপজেলা, নারায়নগঞ্জ জেলা, নারায়ণগঞ্জ জেলা, ঢাকা বিভাগ, বাংলাদেশ",রূপগঞ্জ উপজেলা,বাংলাদেশ,ঢাকা বিভাগ,local_admin,boundaries,['bank'],[],Bangladesh,Dhaka,Narayanganj,Rupganj,Bulta,a13a97acaa1ba3400c1fefff95aa4d07
5209605434.0,893cf12a4a3ffff,23.7851099,90.5683695,Al Rafi Hospital Ltd.,,"Al Rafi Hospital Ltd., Rupganj Upazila, Narayanganj District, Dhaka Division, Bangladesh","আল রাফি হাসপাতাল লিমিটেড, রূপগঞ্জ উপজেলা, নারায়নগঞ্জ জেলা, নারায়ণগঞ্জ জেলা, ঢাকা বিভাগ, বাংলাদেশ",রূপগঞ্জ উপজেলা,বাংলাদেশ,ঢাকা বিভাগ,local_admin,boundaries,['hospital'],[],Bangladesh,Dhaka,Narayanganj,Rupganj,Bulta,a13a97acaa1ba3400c1fefff95aa4d07
5209606353.0,893cf12a4a3ffff,23.7849802,90.5686644,AB Bank Limited,,"AB Bank Limited, Rupganj Upazila, Narayanganj District, Dhaka Division, Bangladesh","আব ব্যাংক লিমিটেড, রূপগঞ্জ উপজেলা, নারায়নগঞ্জ জেলা, নারায়ণগঞ্জ জেলা, ঢাকা বিভাগ, বাংলাদেশ",রূপগঞ্জ উপজেলা,বাংলাদেশ,ঢাকা বিভাগ,local_admin,boundaries,['bank'],[],Bangladesh,Dhaka,Narayanganj,Rupganj,Bulta,a13a97acaa1ba3400c1fefff95aa4d07
5209606432.0,893cf12a4a3ffff,23.7850602,90.5686664,PFC,,"PFC, Rupganj Upazila, Narayanganj District, Dhaka Division, Bangladesh","পিএফসি, রূপগঞ্জ উপজেলা, নারায়নগঞ্জ জেলা, নারায়ণগঞ্জ জেলা, ঢাকা বিভাগ, বাংলাদেশ",রূপগঞ্জ উপজেলা,বাংলাদেশ,ঢাকা বিভাগ,local_admin,boundaries,['restaurant'],[],Bangladesh,Dhaka,Narayanganj,Rupganj,Bulta,a13a97acaa1ba3400c1fefff95aa4d07
5209627610.0,893cf12a4a3ffff,23.7852699,90.5676102,,,"Rupganj Upazila, Narayanganj District, Dhaka Division, Bangladesh","রূপগঞ্জ উপজেলা, নারায়নগঞ্জ জেলা, নারায়ণগঞ্জ জেলা, ঢাকা বিভাগ, বাংলাদেশ",রূপগঞ্জ উপজেলা,বাংলাদেশ,ঢাকা বিভাগ,local_admin,boundaries,['atm'],[],Bangladesh,Dhaka,Narayanganj,Rupganj,Bulta,a13a97acaa1ba3400c1fefff95aa4d07
5213541436.0,893cf12a4a3ffff,23.7854498,90.5671431,Bithi Telecom,,"Bithi Telecom, Rupganj Upazila, Narayanganj District, Dhaka Division, Bangladesh","বিথি টেলিকম, রূপগঞ্জ উপজেলা, নারায়নগঞ্জ জেলা, নারায়ণগঞ্জ জেলা, ঢাকা বিভাগ, বাংলাদেশ",রূপগঞ্জ উপজেলা,বাংলাদেশ,ঢাকা বিভাগ,local_admin,boundaries,['electronics'],[],Bangladesh,Dhaka,Narayanganj,Rupganj,Bulta,a13a97acaa1ba3400c1fefff95aa4d07
5213544798.0,893cf12a4a3ffff,23.785288,90.5673437,United Commercial Bank Limited,,"United Commercial Bank Limited, Rupganj Upazila, Narayanganj District, Dhaka Division, Bangladesh","ইউনাইটেড কমার্শিয়াল ব্যাংক লিমিটেড, রূপগঞ্জ উপজেলা, নারায়নগঞ্জ জেলা, নারায়ণগঞ্জ জেলা, ঢাকা বিভাগ, বাংলাদেশ",রূপগঞ্জ উপজেলা,বাংলাদেশ,ঢাকা বিভাগ,local_admin,boundaries,['bank'],[],Bangladesh,Dhaka,Narayanganj,Rupganj,Bulta,a13a97acaa1ba3400c1fefff95aa4d07
5213550558.0,893cf12a4a3ffff,23.7855873,90.5671042,Tm Top Ten Tailor and Fabrics,,"Tm Top Ten Tailor and Fabrics, Rupganj Upazila, Narayanganj District, Dhaka Division, Bangladesh","টিএম শীর্ষ দশটি দর্জি এবং কাপড়, রূপগঞ্জ উপজেলা, নারায়নগঞ্জ জেলা, নারায়ণগঞ্জ জেলা, ঢাকা বিভাগ, বাংলাদেশ",রূপগঞ্জ উপজেলা,বাংলাদেশ,ঢাকা বিভাগ,local_admin,boundaries,['clothes'],[],Bangladesh,Dhaka,Narayanganj,Rupganj,Bulta,a13a97acaa1ba3400c1fefff95aa4d07
5213550989.0,893cf12a4a3ffff,23.785346,90.5672978,R-Tel,,"R-Tel, Rupganj Upazila, Narayanganj District, Dhaka Division, Bangladesh","আর-টেল, রূপগঞ্জ উপজেলা, নারায়নগঞ্জ জেলা, নারায়ণগঞ্জ জেলা, ঢাকা বিভাগ, বাংলাদেশ",রূপগঞ্জ উপজেলা,বাংলাদেশ,ঢাকা বিভাগ,local_admin,boundaries,['mobile_phone'],[],Bangladesh,Dhaka,Narayanganj,Rupganj,Bulta,a13a97acaa1ba3400c1fefff95aa4d07
5213551448.0,893cf12a4a3ffff,23.785496,90.5672061,Radhuni Chinese Restaurant,,"Radhuni Chinese Restaurant, Rupganj Upazila, Narayanganj District, Dhaka Division, Bangladesh","রাধুনি চাইনিজ রেস্তোঁরা, রূপগঞ্জ উপজেলা, নারায়নগঞ্জ জেলা, নারায়ণগঞ্জ জেলা, ঢাকা বিভাগ, বাংলাদেশ",রূপগঞ্জ উপজেলা,বাংলাদেশ,ঢাকা বিভাগ,local_admin,boundaries,['restaurant'],[],Bangladesh,Dhaka,Narayanganj,Rupganj,Bulta,a13a97acaa1ba3400c1fefff95aa4d07
5213551802.0,893cf12a4a3ffff,23.7855451,90.5670037,Gausia Market 2,,"Gausia Market 2, Rupganj Upazila, Narayanganj District, Dhaka Division, Bangladesh","গাউসিয়া বাজার 2, রূপগঞ্জ উপজেলা, নারায়নগঞ্জ জেলা, নারায়ণগঞ্জ জেলা, ঢাকা বিভাগ, বাংলাদেশ",রূপগঞ্জ উপজেলা,বাংলাদেশ,ঢাকা বিভাগ,local_admin,boundaries,['marketplace'],[],Bangladesh,Dhaka,Narayanganj,Rupganj,Bulta,a13a97acaa1ba3400c1fefff95aa4d07
5213552066.0,893cf12a4a3ffff,23.7856883,90.5668742,MPM Trading,,"MPM Trading, Rupganj Upazila, Narayanganj District, Dhaka Division, Bangladesh","এমপিএম ট্রেডিং, রূপগঞ্জ উপজেলা, নারায়নগঞ্জ জেলা, নারায়ণগঞ্জ জেলা, ঢাকা বিভাগ, বাংলাদেশ",রূপগঞ্জ উপজেলা,বাংলাদেশ,ঢাকা বিভাগ,local_admin,boundaries,['clothes'],[],Bangladesh,Dhaka,Narayanganj,Rupganj,Bulta,a13a97acaa1ba3400c1fefff95aa4d07
5213552067.0,893cf12a4a3ffff,23.7855387,90.5668388,Rafi Computer,,"Rafi Computer, Rupganj Upazila, Narayanganj District, Dhaka Division, Bangladesh","রাফি কম্পিউটার, রূপগঞ্জ উপজেলা, নারায়নগঞ্জ জেলা, নারায়ণগঞ্জ জেলা, ঢাকা বিভাগ, বাংলাদেশ",রূপগঞ্জ উপজেলা,বাংলাদেশ,ঢাকা বিভাগ,local_admin,boundaries,['electronics'],[],Bangladesh,Dhaka,Narayanganj,Rupganj,Bulta,a13a97acaa1ba3400c1fefff95aa4d07
5213553327.0,893cf12a4a3ffff,23.7856614,90.5669995,Nabila Computer & Electronics,,"Nabila Computer & Electronics, Rupganj Upazila, Narayanganj District, Dhaka Division, Bangladesh","নাবিলা কম্পিউটার ও ইলেকট্রনিক্স, রূপগঞ্জ উপজেলা, নারায়নগঞ্জ জেলা, নারায়ণগঞ্জ জেলা, ঢাকা বিভাগ, বাংলাদেশ",রূপগঞ্জ উপজেলা,বাংলাদেশ,ঢাকা বিভাগ,local_admin,boundaries,['computer'],[],Bangladesh,Dhaka,Narayanganj,Rupganj,Bulta,a13a97acaa1ba3400c1fefff95aa4d07
5213557584.0,893cf12a4a3ffff,23.7851532,90.5664717,,,"Rupganj Upazila, Narayanganj District, Dhaka Division, Bangladesh","রূপগঞ্জ উপজেলা, নারায়নগঞ্জ জেলা, নারায়ণগঞ্জ জেলা, ঢাকা বিভাগ, বাংলাদেশ",রূপগঞ্জ উপজেলা,বাংলাদেশ,ঢাকা বিভাগ,local_admin,boundaries,['atm'],[],Bangladesh,Dhaka,Narayanganj,Rupganj,Bulta,a13a97acaa1ba3400c1fefff95aa4d07
5213557971.0,893cf12a4a3ffff,23.7847332,90.5663079,Dhaka Bank Limited,,"Dhaka Bank Limited, Rupganj Upazila, Narayanganj District, Dhaka Division, Bangladesh","Dhaka াকা ব্যাংক লিমিটেড, রূপগঞ্জ উপজেলা, নারায়নগঞ্জ জেলা, নারায়ণগঞ্জ জেলা, ঢাকা বিভাগ, বাংলাদেশ",রূপগঞ্জ উপজেলা,বাংলাদেশ,ঢাকা বিভাগ,local_admin,boundaries,['bank'],[],Bangladesh,Dhaka,Narayanganj,Rupganj,Bulta,a13a97acaa1ba3400c1fefff95aa4d07
5213558030.0,893cf12a4a3ffff,23.7846835,90.5666742,Premier Bank Limited,,"Premier Bank Limited, Rupganj Upazila, Narayanganj District, Dhaka Division, Bangladesh","প্রিমিয়ার ব্যাংক লিমিটেড, রূপগঞ্জ উপজেলা, নারায়নগঞ্জ জেলা, নারায়ণগঞ্জ জেলা, ঢাকা বিভাগ, বাংলাদেশ",রূপগঞ্জ উপজেলা,বাংলাদেশ,ঢাকা বিভাগ,local_admin,boundaries,['bank'],[],Bangladesh,Dhaka,Narayanganj,Rupganj,Bulta,a13a97acaa1ba3400c1fefff95aa4d07
5213558679.0,893cf12a4bbffff,23.7844608,90.5659769,Uttara Bank Limited,,"Uttara Bank Limited, Rupganj Upazila, Narayanganj District, Dhaka Division, Bangladesh","উত্তরা ব্যাংক লিমিটেড, রূপগঞ্জ উপজেলা, নারায়নগঞ্জ জেলা, নারায়ণগঞ্জ জেলা, ঢাকা বিভাগ, বাংলাদেশ",রূপগঞ্জ উপজেলা,বাংলাদেশ,ঢাকা বিভাগ,local_admin,boundaries,['bank'],[],Bangladesh,Dhaka,Narayanganj,Rupganj,Bulta,a13a97acaa1ba3400c1fefff95aa4d07
5213558722.0,893cf12a4bbffff,23.7845917,90.5660293,City Bank Ltd.,,"City Bank Ltd., Rupganj Upazila, Narayanganj District, Dhaka Division, Bangladesh","সিটি ব্যাংক লিমিটেড, রূপগঞ্জ উপজেলা, নারায়নগঞ্জ জেলা, নারায়ণগঞ্জ জেলা, ঢাকা বিভাগ, বাংলাদেশ",রূপগঞ্জ উপজেলা,বাংলাদেশ,ঢাকা বিভাগ,local_admin,boundaries,['bank'],[],Bangladesh,Dhaka,Narayanganj,Rupganj,Bulta,a13a97acaa1ba3400c1fefff95aa4d07
5213559020.0,893cf12a4bbffff,23.7842944,90.5660438,Jamuna Bank Limited,,"Jamuna Bank Limited, Rupganj Upazila, Narayanganj District, Dhaka Division, Bangladesh","জামুনা ব্যাংক লিমিটেড, রূপগঞ্জ উপজেলা, নারায়নগঞ্জ জেলা, নারায়ণগঞ্জ জেলা, ঢাকা বিভাগ, বাংলাদেশ",রূপগঞ্জ উপজেলা,বাংলাদেশ,ঢাকা বিভাগ,local_admin,boundaries,['bank'],[],Bangladesh,Dhaka,Narayanganj,Rupganj,Bulta,a13a97acaa1ba3400c1fefff95aa4d07
5213559352.0,893cf12a4a3ffff,23.7854752,90.5664328,বাংলাদেশ কৃষি ব্যাংক,['Bangladesh Krishi Bank'],"Bangladesh Agricultural Bank, Rupganj Upazila, Narayanganj District, Dhaka Division, Bangladesh","বাংলাদেশ কৃষি ব্যাংক, রূপগঞ্জ উপজেলা, নারায়নগঞ্জ জেলা, নারায়ণগঞ্জ জেলা, ঢাকা বিভাগ, বাংলাদেশ",রূপগঞ্জ উপজেলা,বাংলাদেশ,ঢাকা বিভাগ,local_admin,boundaries,['bank'],[],Bangladesh,Dhaka,Narayanganj,Rupganj,Bulta,a13a97acaa1ba3400c1fefff95aa4d07
5213559378.0,893cf12a4bbffff,23.7844272,90.5658214,"TATBAZAR,BHULTA DR. TELECOM CENTER",,"TATBAZAR BHULTA DR. TELECOM CENTER, Rupganj Upazila, Narayanganj District, Dhaka Division, Bangladesh","তাতবাজার ভল্টা ডা।টেলিকম কেন্দ্র, রূপগঞ্জ উপজেলা, নারায়নগঞ্জ জেলা, নারায়ণগঞ্জ জেলা, ঢাকা বিভাগ, বাংলাদেশ",রূপগঞ্জ উপজেলা,বাংলাদেশ,ঢাকা বিভাগ,local_admin,boundaries,['electronics'],[],Bangladesh,Dhaka,Narayanganj,Rupganj,Bulta,a13a97acaa1ba3400c1fefff95aa4d07
5213559559.0,893cf12a4bbffff,23.7843712,90.5658351,মা মেডিসিন কর্নার,,"Mother Medicine Corner, Rupganj Upazila, Narayanganj District, Dhaka Division, Bangladesh","মা মেডিসিন কর্নার, রূপগঞ্জ উপজেলা, নারায়নগঞ্জ জেলা, নারায়ণগঞ্জ জেলা, ঢাকা বিভাগ, বাংলাদেশ",রূপগঞ্জ উপজেলা,বাংলাদেশ,ঢাকা বিভাগ,local_admin,boundaries,['pharmacy'],[],Bangladesh,Dhaka,Narayanganj,Rupganj,Bulta,a13a97acaa1ba3400c1fefff95aa4d07
5213559566.0,893cf12a4bbffff,23.7843873,90.5655895,পানসি রেস্টুরেন্ট,,"Pansi Restaurant, Rupganj Upazila, Narayanganj District, Dhaka Division, Bangladesh","পানসি রেস্টুরেন্ট, রূপগঞ্জ উপজেলা, নারায়নগঞ্জ জেলা, নারায়ণগঞ্জ জেলা, ঢাকা বিভাগ, বাংলাদেশ",রূপগঞ্জ উপজেলা,বাংলাদেশ,ঢাকা বিভাগ,local_admin,boundaries,['restaurant'],[],Bangladesh,Dhaka,Narayanganj,Rupganj,Bulta,a13a97acaa1ba3400c1fefff95aa4d07
5213563593.0,893cf12a4bbffff,23.7843329,90.5657578,Sumon Telecom,,"Sumon Telecom, Rupganj Upazila, Narayanganj District, Dhaka Division, Bangladesh","সুমন টেলিকম, রূপগঞ্জ উপজেলা, নারায়নগঞ্জ জেলা, নারায়ণগঞ্জ জেলা, ঢাকা বিভাগ, বাংলাদেশ",রূপগঞ্জ উপজেলা,বাংলাদেশ,ঢাকা বিভাগ,local_admin,boundaries,['mobile_phone'],[],Bangladesh,Dhaka,Narayanganj,Rupganj,Bulta,a13a97acaa1ba3400c1fefff95aa4d07
5213564969.0,893cf12a4bbffff,23.7844912,90.5657042,,,"Rupganj Upazila, Narayanganj District, Dhaka Division, Bangladesh","রূপগঞ্জ উপজেলা, নারায়নগঞ্জ জেলা, নারায়ণগঞ্জ জেলা, ঢাকা বিভাগ, বাংলাদেশ",রূপগঞ্জ উপজেলা,বাংলাদেশ,ঢাকা বিভাগ,local_admin,boundaries,['atm'],[],Bangladesh,Dhaka,Narayanganj,Rupganj,Bulta,a13a97acaa1ba3400c1fefff95aa4d07
5118633080.0,893cf166817ffff,23.6095067,90.6045914,Al Mostafa Printing & Packaging Ltd.,,"Al Mostafa Printing & Packaging Ltd., Sonargaon, Narayanganj District, Dhaka Division, Bangladesh","আল মোস্তফা প্রিন্টিং অ্যান্ড প্যাকেজিং লিমিটেড, নারায়নগঞ্জ জেলা, নারায়ণগঞ্জ জেলা, ঢাকা বিভাগ, বাংলাদেশ",Sonargaon,বাংলাদেশ,ঢাকা বিভাগ,local_admin,boundaries,['employment_agency'],[],Bangladesh,Dhaka,Narayanganj,Sonargaon,Pirijpur,b00c14c426830bccf3757955e9b5d148
5213564973.0,893cf12a4bbffff,23.7845516,90.5654592,M/S KAMAL ELECTRIC & PAINT SUP,,"M/S KAMAL ELECTRIC & PAINT SUP, Rupganj Upazila, Narayanganj District, Dhaka Division, Bangladesh","মেসার্স কমল ইলেকট্রিক এবং পেইন্ট সুপার, রূপগঞ্জ উপজেলা, নারায়নগঞ্জ জেলা, নারায়ণগঞ্জ জেলা, ঢাকা বিভাগ, বাংলাদেশ",রূপগঞ্জ উপজেলা,বাংলাদেশ,ঢাকা বিভাগ,local_admin,boundaries,['paint'],[],Bangladesh,Dhaka,Narayanganj,Rupganj,Bulta,a13a97acaa1ba3400c1fefff95aa4d07
5118692778.0,893cf1668b7ffff,23.6143573,90.6108056,,,"Sonargaon, Narayanganj District, Dhaka Division, Bangladesh","নারায়নগঞ্জ জেলা, নারায়ণগঞ্জ জেলা, ঢাকা বিভাগ, বাংলাদেশ",Sonargaon,বাংলাদেশ,ঢাকা বিভাগ,local_admin,boundaries,['atm'],[],Bangladesh,Dhaka,Narayanganj,Sonargaon,Pirijpur,b00c14c426830bccf3757955e9b5d148
5213565400.0,893cf12a4a3ffff,23.7852516,90.5661318,মেসা্র্স সুমনা ওড়না হাউজ,,"Messers Sumna Orana House, Rupganj Upazila, Narayanganj District, Dhaka Division, Bangladesh","মেসা্র্স সুমনা ওড়না হাউজ, রূপগঞ্জ উপজেলা, নারায়নগঞ্জ জেলা, নারায়ণগঞ্জ জেলা, ঢাকা বিভাগ, বাংলাদেশ",রূপগঞ্জ উপজেলা,বাংলাদেশ,ঢাকা বিভাগ,local_admin,boundaries,['nightclub'],[],Bangladesh,Dhaka,Narayanganj,Rupganj,Bulta,a13a97acaa1ba3400c1fefff95aa4d07
5118695540.0,893cf1668a3ffff,23.6130642,90.6108394,,,"Sonargaon, Narayanganj District, Dhaka Division, Bangladesh","নারায়নগঞ্জ জেলা, নারায়ণগঞ্জ জেলা, ঢাকা বিভাগ, বাংলাদেশ",Sonargaon,বাংলাদেশ,ঢাকা বিভাগ,local_admin,boundaries,['atm'],[],Bangladesh,Dhaka,Narayanganj,Sonargaon,Pirijpur,b00c14c426830bccf3757955e9b5d148
5213569164.0,893cf12a4bbffff,23.784333,90.5654822,Azmir Printing Press & Card Gallery,,"Azmir Printing Press & Card Gallery, Rupganj Upazila, Narayanganj District, Dhaka Division, Bangladesh","আজমির প্রিন্টিং প্রেস এবং কার্ড গ্যালারী, রূপগঞ্জ উপজেলা, নারায়নগঞ্জ জেলা, নারায়ণগঞ্জ জেলা, ঢাকা বিভাগ, বাংলাদেশ",রূপগঞ্জ উপজেলা,বাংলাদেশ,ঢাকা বিভাগ,local_admin,boundaries,['mall'],[],Bangladesh,Dhaka,Narayanganj,Rupganj,Bulta,a13a97acaa1ba3400c1fefff95aa4d07
5213569449.0,893cf12a4bbffff,23.7841199,90.5653397,Bhulta Community Centre and Restaurant,,"Bhulta Community Centre and Restaurant, Rupganj Upazila, Narayanganj District, Dhaka Division, Bangladesh","ভোল্টা কমিউনিটি সেন্টার এবং রেস্তোঁরা, রূপগঞ্জ উপজেলা, নারায়নগঞ্জ জেলা, নারায়ণগঞ্জ জেলা, ঢাকা বিভাগ, বাংলাদেশ",রূপগঞ্জ উপজেলা,বাংলাদেশ,ঢাকা বিভাগ,local_admin,boundaries,['restaurant'],[],Bangladesh,Dhaka,Narayanganj,Rupganj,Bulta,a13a97acaa1ba3400c1fefff95aa4d07
5118698489.0,893cf166817ffff,23.6087709,90.6043656,Islampur Jame Masjid ইসলামপুরে জামে মসজিদ,,"Islampur Jame Masjid, Sonargaon, Narayanganj District, Dhaka Division, Bangladesh","ইসলামপুরে জামে মসজিদ, নারায়নগঞ্জ জেলা, নারায়ণগঞ্জ জেলা, ঢাকা বিভাগ, বাংলাদেশ",Sonargaon,বাংলাদেশ,ঢাকা বিভাগ,local_admin,boundaries,['place_of_worship_muslim'],[],Bangladesh,Dhaka,Narayanganj,Sonargaon,Pirijpur,b00c14c426830bccf3757955e9b5d148
5213573019.0,893cf12a4bbffff,23.7843863,90.5652307,Paradise Cables Ltd.(Bhulta Showroom),,"Paradise Cables Ltd. Bhulta Showroom, Rupganj Upazila, Narayanganj District, Dhaka Division, Bangladesh","প্যারাডাইজ ক্যাবলস লিমিটেড ভোল্টা শোরুম, রূপগঞ্জ উপজেলা, নারায়নগঞ্জ জেলা, নারায়ণগঞ্জ জেলা, ঢাকা বিভাগ, বাংলাদেশ",রূপগঞ্জ উপজেলা,বাংলাদেশ,ঢাকা বিভাগ,local_admin,boundaries,['electronics'],[],Bangladesh,Dhaka,Narayanganj,Rupganj,Bulta,a13a97acaa1ba3400c1fefff95aa4d07
5213573049.0,893cf12a4bbffff,23.7841625,90.5657656,Bhulta Islami Hospital,,"Bhulta Islami Hospital, Rupganj Upazila, Narayanganj District, Dhaka Division, Bangladesh","ভার্টত ইসলামি হাসপাতাল, রূপগঞ্জ উপজেলা, নারায়নগঞ্জ জেলা, নারায়ণগঞ্জ জেলা, ঢাকা বিভাগ, বাংলাদেশ",রূপগঞ্জ উপজেলা,বাংলাদেশ,ঢাকা বিভাগ,local_admin,boundaries,['hospital'],[],Bangladesh,Dhaka,Narayanganj,Rupganj,Bulta,a13a97acaa1ba3400c1fefff95aa4d07
5213585116.0,893cf12a4bbffff,23.7850526,90.5652585,Monir Telecom,,"Monir Telecom, Rupganj Upazila, Narayanganj District, Dhaka Division, Bangladesh","মনির টেলিকম, রূপগঞ্জ উপজেলা, নারায়নগঞ্জ জেলা, নারায়ণগঞ্জ জেলা, ঢাকা বিভাগ, বাংলাদেশ",রূপগঞ্জ উপজেলা,বাংলাদেশ,ঢাকা বিভাগ,local_admin,boundaries,['electronics'],[],Bangladesh,Dhaka,Narayanganj,Rupganj,Bulta,a13a97acaa1ba3400c1fefff95aa4d07
5213637430.0,893cf12a4bbffff,23.7851462,90.5651244,Social Islami Bank Limited,,"Social Islami Bank Limited, Rupganj Upazila, Narayanganj District, Dhaka Division, Bangladesh","সামাজিক ইসলামি ব্যাংক লিমিটেড, রূপগঞ্জ উপজেলা, নারায়নগঞ্জ জেলা, নারায়ণগঞ্জ জেলা, ঢাকা বিভাগ, বাংলাদেশ",রূপগঞ্জ উপজেলা,বাংলাদেশ,ঢাকা বিভাগ,local_admin,boundaries,['bank'],[],Bangladesh,Dhaka,Narayanganj,Rupganj,Bulta,a13a97acaa1ba3400c1fefff95aa4d07
5213639116.0,893cf12a4bbffff,23.7850717,90.5650387,Singer Plus,,"Singer Plus, Rupganj Upazila, Narayanganj District, Dhaka Division, Bangladesh","গায়ক প্লাস, রূপগঞ্জ উপজেলা, নারায়নগঞ্জ জেলা, নারায়ণগঞ্জ জেলা, ঢাকা বিভাগ, বাংলাদেশ",রূপগঞ্জ উপজেলা,বাংলাদেশ,ঢাকা বিভাগ,local_admin,boundaries,['electronics'],[],Bangladesh,Dhaka,Narayanganj,Rupganj,Bulta,a13a97acaa1ba3400c1fefff95aa4d07
5213639320.0,893cf12a4bbffff,23.7841506,90.5648693,Kalapata Restaurant (কলাপাতা রেস্তরাঁ),,"Kalapata Restaurant, Rupganj Upazila, Narayanganj District, Dhaka Division, Bangladesh","কলাপাতা রেস্তরাঁ, রূপগঞ্জ উপজেলা, নারায়নগঞ্জ জেলা, নারায়ণগঞ্জ জেলা, ঢাকা বিভাগ, বাংলাদেশ",রূপগঞ্জ উপজেলা,বাংলাদেশ,ঢাকা বিভাগ,local_admin,boundaries,['restaurant'],[],Bangladesh,Dhaka,Narayanganj,Rupganj,Bulta,a13a97acaa1ba3400c1fefff95aa4d07
5213639322.0,893cf12a4bbffff,23.7850713,90.5651518,Walton Plaza,,"Walton Plaza, Rupganj Upazila, Narayanganj District, Dhaka Division, Bangladesh","ওয়ালটন প্লাজা, রূপগঞ্জ উপজেলা, নারায়নগঞ্জ জেলা, নারায়ণগঞ্জ জেলা, ঢাকা বিভাগ, বাংলাদেশ",রূপগঞ্জ উপজেলা,বাংলাদেশ,ঢাকা বিভাগ,local_admin,boundaries,['electronics'],[],Bangladesh,Dhaka,Narayanganj,Rupganj,Bulta,a13a97acaa1ba3400c1fefff95aa4d07
5213639643.0,893cf12a4bbffff,23.7845855,90.5652836,Bhulta Bus Stand,,"Bhulta Bus Stand, Rupganj Upazila, Narayanganj District, Dhaka Division, Bangladesh","ভার্ট্টা বাস স্ট্যান্ড, রূপগঞ্জ উপজেলা, নারায়নগঞ্জ জেলা, নারায়ণগঞ্জ জেলা, ঢাকা বিভাগ, বাংলাদেশ",রূপগঞ্জ উপজেলা,বাংলাদেশ,ঢাকা বিভাগ,local_admin,boundaries,['bus_station'],[],Bangladesh,Dhaka,Narayanganj,Rupganj,Bulta,a13a97acaa1ba3400c1fefff95aa4d07
5213642015.0,893cf12a4bbffff,23.7847851,90.564515,Bhulta Jame Mosque,,"Bhulta Jame Mosque, Rupganj Upazila, Narayanganj District, Dhaka Division, Bangladesh","ভার্টত জামে মসজিদ, রূপগঞ্জ উপজেলা, নারায়নগঞ্জ জেলা, নারায়ণগঞ্জ জেলা, ঢাকা বিভাগ, বাংলাদেশ",রূপগঞ্জ উপজেলা,বাংলাদেশ,ঢাকা বিভাগ,local_admin,boundaries,['place_of_worship_muslim'],[],Bangladesh,Dhaka,Narayanganj,Rupganj,Bulta,a13a97acaa1ba3400c1fefff95aa4d07
5213644082.0,893cf12a4bbffff,23.784542,90.5647717,Mayer Dowa Confeqtionary & Restaurant,,"Mayer Dowa Confeqtionary & Restaurant, Rupganj Upazila, Narayanganj District, Dhaka Division, Bangladesh","মায়ার ডোয়া কনফেকশনারি এবং রেস্তোঁরা, রূপগঞ্জ উপজেলা, নারায়নগঞ্জ জেলা, নারায়ণগঞ্জ জেলা, ঢাকা বিভাগ, বাংলাদেশ",রূপগঞ্জ উপজেলা,বাংলাদেশ,ঢাকা বিভাগ,local_admin,boundaries,['restaurant'],[],Bangladesh,Dhaka,Narayanganj,Rupganj,Bulta,a13a97acaa1ba3400c1fefff95aa4d07
5213650658.0,893cf12a4bbffff,23.7842755,90.5641893,Vulta Bazar,,"Vulta Bazar, Rupganj Upazila, Narayanganj District, Dhaka Division, Bangladesh","শাল্টা বাজার, রূপগঞ্জ উপজেলা, নারায়নগঞ্জ জেলা, নারায়ণগঞ্জ জেলা, ঢাকা বিভাগ, বাংলাদেশ",রূপগঞ্জ উপজেলা,বাংলাদেশ,ঢাকা বিভাগ,local_admin,boundaries,['marketplace'],[],Bangladesh,Dhaka,Narayanganj,Rupganj,Bulta,a13a97acaa1ba3400c1fefff95aa4d07
5213662441.0,893cf12a4bbffff,23.7838183,90.5647582,,,"Rupganj Upazila, Narayanganj District, Dhaka Division, Bangladesh","রূপগঞ্জ উপজেলা, নারায়নগঞ্জ জেলা, নারায়ণগঞ্জ জেলা, ঢাকা বিভাগ, বাংলাদেশ",রূপগঞ্জ উপজেলা,বাংলাদেশ,ঢাকা বিভাগ,local_admin,boundaries,['atm'],[],Bangladesh,Dhaka,Narayanganj,Rupganj,Bulta,a13a97acaa1ba3400c1fefff95aa4d07
5213667661.0,893cf12a4bbffff,23.7834277,90.5646688,Southeast Bank Limited,,"Southeast Bank Limited, Rupganj Upazila, Narayanganj District, Dhaka Division, Bangladesh","দক্ষিণ -পূর্ব ব্যাংক লিমিটেড, রূপগঞ্জ উপজেলা, নারায়নগঞ্জ জেলা, নারায়ণগঞ্জ জেলা, ঢাকা বিভাগ, বাংলাদেশ",রূপগঞ্জ উপজেলা,বাংলাদেশ,ঢাকা বিভাগ,local_admin,boundaries,['bank'],[],Bangladesh,Dhaka,Narayanganj,Rupganj,Bulta,a13a97acaa1ba3400c1fefff95aa4d07
5213675253.0,893cf12a4bbffff,23.783202,90.5645615,The Farmers Bank Limited,,"The Farmers Bank Limited, Rupganj Upazila, Narayanganj District, Dhaka Division, Bangladesh","ফার্মার্স ব্যাংক লিমিটেড, রূপগঞ্জ উপজেলা, নারায়নগঞ্জ জেলা, নারায়ণগঞ্জ জেলা, ঢাকা বিভাগ, বাংলাদেশ",রূপগঞ্জ উপজেলা,বাংলাদেশ,ঢাকা বিভাগ,local_admin,boundaries,['bank'],[],Bangladesh,Dhaka,Narayanganj,Rupganj,Bulta,a13a97acaa1ba3400c1fefff95aa4d07
5213685068.0,893cf12a4bbffff,23.7826889,90.5641287,,,"Rupganj Upazila, Narayanganj District, Dhaka Division, Bangladesh","রূপগঞ্জ উপজেলা, নারায়নগঞ্জ জেলা, নারায়ণগঞ্জ জেলা, ঢাকা বিভাগ, বাংলাদেশ",রূপগঞ্জ উপজেলা,বাংলাদেশ,ঢাকা বিভাগ,local_admin,boundaries,['atm'],[],Bangladesh,Dhaka,Narayanganj,Rupganj,Bulta,a13a97acaa1ba3400c1fefff95aa4d07
5213685505.0,893cf12a4bbffff,23.782578,90.5640442,Mercantile Bank Limited,,"Mercantile Bank Limited, Rupganj Upazila, Narayanganj District, Dhaka Division, Bangladesh","মার্কেন্টাইল ব্যাংক লিমিটেড, রূপগঞ্জ উপজেলা, নারায়নগঞ্জ জেলা, নারায়ণগঞ্জ জেলা, ঢাকা বিভাগ, বাংলাদেশ",রূপগঞ্জ উপজেলা,বাংলাদেশ,ঢাকা বিভাগ,local_admin,boundaries,['bank'],[],Bangladesh,Dhaka,Narayanganj,Rupganj,Bulta,a13a97acaa1ba3400c1fefff95aa4d07
5213708816.0,893cf12a41bffff,23.7765373,90.5602381,Aukhabo Bazar,,"Aukhabo Bazar, Rupganj Upazila, Narayanganj District, Dhaka Division, Bangladesh","আউখাবো বাজার, রূপগঞ্জ উপজেলা, নারায়নগঞ্জ জেলা, নারায়ণগঞ্জ জেলা, ঢাকা বিভাগ, বাংলাদেশ",রূপগঞ্জ উপজেলা,বাংলাদেশ,ঢাকা বিভাগ,local_admin,boundaries,['marketplace'],[],Bangladesh,Dhaka,Narayanganj,Rupganj,Bulta,a13a97acaa1ba3400c1fefff95aa4d07
5213861762.0,893cf12a6c3ffff,23.7545465,90.5454702,,,"Rupganj Upazila, Narayanganj District, Dhaka Division, Bangladesh","রূপগঞ্জ উপজেলা, নারায়নগঞ্জ জেলা, নারায়ণগঞ্জ জেলা, ঢাকা বিভাগ, বাংলাদেশ",রূপগঞ্জ উপজেলা,বাংলাদেশ,ঢাকা বিভাগ,local_admin,boundaries,['atm'],[],Bangladesh,Dhaka,Narayanganj,Rupganj,TaraboPaurashava,386c650fd523070ac7a1dab01c14680d
5215567978.0,893cf139b73ffff,23.743435,90.5328664,B Brothers Garments Bus Stop,,"B Brothers Garments Bus Stop, Rupganj Upazila, Narayanganj District, Dhaka Division, Bangladesh","বি ব্রাদার্স গার্মেন্টস বাস স্টপ, রূপগঞ্জ উপজেলা, নারায়নগঞ্জ জেলা, নারায়ণগঞ্জ জেলা, ঢাকা বিভাগ, বাংলাদেশ",রূপগঞ্জ উপজেলা,বাংলাদেশ,ঢাকা বিভাগ,local_admin,boundaries,['bus_station'],[],Bangladesh,Dhaka,Narayanganj,Rupganj,TaraboPaurashava,386c650fd523070ac7a1dab01c14680d
5215606222.0,893cf139b43ffff,23.7406541,90.525535,MIDGLOBE CHINESE,,"MIDGLOBE CHINESE, Rupganj Upazila, Narayanganj District, Dhaka Division, Bangladesh","মিডগ্লোব চাইনিজ, রূপগঞ্জ উপজেলা, নারায়নগঞ্জ জেলা, নারায়ণগঞ্জ জেলা, ঢাকা বিভাগ, বাংলাদেশ",রূপগঞ্জ উপজেলা,বাংলাদেশ,ঢাকা বিভাগ,local_admin,boundaries,['restaurant'],[],Bangladesh,Dhaka,Narayanganj,Rupganj,TaraboPaurashava,386c650fd523070ac7a1dab01c14680d
5215607949.0,893cf139b43ffff,23.7408693,90.5264076,"bKash Plus - Rupganj, Narayanganj",,"bKash Plus - Rupganj Narayanganj, Rupganj Upazila, Narayanganj District, Dhaka Division, Bangladesh","বেকশ প্লাস - রূপগঞ্জ নারায়ঙ্গঞ্জ, রূপগঞ্জ উপজেলা, নারায়নগঞ্জ জেলা, নারায়ণগঞ্জ জেলা, ঢাকা বিভাগ, বাংলাদেশ",রূপগঞ্জ উপজেলা,বাংলাদেশ,ঢাকা বিভাগ,local_admin,boundaries,['mobile_phone'],[],Bangladesh,Dhaka,Narayanganj,Rupganj,TaraboPaurashava,386c650fd523070ac7a1dab01c14680d
5215613921.0,893cf139b43ffff,23.7407764,90.5256758,Habib Convention Center,,"Habib Convention Center, Rupganj Upazila, Narayanganj District, Dhaka Division, Bangladesh","হাবিব কনভেনশন সেন্টার, রূপগঞ্জ উপজেলা, নারায়নগঞ্জ জেলা, নারায়ণগঞ্জ জেলা, ঢাকা বিভাগ, বাংলাদেশ",রূপগঞ্জ উপজেলা,বাংলাদেশ,ঢাকা বিভাগ,local_admin,boundaries,['community_centre'],[],Bangladesh,Dhaka,Narayanganj,Rupganj,TaraboPaurashava,386c650fd523070ac7a1dab01c14680d
5215615034.0,893cf139b43ffff,23.7405328,90.5255494,,,"Rupganj Upazila, Narayanganj District, Dhaka Division, Bangladesh","রূপগঞ্জ উপজেলা, নারায়নগঞ্জ জেলা, নারায়ণগঞ্জ জেলা, ঢাকা বিভাগ, বাংলাদেশ",রূপগঞ্জ উপজেলা,বাংলাদেশ,ঢাকা বিভাগ,local_admin,boundaries,['atm'],[],Bangladesh,Dhaka,Narayanganj,Rupganj,TaraboPaurashava,386c650fd523070ac7a1dab01c14680d
5215615035.0,893cf139b43ffff,23.7402979,90.5254386,Rupshi South Bound Bus Stop,,"Rupshi South Bound Bus Stop, Rupganj Upazila, Narayanganj District, Dhaka Division, Bangladesh","রুপশী দক্ষিণ বাউন্ড বাস স্টপ, রূপগঞ্জ উপজেলা, নারায়নগঞ্জ জেলা, নারায়ণগঞ্জ জেলা, ঢাকা বিভাগ, বাংলাদেশ",রূপগঞ্জ উপজেলা,বাংলাদেশ,ঢাকা বিভাগ,local_admin,boundaries,['bus_station'],[],Bangladesh,Dhaka,Narayanganj,Rupganj,TaraboPaurashava,386c650fd523070ac7a1dab01c14680d
5215615040.0,893cf139b4bffff,23.7401021,90.5255339,Jamuna Bank Limited,,"Jamuna Bank Limited, Rupganj Upazila, Narayanganj District, Dhaka Division, Bangladesh","জামুনা ব্যাংক লিমিটেড, রূপগঞ্জ উপজেলা, নারায়নগঞ্জ জেলা, নারায়ণগঞ্জ জেলা, ঢাকা বিভাগ, বাংলাদেশ",রূপগঞ্জ উপজেলা,বাংলাদেশ,ঢাকা বিভাগ,local_admin,boundaries,['bank'],[],Bangladesh,Dhaka,Narayanganj,Rupganj,TaraboPaurashava,386c650fd523070ac7a1dab01c14680d
5215616998.0,893cf139b43ffff,23.7405242,90.5253396,,,"Rupganj Upazila, Narayanganj District, Dhaka Division, Bangladesh","রূপগঞ্জ উপজেলা, নারায়নগঞ্জ জেলা, নারায়ণগঞ্জ জেলা, ঢাকা বিভাগ, বাংলাদেশ",রূপগঞ্জ উপজেলা,বাংলাদেশ,ঢাকা বিভাগ,local_admin,boundaries,['atm'],[],Bangladesh,Dhaka,Narayanganj,Rupganj,TaraboPaurashava,386c650fd523070ac7a1dab01c14680d
5215624752.0,893cf139b5bffff,23.7402931,90.5251477,Shaheed Bakul Monument,,"Shaheed Bakul Monument, Rupganj Upazila, Narayanganj District, Dhaka Division, Bangladesh","শহীদ বাকুল স্মৃতিস্তম্ভ, রূপগঞ্জ উপজেলা, নারায়নগঞ্জ জেলা, নারায়ণগঞ্জ জেলা, ঢাকা বিভাগ, বাংলাদেশ",রূপগঞ্জ উপজেলা,বাংলাদেশ,ঢাকা বিভাগ,local_admin,boundaries,['monument'],[],Bangladesh,Dhaka,Narayanganj,Rupganj,TaraboPaurashava,386c650fd523070ac7a1dab01c14680d
5215626276.0,893cf139b5bffff,23.7400149,90.5250549,Rupshi North Bound Bus Stop,,"Rupshi North Bound Bus Stop, Rupganj Upazila, Narayanganj District, Dhaka Division, Bangladesh","রুপশী উত্তর বাউন্ড বাস স্টপ, রূপগঞ্জ উপজেলা, নারায়নগঞ্জ জেলা, নারায়ণগঞ্জ জেলা, ঢাকা বিভাগ, বাংলাদেশ",রূপগঞ্জ উপজেলা,বাংলাদেশ,ঢাকা বিভাগ,local_admin,boundaries,['bus_station'],[],Bangladesh,Dhaka,Narayanganj,Rupganj,TaraboPaurashava,386c650fd523070ac7a1dab01c14680d
5215728462.0,893cf12b4d7ffff,23.728668,90.5165424,Borabo Bus Stand,,"Borabo Bus Stand, Rupganj Upazila, Narayanganj District, Dhaka Division, Bangladesh","বোরাবো বাস স্ট্যান্ড, রূপগঞ্জ উপজেলা, নারায়নগঞ্জ জেলা, নারায়ণগঞ্জ জেলা, ঢাকা বিভাগ, বাংলাদেশ",রূপগঞ্জ উপজেলা,বাংলাদেশ,ঢাকা বিভাগ,local_admin,boundaries,['bus_station'],[],Bangladesh,Dhaka,Narayanganj,Rupganj,TaraboPaurashava,386c650fd523070ac7a1dab01c14680d
