osm_id,h3level9,lat,lon,name,alt_names,name_en,name_bn,local_admin_name,admin0_name,admin2_name,addr_level,poi_addr_match,poi_class,poi_keywords,country,division,district,thana,union,region_hash
280205290.0,893cf550087ffff,24.380248215044745,88.91066207529175,ঢাকা - রাজশাহী মহাসড়ক,"['Rajshahi - Dhaka Highway', 'Dhaka - Rajshahi Highway']","Dhaka - Rajshahi Highway, -, Puthia, Rajshahi District, Rajshahi Division, Bangladesh","ঢাকা রাজশাহী মহাসড়ক, রাজশাহী জেলা, রাজশাহী বিভাগ, বাংলাদেশ",Puthia,বাংলাদেশ,রাজশাহী বিভাগ,street,,,,Bangladesh,Rajshahi,Natore,NatoreSadar,Kafuria,7fe8d9ee137525ddd32a93d84493e120
280205290.0,893cf550087ffff,24.380248215044745,88.91066207529175,ঢাকা - রাজশাহী মহাসড়ক,"['Rajshahi - Dhaka Highway', 'Dhaka - Rajshahi Highway']","Dhaka - Rajshahi Highway, -, Natore, Rajshahi Division, Bangladesh","ঢাকা রাজশাহী মহাসড়ক, রাজশাহী বিভাগ, বাংলাদেশ",Natore,বাংলাদেশ,রাজশাহী বিভাগ,street,,,,Bangladesh,Rajshahi,Natore,NatoreSadar,Kafuria,7fe8d9ee137525ddd32a93d84493e120
280205290.0,893cf550087ffff,24.380248215044745,88.91066207529175,ঢাকা - রাজশাহী মহাসড়ক,"['Rajshahi - Dhaka Highway', 'Dhaka - Rajshahi Highway']","Dhaka - Rajshahi Highway, -, Puthia, Natore District, Rajshahi Division, Bangladesh","ঢাকা রাজশাহী মহাসড়ক, নাটোর জেলা, রাজশাহী বিভাগ, বাংলাদেশ",Puthia,বাংলাদেশ,রাজশাহী বিভাগ,street,,,,Bangladesh,Rajshahi,Natore,NatoreSadar,Kafuria,7fe8d9ee137525ddd32a93d84493e120
2349386851.0,893cf51985bffff,24.5135663,89.1461038,Singra Upazila Health Complex,,"Singra Upazila Health Complex, Singra, Natore District, Rajshahi Division, Bangladesh","সিংরা উপজিলা স্বাস্থ্য কমপ্লেক্স, নাটোর জেলা, রাজশাহী বিভাগ, বাংলাদেশ",Singra,বাংলাদেশ,রাজশাহী বিভাগ,local_admin,boundaries,['hospital'],[],Bangladesh,Rajshahi,Natore,Singra,SingraPaurashava,57f0e84245c59cc1bdc7d551ce273095
2613295213.0,893cf519a8bffff,24.5046022,89.144603,উপজেলা কেন্দ্রীয় জামে মসজিদ,['Upazila kendriyo Jame Masjid'],"Upazila Central Jame Mosque, Singra, Natore District, Rajshahi Division, Bangladesh","উপজেলা কেন্দ্রীয় জামে মসজিদ, নাটোর জেলা, রাজশাহী বিভাগ, বাংলাদেশ",Singra,বাংলাদেশ,রাজশাহী বিভাগ,local_admin,boundaries,['place_of_worship_muslim'],[],Bangladesh,Rajshahi,Natore,Singra,SingraPaurashava,57f0e84245c59cc1bdc7d551ce273095
2613296895.0,893cf519a8fffff,24.5049781,89.145472,UNO Office,,"UNO Office, Singra, Natore District, Rajshahi Division, Bangladesh","ইউএনও অফিস, নাটোর জেলা, রাজশাহী বিভাগ, বাংলাদেশ",Singra,বাংলাদেশ,রাজশাহী বিভাগ,local_admin,boundaries,['government'],[],Bangladesh,Rajshahi,Natore,Singra,SingraPaurashava,57f0e84245c59cc1bdc7d551ce273095
5124030379.0,893cf54447bffff,24.3212296,89.1915743,Jame mosjid,,"Jame mosjid, Baraigram, Natore District, Rajshahi Division, Bangladesh","জামে মোসজিড, নাটোর জেলা, রাজশাহী বিভাগ, বাংলাদেশ",Baraigram,বাংলাদেশ,রাজশাহী বিভাগ,local_admin,boundaries,['place_of_worship_muslim'],[],Bangladesh,Rajshahi,Natore,Baraigram,BaraigramPaurashava,78ffffcb4c6498db072d74712723ee84
5124035266.0,893cf547177ffff,24.3188217,89.1717318,Razzaker moar bus stand,,"Razzaker moar bus stand, Baraigram, Natore District, Rajshahi Division, Bangladesh","রাজহর মোয়ার বাস স্ট্যান্ড, নাটোর জেলা, রাজশাহী বিভাগ, বাংলাদেশ",Baraigram,বাংলাদেশ,রাজশাহী বিভাগ,street,boundaries,['bus_stop'],[],Bangladesh,Rajshahi,Natore,Baraigram,BaraigramPaurashava,78ffffcb4c6498db072d74712723ee84
5124036073.0,893cf547003ffff,24.3157157,89.1423005,Parkol Bazar,,"Parkol Bazar, Baraigram, Natore District, Rajshahi Division, Bangladesh","পার্কল বাজার, নাটোর জেলা, রাজশাহী বিভাগ, বাংলাদেশ",Baraigram,বাংলাদেশ,রাজশাহী বিভাগ,local_admin,boundaries,['marketplace'],[],Bangladesh,Rajshahi,Natore,Baraigram,Majgaon,fd2af4647d74c7b6756caef50fcf761f
5124036896.0,893cf547023ffff,24.3169873,89.1511254,Baraigram Thana Mor Bus Stand বড়াইগ্রাম থানামোড় বাস স্ট্যান্ড,,"Baraigram Thana Mor Bus Stand, Baraigram, Natore District, Rajshahi Division, Bangladesh","বড়াইগ্রাম থানামোড় বাস স্ট্যান্ড, নাটোর জেলা, রাজশাহী বিভাগ, বাংলাদেশ",Baraigram,বাংলাদেশ,রাজশাহী বিভাগ,street,boundaries,['bus_stop'],[],Bangladesh,Rajshahi,Natore,Baraigram,BaraigramPaurashava,78ffffcb4c6498db072d74712723ee84
5124040253.0,893cf5470cfffff,24.3155066,89.1340887,Filling station,,"Filling station, Baraigram, Natore District, Rajshahi Division, Bangladesh","পেট্রল - পাস্প, নাটোর জেলা, রাজশাহী বিভাগ, বাংলাদেশ",Baraigram,বাংলাদেশ,রাজশাহী বিভাগ,local_admin,boundaries,['fuel'],[],Bangladesh,Rajshahi,Natore,Baraigram,Majgaon,fd2af4647d74c7b6756caef50fcf761f
5153234645.0,893cf54c443ffff,24.1683569,89.1416573,Rajapur Bus Station,,"Rajapur Bus Station, Baraigram, Natore District, Rajshahi Division, Bangladesh","রাজাপুর বাস স্টেশন, নাটোর জেলা, রাজশাহী বিভাগ, বাংলাদেশ",Baraigram,বাংলাদেশ,রাজশাহী বিভাগ,street,boundaries,['bus_stop'],[],Bangladesh,Rajshahi,Natore,Baraigram,Gopalpur,21a5a1032eabbf04d14955a3483a1c0c
5153236221.0,893cf54c45bffff,24.168,89.140921,Rajapur Kacha Bazar,,"Rajapur Kacha Bazar, Baraigram, Natore District, Rajshahi Division, Bangladesh","রাজাপুর কাচা বাজার, নাটোর জেলা, রাজশাহী বিভাগ, বাংলাদেশ",Baraigram,বাংলাদেশ,রাজশাহী বিভাগ,local_admin,boundaries,['marketplace'],[],Bangladesh,Rajshahi,Natore,Baraigram,Gopalpur,21a5a1032eabbf04d14955a3483a1c0c
5153239261.0,893cf54e22bffff,24.1869389,89.1385489,Munshi Para Jame Mosjid মুন্সী পাড়া জামে মসজিদ,,"Munshi Para Jame Mosjid, Baraigram, Natore District, Rajshahi Division, Bangladesh","মুন্সী পাড়া জামে মসজিদ, নাটোর জেলা, রাজশাহী বিভাগ, বাংলাদেশ",Baraigram,বাংলাদেশ,রাজশাহী বিভাগ,local_admin,boundaries,['place_of_worship_muslim'],[],Bangladesh,Rajshahi,Natore,Baraigram,Gopalpur,21a5a1032eabbf04d14955a3483a1c0c
5153239579.0,893cf54e23bffff,24.1911297,89.1367006,মেসার্স সুপ্রভাত হোটেল,,"Messrs. Suprabhat Hotel, Baraigram, Natore District, Rajshahi Division, Bangladesh","মেসার্স সুপ্রভাত হোটেল, নাটোর জেলা, রাজশাহী বিভাগ, বাংলাদেশ",Baraigram,বাংলাদেশ,রাজশাহী বিভাগ,local_admin,boundaries,['restaurant'],[],Bangladesh,Rajshahi,Natore,Baraigram,Gopalpur,21a5a1032eabbf04d14955a3483a1c0c
5153240604.0,893cf54e23bffff,24.1907481,89.137549,Gopalpur Mosque,,"Gopalpur Mosque, Baraigram, Natore District, Rajshahi Division, Bangladesh","গোপালপুর মসজিদ, নাটোর জেলা, রাজশাহী বিভাগ, বাংলাদেশ",Baraigram,বাংলাদেশ,রাজশাহী বিভাগ,local_admin,boundaries,['place_of_worship_muslim'],[],Bangladesh,Rajshahi,Natore,Baraigram,Gopalpur,21a5a1032eabbf04d14955a3483a1c0c
5153241122.0,893cf54e2a3ffff,24.1990954,89.1350041,Shahin Tailors & Cloth Store,,"Shahin Tailors & Cloth Store, Baraigram, Natore District, Rajshahi Division, Bangladesh","শাহিন টেইলার্স এবং কাপড়ের দোকান, নাটোর জেলা, রাজশাহী বিভাগ, বাংলাদেশ",Baraigram,বাংলাদেশ,রাজশাহী বিভাগ,local_admin,boundaries,['clothes'],[],Bangladesh,Rajshahi,Natore,Baraigram,Gopalpur,21a5a1032eabbf04d14955a3483a1c0c
5153258014.0,893cf54e403ffff,24.2301279,89.1192555,ধানাইদহ বাজার,,"Dhanaidah Bazar, Baraigram, Natore District, Rajshahi Division, Bangladesh","ধানাইদহ বাজার, নাটোর জেলা, রাজশাহী বিভাগ, বাংলাদেশ",Baraigram,বাংলাদেশ,রাজশাহী বিভাগ,local_admin,boundaries,['marketplace'],[],Bangladesh,Rajshahi,Natore,Baraigram,Nagar,fb91d0886ea3670df4dac1f142ec368f
5153258015.0,893cf54e407ffff,24.2304007,89.1199398,"Post E Center, Panchbaria-6623",,"Post E Center Panchbaria-6623, Baraigram, Natore District, Rajshahi Division, Bangladesh","পোস্ট ই সেন্টার পঞ্চবারিয়া -6623, নাটোর জেলা, রাজশাহী বিভাগ, বাংলাদেশ",Baraigram,বাংলাদেশ,রাজশাহী বিভাগ,local_admin,boundaries,['post_office'],[],Bangladesh,Rajshahi,Natore,Baraigram,Nagar,fb91d0886ea3670df4dac1f142ec368f
5153263792.0,893cf54e407ffff,24.230635,89.1201243,জনতা ব্যাংক লিমিটেড,['Janata Bank Limited'],"Janata Bank Limited, Baraigram, Natore District, Rajshahi Division, Bangladesh","জনতা ব্যাংক লিমিটেড, নাটোর জেলা, রাজশাহী বিভাগ, বাংলাদেশ",Baraigram,বাংলাদেশ,রাজশাহী বিভাগ,local_admin,boundaries,['bank'],[],Bangladesh,Rajshahi,Natore,Baraigram,Nagar,fb91d0886ea3670df4dac1f142ec368f
5153265962.0,893cf540a2bffff,24.2403515,89.1065965,Filling station,,"Filling station, Baraigram, Natore District, Rajshahi Division, Bangladesh","পেট্রল - পাস্প, নাটোর জেলা, রাজশাহী বিভাগ, বাংলাদেশ",Baraigram,বাংলাদেশ,রাজশাহী বিভাগ,local_admin,boundaries,['fuel'],[],Bangladesh,Rajshahi,Natore,Lalpur,KadamChilan,abd492de33bc21829e0bec0350b40eb9
5153267007.0,893cf54e417ffff,24.2325681,89.1196764,কয়েন বাজার,,"Coin market, Baraigram, Natore District, Rajshahi Division, Bangladesh","কয়েন বাজার, নাটোর জেলা, রাজশাহী বিভাগ, বাংলাদেশ",Baraigram,বাংলাদেশ,রাজশাহী বিভাগ,local_admin,boundaries,['marketplace'],[],Bangladesh,Rajshahi,Natore,Baraigram,Nagar,fb91d0886ea3670df4dac1f142ec368f
5153463548.0,893cf519acfffff,24.4994502,89.1431155,Bus Stand Fish Market বাস স্ট্যান্ড মাছের বাজার,,"Bus Stand Fish Market, Singra, Natore District, Rajshahi Division, Bangladesh","বাস স্ট্যান্ড মাছের বাজার, নাটোর জেলা, রাজশাহী বিভাগ, বাংলাদেশ",Singra,বাংলাদেশ,রাজশাহী বিভাগ,local_admin,boundaries,['marketplace'],[],Bangladesh,Rajshahi,Natore,Singra,SingraPaurashava,57f0e84245c59cc1bdc7d551ce273095
5153465703.0,893cf519adbffff,24.4999481,89.1362641,Kobir Garrage,,"Kobir Garrage, Singra, Natore District, Rajshahi Division, Bangladesh","কবির গ্যারেজ, নাটোর জেলা, রাজশাহী বিভাগ, বাংলাদেশ",Singra,বাংলাদেশ,রাজশাহী বিভাগ,local_admin,boundaries,['car_repair'],[],Bangladesh,Rajshahi,Natore,Singra,SingraPaurashava,57f0e84245c59cc1bdc7d551ce273095
5153466101.0,893cf519acfffff,24.5000543,89.1411221,Khokon Garrage,,"Khokon Garrage, Singra, Natore District, Rajshahi Division, Bangladesh","খোকন গ্যারেজ, নাটোর জেলা, রাজশাহী বিভাগ, বাংলাদেশ",Singra,বাংলাদেশ,রাজশাহী বিভাগ,local_admin,boundaries,['car_repair'],[],Bangladesh,Rajshahi,Natore,Singra,SingraPaurashava,57f0e84245c59cc1bdc7d551ce273095
5153467121.0,893cf519acfffff,24.5000344,89.1429,Singra Bus Stop,,"Singra Bus Stop, Singra, Natore District, Rajshahi Division, Bangladesh","সিংরা বাস স্টপ, নাটোর জেলা, রাজশাহী বিভাগ, বাংলাদেশ",Singra,বাংলাদেশ,রাজশাহী বিভাগ,street,boundaries,['bus_stop'],[],Bangladesh,Rajshahi,Natore,Singra,SingraPaurashava,57f0e84245c59cc1bdc7d551ce273095
5153475380.0,893cf519a1bffff,24.5000629,89.1435033,Selim Restaurant,,"Selim Restaurant, Singra, Natore District, Rajshahi Division, Bangladesh","সেলিম রেস্তোঁরা, নাটোর জেলা, রাজশাহী বিভাগ, বাংলাদেশ",Singra,বাংলাদেশ,রাজশাহী বিভাগ,local_admin,boundaries,['restaurant'],[],Bangladesh,Rajshahi,Natore,Singra,SingraPaurashava,57f0e84245c59cc1bdc7d551ce273095
5153478548.0,893cf519a1bffff,24.4998307,89.1434098,Kanak Tea Store,,"Kanak Tea Store, Singra, Natore District, Rajshahi Division, Bangladesh","কানাক চা স্টোর, নাটোর জেলা, রাজশাহী বিভাগ, বাংলাদেশ",Singra,বাংলাদেশ,রাজশাহী বিভাগ,local_admin,boundaries,['tea'],[],Bangladesh,Rajshahi,Natore,Singra,SingraPaurashava,57f0e84245c59cc1bdc7d551ce273095
5153478576.0,893cf519a1bffff,24.500102,89.1432325,কর্মসংস্থান ব্যাংক,['Karmasangsthan Bank'],"The employment bank, Singra, Natore District, Rajshahi Division, Bangladesh","কর্মসংস্থান ব্যাংক, নাটোর জেলা, রাজশাহী বিভাগ, বাংলাদেশ",Singra,বাংলাদেশ,রাজশাহী বিভাগ,local_admin,boundaries,['bank'],[],Bangladesh,Rajshahi,Natore,Singra,SingraPaurashava,57f0e84245c59cc1bdc7d551ce273095
5154620232.0,893cf519a03ffff,24.5011265,89.1474813,Zahidul Tea Stall,,"Zahidul Tea Stall, Singra, Natore District, Rajshahi Division, Bangladesh","জাহিদুল চা স্টল, নাটোর জেলা, রাজশাহী বিভাগ, বাংলাদেশ",Singra,বাংলাদেশ,রাজশাহী বিভাগ,local_admin,boundaries,['tea'],[],Bangladesh,Rajshahi,Natore,Singra,SingraPaurashava,57f0e84245c59cc1bdc7d551ce273095
5154622298.0,893cf518a37ffff,24.5554051,89.1967323,জামতলি বাজার,"['জামতলি বাজার', 'Jamtoli Bazar']","Jamtali Bazar, Singra, Natore District, Rajshahi Division, Bangladesh","জামতলি বাজার, নাটোর জেলা, রাজশাহী বিভাগ, বাংলাদেশ",Singra,বাংলাদেশ,রাজশাহী বিভাগ,local_admin,boundaries,['marketplace'],[],Bangladesh,Rajshahi,Natore,Singra,Chaugram,c0b9ba2903a37df0208dec7a473370cb
5154632793.0,893cf519a03ffff,24.5022294,89.1479736,Bipu Pharmacy বিপু ফার্মেসী,,"Bipu Pharmacy, Singra, Natore District, Rajshahi Division, Bangladesh","বিপু ফার্মেসী, নাটোর জেলা, রাজশাহী বিভাগ, বাংলাদেশ",Singra,বাংলাদেশ,রাজশাহী বিভাগ,local_admin,boundaries,['pharmacy'],[],Bangladesh,Rajshahi,Natore,Singra,SingraPaurashava,57f0e84245c59cc1bdc7d551ce273095
5154642782.0,893cf5199b7ffff,24.5408305,89.1844325,Chowgram Bus Stand,,"Chowgram Bus Stand, Singra, Natore District, Rajshahi Division, Bangladesh","চাউগ্রাম বাস স্ট্যান্ড, নাটোর জেলা, রাজশাহী বিভাগ, বাংলাদেশ",Singra,বাংলাদেশ,রাজশাহী বিভাগ,street,boundaries,['bus_stop'],[],Bangladesh,Rajshahi,Natore,Singra,Chaugram,c0b9ba2903a37df0208dec7a473370cb
5200768583.0,893cf518c4bffff,24.5769424,89.1674304,Soair Hori Mandir,,"Soair Hori Mandir, Singra, Natore District, Rajshahi Division, Bangladesh","সোয়ার হোরি মন্দির, নাটোর জেলা, রাজশাহী বিভাগ, বাংলাদেশ",Singra,বাংলাদেশ,রাজশাহী বিভাগ,local_admin,boundaries,['place_of_worship'],[],Bangladesh,Rajshahi,Natore,Singra,RamanandaKhajura,4b03a22e051f41db9266c2940b620dd1
5200768590.0,893cf518c5bffff,24.5784921,89.1648973,Uttarpara Mosque,,"Uttarpara Mosque, Singra, Natore District, Rajshahi Division, Bangladesh","উত্তরাপালা মসজিদ, নাটোর জেলা, রাজশাহী বিভাগ, বাংলাদেশ",Singra,বাংলাদেশ,রাজশাহী বিভাগ,local_admin,boundaries,['place_of_worship_muslim'],[],Bangladesh,Rajshahi,Natore,Singra,RamanandaKhajura,4b03a22e051f41db9266c2940b620dd1
5200773088.0,893cf518c43ffff,24.5798474,89.1665975,Jhorpara Mosque,,"Jhorpara Mosque, Singra, Natore District, Rajshahi Division, Bangladesh","ঝোরপেরা মসজিদ, নাটোর জেলা, রাজশাহী বিভাগ, বাংলাদেশ",Singra,বাংলাদেশ,রাজশাহী বিভাগ,local_admin,boundaries,['place_of_worship_muslim'],[],Bangladesh,Rajshahi,Natore,Singra,RamanandaKhajura,4b03a22e051f41db9266c2940b620dd1
5200777405.0,893cf518c4bffff,24.5771665,89.1666726,Shaheen Tuhin Traders,,"Shaheen Tuhin Traders, Singra, Natore District, Rajshahi Division, Bangladesh","শাহীন তুহিন ব্যবসায়ী, নাটোর জেলা, রাজশাহী বিভাগ, বাংলাদেশ",Singra,বাংলাদেশ,রাজশাহী বিভাগ,local_admin,boundaries,['trade'],[],Bangladesh,Rajshahi,Natore,Singra,RamanandaKhajura,4b03a22e051f41db9266c2940b620dd1
5200778916.0,893cf518c4bffff,24.577155,89.1670529,Poresh Tea Stall,,"Poresh Tea Stall, Singra, Natore District, Rajshahi Division, Bangladesh","পোরেশ চা স্টল, নাটোর জেলা, রাজশাহী বিভাগ, বাংলাদেশ",Singra,বাংলাদেশ,রাজশাহী বিভাগ,local_admin,boundaries,['tea'],[],Bangladesh,Rajshahi,Natore,Singra,RamanandaKhajura,4b03a22e051f41db9266c2940b620dd1
5200791625.0,893cf518eb3ffff,24.5759545,89.1685936,Soair Community Clinic,,"Soair Community Clinic, Singra, Natore District, Rajshahi Division, Bangladesh","সোয়ার কমিউনিটি ক্লিনিক, নাটোর জেলা, রাজশাহী বিভাগ, বাংলাদেশ",Singra,বাংলাদেশ,রাজশাহী বিভাগ,local_admin,boundaries,['clinic'],[],Bangladesh,Rajshahi,Natore,Singra,RamanandaKhajura,4b03a22e051f41db9266c2940b620dd1
5200796923.0,893cf518e87ffff,24.5765194,89.1653917,Soair Primary School,,"Soair Primary School, Singra, Natore District, Rajshahi Division, Bangladesh","সোয়ার প্রাথমিক বিদ্যালয়, নাটোর জেলা, রাজশাহী বিভাগ, বাংলাদেশ",Singra,বাংলাদেশ,রাজশাহী বিভাগ,local_admin,boundaries,['school'],[],Bangladesh,Rajshahi,Natore,Singra,RamanandaKhajura,4b03a22e051f41db9266c2940b620dd1
5219734021.0,893cf518a47ffff,24.5456593,89.1834156,,['My Sweet home'],,,Singra,বাংলাদেশ,রাজশাহী বিভাগ,housenumber,sameSource,['guest_house'],[],Bangladesh,Rajshahi,Natore,Singra,Chaugram,c0b9ba2903a37df0208dec7a473370cb
5629771260.0,893cf519ac7ffff,24.5025741,89.1439057,Uttara Electrical Store,,"Uttara Electrical Store, Singra, Natore District, Rajshahi Division, Bangladesh","উত্তরা বৈদ্যুতিক দোকান, নাটোর জেলা, রাজশাহী বিভাগ, বাংলাদেশ",Singra,বাংলাদেশ,রাজশাহী বিভাগ,local_admin,boundaries,['electronics'],[],Bangladesh,Rajshahi,Natore,Singra,SingraPaurashava,57f0e84245c59cc1bdc7d551ce273095
5650181555.0,893cf519a13ffff,24.5032633,89.1444602,গ্রামীণ ব্যাংক,['Grameen Bank'],"Grameen Bank, Singra, Natore District, Rajshahi Division, Bangladesh","গ্রামীণ ব্যাংক, নাটোর জেলা, রাজশাহী বিভাগ, বাংলাদেশ",Singra,বাংলাদেশ,রাজশাহী বিভাগ,local_admin,boundaries,['bank'],[],Bangladesh,Rajshahi,Natore,Singra,SingraPaurashava,57f0e84245c59cc1bdc7d551ce273095
5650181556.0,893cf519a13ffff,24.503079,89.144102,Agrani Bank,,"Agrani Bank, Singra, Natore District, Rajshahi Division, Bangladesh","আগরানী ব্যাংক, নাটোর জেলা, রাজশাহী বিভাগ, বাংলাদেশ",Singra,বাংলাদেশ,রাজশাহী বিভাগ,local_admin,boundaries,['bank'],[],Bangladesh,Rajshahi,Natore,Singra,SingraPaurashava,57f0e84245c59cc1bdc7d551ce273095
5650181658.0,893cf519a03ffff,24.5006347,89.148099,রঞ্জিত হেয়ার ড্রেসার,,"Ranjit Hair Dresser, Singra, Natore District, Rajshahi Division, Bangladesh","রঞ্জিত হেয়ার ড্রেসার, নাটোর জেলা, রাজশাহী বিভাগ, বাংলাদেশ",Singra,বাংলাদেশ,রাজশাহী বিভাগ,local_admin,boundaries,['hairdresser'],[],Bangladesh,Rajshahi,Natore,Singra,SingraPaurashava,57f0e84245c59cc1bdc7d551ce273095
5651488153.0,893cf519acfffff,24.5001769,89.1421059,Bus-stand Jame Mosjid বাসস্ট্যান্ডের জামে মসজিদ,,"Bus-stand Jame Mosjid, Singra, Natore District, Rajshahi Division, Bangladesh","বাসস্ট্যান্ডের জামে মসজিদ, নাটোর জেলা, রাজশাহী বিভাগ, বাংলাদেশ",Singra,বাংলাদেশ,রাজশাহী বিভাগ,local_admin,boundaries,['place_of_worship_muslim'],[],Bangladesh,Rajshahi,Natore,Singra,SingraPaurashava,57f0e84245c59cc1bdc7d551ce273095
5651488154.0,893cf519acfffff,24.5001236,89.1425852,Singra Fuel Station,,"Singra Fuel Station, Singra, Natore District, Rajshahi Division, Bangladesh","সিংরা জ্বালানী স্টেশন, নাটোর জেলা, রাজশাহী বিভাগ, বাংলাদেশ",Singra,বাংলাদেশ,রাজশাহী বিভাগ,local_admin,boundaries,['fuel'],[],Bangladesh,Rajshahi,Natore,Singra,SingraPaurashava,57f0e84245c59cc1bdc7d551ce273095
6155730858.0,893cf518a37ffff,24.5553808,89.1962159,জামতলি বাস ষ্ট্যান্ড,"['জামতলি বাস ষ্ট্যান্ড', 'Jamtoli Bus Stop']","Jamtali bus stand, Jamtoli Bus Stop, Singra, Natore District, Rajshahi Division, Bangladesh","জামতলি বাস ষ্ট্যান্ড, নাটোর জেলা, রাজশাহী বিভাগ, বাংলাদেশ",Singra,বাংলাদেশ,রাজশাহী বিভাগ,street,boundaries,['bus_stop'],[],Bangladesh,Rajshahi,Natore,Singra,Chaugram,c0b9ba2903a37df0208dec7a473370cb
6483461085.0,893cf519ac7ffff,24.5023899,89.1434736,,['Goal -E- Afroj Govt College Sahid Minar'],"Singra, Natore District, Rajshahi Division, Bangladesh","নাটোর জেলা, রাজশাহী বিভাগ, বাংলাদেশ",Singra,বাংলাদেশ,রাজশাহী বিভাগ,local_admin,boundaries,['monument'],[],Bangladesh,Rajshahi,Natore,Singra,SingraPaurashava,57f0e84245c59cc1bdc7d551ce273095
6570956206.0,893cf519a1bffff,24.4987703,89.1443114,সিংড়া পৌরসভা,,"Singra Municipality, Singra, Natore District, Rajshahi Division, Bangladesh","সিংড়া পৌরসভা, নাটোর জেলা, রাজশাহী বিভাগ, বাংলাদেশ",Singra,বাংলাদেশ,রাজশাহী বিভাগ,local_admin,boundaries,['government'],[],Bangladesh,Rajshahi,Natore,Singra,SingraPaurashava,57f0e84245c59cc1bdc7d551ce273095
6570987685.0,893cf519a13ffff,24.5035577,89.1443511,মাদ্রাসা মোড় মসজিদ,,"Madrasa twist mosque, Singra, Natore District, Rajshahi Division, Bangladesh","মাদ্রাসা মোড় মসজিদ, নাটোর জেলা, রাজশাহী বিভাগ, বাংলাদেশ",Singra,বাংলাদেশ,রাজশাহী বিভাগ,local_admin,boundaries,['place_of_worship_muslim'],[],Bangladesh,Rajshahi,Natore,Singra,SingraPaurashava,57f0e84245c59cc1bdc7d551ce273095
9530872761.0,893cf518d03ffff,24.5950346,89.196184,পাইক প্রহরী মসজিদ,,"Pike watchman mosque, Singra, Natore District, Rajshahi Division, Bangladesh","পাইক প্রহরী মসজিদ, নাটোর জেলা, রাজশাহী বিভাগ, বাংলাদেশ",Singra,বাংলাদেশ,রাজশাহী বিভাগ,local_admin,boundaries,['place_of_worship_muslim'],[],Bangladesh,Rajshahi,Natore,Singra,RamanandaKhajura,4b03a22e051f41db9266c2940b620dd1
255658613.0,893cf519ac7ffff,24.50211042,89.14313884,গোল-ই-আফরোজ সরকারি কলেজ,"['গোল-ই-আফরোজ সরকারি কলেজ', 'Goel-E-Afroz Government College']","Gol-e-Afroz Government College, Singra, Natore District, Rajshahi Division, Bangladesh","গোল-ই-আফরোজ সরকারি কলেজ, নাটোর জেলা, রাজশাহী বিভাগ, বাংলাদেশ",Singra,বাংলাদেশ,রাজশাহী বিভাগ,local_admin,boundaries,['college'],[],Bangladesh,Rajshahi,Natore,Singra,SingraPaurashava,57f0e84245c59cc1bdc7d551ce273095
510871311.0,893cf519a1bffff,24.49923833,89.14354544,Pouro Community Center,,"Pouro Community Center, Singra, Natore District, Rajshahi Division, Bangladesh","পোরো কমিউনিটি সেন্টার, নাটোর জেলা, রাজশাহী বিভাগ, বাংলাদেশ",Singra,বাংলাদেশ,রাজশাহী বিভাগ,local_admin,boundaries,['community_centre'],[],Bangladesh,Rajshahi,Natore,Singra,SingraPaurashava,57f0e84245c59cc1bdc7d551ce273095
511108317.0,893cf519ac7ffff,24.50137176,89.14257458,Goli Afroz Boys Hostel গোলী আফরোজ বয়েজ হোস্টেল,,"Goli Afroz Boys Hostel, Singra, Natore District, Rajshahi Division, Bangladesh","গোলী আফরোজ বয়েজ হোস্টেল, নাটোর জেলা, রাজশাহী বিভাগ, বাংলাদেশ",Singra,বাংলাদেশ,রাজশাহী বিভাগ,local_admin,boundaries,['hostel'],[],Bangladesh,Rajshahi,Natore,Singra,SingraPaurashava,57f0e84245c59cc1bdc7d551ce273095
513140676.0,893cf519a03ffff,24.50158775,89.14750374,Balua Basua Central Mosque,,"Balua Basua Central Mosque, Singra, Natore District, Rajshahi Division, Bangladesh","বালুয়া বাসুয়া কেন্দ্রীয় মসজিদ, নাটোর জেলা, রাজশাহী বিভাগ, বাংলাদেশ",Singra,বাংলাদেশ,রাজশাহী বিভাগ,local_admin,boundaries,['place_of_worship_muslim'],[],Bangladesh,Rajshahi,Natore,Singra,SingraPaurashava,57f0e84245c59cc1bdc7d551ce273095
513159168.0,893cf519a13ffff,24.50354084,89.14435198,Rabeya Plaza,,"Rabeya Plaza, Singra, Natore District, Rajshahi Division, Bangladesh","রাবিয়া প্লাজা, নাটোর জেলা, রাজশাহী বিভাগ, বাংলাদেশ",Singra,বাংলাদেশ,রাজশাহী বিভাগ,local_admin,boundaries,['marketplace'],[],Bangladesh,Rajshahi,Natore,Singra,SingraPaurashava,57f0e84245c59cc1bdc7d551ce273095
513166176.0,893cf519ac7ffff,24.50050648,89.14335729,American New Market আমেরিকান নিউ মার্কেট,,"American New Market, Singra, Natore District, Rajshahi Division, Bangladesh","আমেরিকান নিউ মার্কেট, নাটোর জেলা, রাজশাহী বিভাগ, বাংলাদেশ",Singra,বাংলাদেশ,রাজশাহী বিভাগ,local_admin,boundaries,['mall'],[],Bangladesh,Rajshahi,Natore,Singra,SingraPaurashava,57f0e84245c59cc1bdc7d551ce273095
513386551.0,893cf519ac7ffff,24.50103805,89.143539,PK Plaza,,"PK Plaza, Singra, Natore District, Rajshahi Division, Bangladesh","পিকে প্লাজা, নাটোর জেলা, রাজশাহী বিভাগ, বাংলাদেশ",Singra,বাংলাদেশ,রাজশাহী বিভাগ,local_admin,boundaries,['mall'],[],Bangladesh,Rajshahi,Natore,Singra,SingraPaurashava,57f0e84245c59cc1bdc7d551ce273095
513386731.0,893cf519ac7ffff,24.50119164,89.14369688,রাজশাহী কৃষি উন্নয়ন ব্যাংক,['Rajshahi Krishi Unnayan Bank'],"Rajshahi Agricultural Development Bank, Singra, Natore District, Rajshahi Division, Bangladesh","রাজশাহী কৃষি উন্নয়ন ব্যাংক, নাটোর জেলা, রাজশাহী বিভাগ, বাংলাদেশ",Singra,বাংলাদেশ,রাজশাহী বিভাগ,local_admin,boundaries,['bank'],[],Bangladesh,Rajshahi,Natore,Singra,SingraPaurashava,57f0e84245c59cc1bdc7d551ce273095
515503092.0,893cf519ac7ffff,24.50019483,89.14282439,Alhaz Supar Market,,"Alhaz Supar Market, Singra, Natore District, Rajshahi Division, Bangladesh","আলহাজ সুপার মার্কেট, নাটোর জেলা, রাজশাহী বিভাগ, বাংলাদেশ",Singra,বাংলাদেশ,রাজশাহী বিভাগ,local_admin,boundaries,['mall'],[],Bangladesh,Rajshahi,Natore,Singra,SingraPaurashava,57f0e84245c59cc1bdc7d551ce273095
527002163.0,893cf54445bffff,24.32187558,89.18272938,Rayna Filling Station,,"Rayna Filling Station, Baraigram, Natore District, Rajshahi Division, Bangladesh","রায়না ফিলিং স্টেশন, নাটোর জেলা, রাজশাহী বিভাগ, বাংলাদেশ",Baraigram,বাংলাদেশ,রাজশাহী বিভাগ,local_admin,boundaries,['fuel'],[],Bangladesh,Rajshahi,Natore,Baraigram,BaraigramPaurashava,78ffffcb4c6498db072d74712723ee84
528208560.0,893cf519ac7ffff,24.50256812,89.14360714,সর্দার সুপার মার্কেট,"['সর্দার সুপার মার্কেট', 'Sarder Super Market']","Sardar Super Market, Singra, Natore District, Rajshahi Division, Bangladesh","সর্দার সুপার মার্কেট, নাটোর জেলা, রাজশাহী বিভাগ, বাংলাদেশ",Singra,বাংলাদেশ,রাজশাহী বিভাগ,local_admin,boundaries,['marketplace'],[],Bangladesh,Rajshahi,Natore,Singra,SingraPaurashava,57f0e84245c59cc1bdc7d551ce273095
530762001.0,893cf54c45bffff,24.16830214,89.14094431,Rajapur Bazar Mosque,,"Rajapur Bazar Mosque, Baraigram, Natore District, Rajshahi Division, Bangladesh","রাজাপুর বাজার মসজিদ, নাটোর জেলা, রাজশাহী বিভাগ, বাংলাদেশ",Baraigram,বাংলাদেশ,রাজশাহী বিভাগ,local_admin,boundaries,['place_of_worship_muslim'],[],Bangladesh,Rajshahi,Natore,Baraigram,Gopalpur,21a5a1032eabbf04d14955a3483a1c0c
530762447.0,893cf54e22bffff,24.18960072,89.13827331,Narayanpur Eidgah Field নারায়ণপুর ঈদগাহ মাঠ,,"Narayanpur Eidgah Field, Baraigram, Natore District, Rajshahi Division, Bangladesh","নারায়ণপুর ঈদগাহ মাঠ, নাটোর জেলা, রাজশাহী বিভাগ, বাংলাদেশ",Baraigram,বাংলাদেশ,রাজশাহী বিভাগ,local_admin,boundaries,['place_of_worship_muslim'],[],Bangladesh,Rajshahi,Natore,Baraigram,Gopalpur,21a5a1032eabbf04d14955a3483a1c0c
530762490.0,893cf54e23bffff,24.1909088,89.13727208,সার্স সুপ্রভাত ফিলিং সার্ভিস,,"Serce Suprabhat Filling Service, Baraigram, Natore District, Rajshahi Division, Bangladesh","সার্স সুপ্রভাত ফিলিং সার্ভিস, নাটোর জেলা, রাজশাহী বিভাগ, বাংলাদেশ",Baraigram,বাংলাদেশ,রাজশাহী বিভাগ,local_admin,boundaries,['fuel'],[],Bangladesh,Rajshahi,Natore,Baraigram,Gopalpur,21a5a1032eabbf04d14955a3483a1c0c
530765384.0,893cf54e40fffff,24.227068,89.12095466,Filling station,,"Filling station, Baraigram, Natore District, Rajshahi Division, Bangladesh","পেট্রল - পাস্প, নাটোর জেলা, রাজশাহী বিভাগ, বাংলাদেশ",Baraigram,বাংলাদেশ,রাজশাহী বিভাগ,local_admin,boundaries,['fuel'],[],Bangladesh,Rajshahi,Natore,Baraigram,Nagar,fb91d0886ea3670df4dac1f142ec368f
530788336.0,893cf556d8fffff,24.49869686,89.12230198,,,"Singra, Natore District, Rajshahi Division, Bangladesh","নাটোর জেলা, রাজশাহী বিভাগ, বাংলাদেশ",Singra,বাংলাদেশ,রাজশাহী বিভাগ,local_admin,boundaries,['fuel'],[],Bangladesh,Rajshahi,Natore,Singra,SingraPaurashava,57f0e84245c59cc1bdc7d551ce273095
530945296.0,893cf519a1bffff,24.50023724,89.14386841,,,"Singra, Natore District, Rajshahi Division, Bangladesh","নাটোর জেলা, রাজশাহী বিভাগ, বাংলাদেশ",Singra,বাংলাদেশ,রাজশাহী বিভাগ,local_admin,boundaries,['bus_station'],[],Bangladesh,Rajshahi,Natore,Singra,SingraPaurashava,57f0e84245c59cc1bdc7d551ce273095
530945905.0,893cf519a17ffff,24.5026686,89.1485884,মসজিদে আত তাকওযা,,"At the mosque, Takawa, Singra, Natore District, Rajshahi Division, Bangladesh","মসজিদে আত তাকওযা, নাটোর জেলা, রাজশাহী বিভাগ, বাংলাদেশ",Singra,বাংলাদেশ,রাজশাহী বিভাগ,local_admin,boundaries,['place_of_worship_muslim'],[],Bangladesh,Rajshahi,Natore,Singra,SingraPaurashava,57f0e84245c59cc1bdc7d551ce273095
530947163.0,893cf5199b7ffff,24.54111895,89.18485852,Boro Chowgram Jame Masjid,,"Boro Chowgram Jame Masjid, Singra, Natore District, Rajshahi Division, Bangladesh","বোরো চৌগ্রাম জামে মসজিদ, নাটোর জেলা, রাজশাহী বিভাগ, বাংলাদেশ",Singra,বাংলাদেশ,রাজশাহী বিভাগ,local_admin,boundaries,['place_of_worship_muslim'],[],Bangladesh,Rajshahi,Natore,Singra,Chaugram,c0b9ba2903a37df0208dec7a473370cb
531109913.0,893cf519ac7ffff,24.50273649,89.14374306,Islam Super Market,,"Islam Super Market, Singra, Natore District, Rajshahi Division, Bangladesh","ইসলাম সুপার মার্কেট, নাটোর জেলা, রাজশাহী বিভাগ, বাংলাদেশ",Singra,বাংলাদেশ,রাজশাহী বিভাগ,local_admin,boundaries,['marketplace'],[],Bangladesh,Rajshahi,Natore,Singra,SingraPaurashava,57f0e84245c59cc1bdc7d551ce273095
531642352.0,893cf519a13ffff,24.50369012,89.14451859,Kohinur Plaza,,"Kohinur Plaza, Singra, Natore District, Rajshahi Division, Bangladesh","কোহিনুর প্লাজা, নাটোর জেলা, রাজশাহী বিভাগ, বাংলাদেশ",Singra,বাংলাদেশ,রাজশাহী বিভাগ,local_admin,boundaries,['marketplace'],[],Bangladesh,Rajshahi,Natore,Singra,SingraPaurashava,57f0e84245c59cc1bdc7d551ce273095
2571196633.0,893cf54106bffff,24.2065543,89.0059185,আজিম নগর,['Azim Nagar'],"Azim Nagar, Baraigram, Natore District, Rajshahi Division, Bangladesh","আজিম নগর, নাটোর জেলা, রাজশাহী বিভাগ, বাংলাদেশ",Baraigram,বাংলাদেশ,রাজশাহী বিভাগ,local_admin,boundaries,['railway_station'],[],Bangladesh,Rajshahi,Natore,Lalpur,Gopalpur(Lalpur)Paurashav,126f91b71ca6eb57059cb9e025261c90
2571409241.0,893cf54abafffff,24.1550637,89.0574975,ঈশ্বরদী বাইপাস,['Ishwardi Bypass'],"Ishwardi Bypass, Lalpur, Natore District, Rajshahi Division, Bangladesh","ঈশ্বরদী বাইপাস, নাটোর জেলা, রাজশাহী বিভাগ, বাংলাদেশ",Lalpur,বাংলাদেশ,রাজশাহী বিভাগ,local_admin,boundaries,['railway_station'],[],Bangladesh,Rajshahi,Natore,Lalpur,ArjunpurBoromhati,aa551a22f8c5e630e7fb8a0c9c762f43
3588042989.0,893cf542a37ffff,24.2983937,89.080007,,,"Baraigram, Natore District, Rajshahi Division, Bangladesh","নাটোর জেলা, রাজশাহী বিভাগ, বাংলাদেশ",Baraigram,বাংলাদেশ,রাজশাহী বিভাগ,local_admin,boundaries,['monument'],[],Bangladesh,Rajshahi,Natore,Baraigram,Joari,c8af3368ff6b1435b6152ff8bad865df
5124039323.0,893cf542a37ffff,24.2987919,89.0800981,Bonpara Banga Bandu Mor Bus Stop,,"Bonpara Banga Bandu Mor Bus Stop, Baraigram, Natore District, Rajshahi Division, Bangladesh","বনপেরা বঙ্গ বান্দু মুর বাস স্টপ, নাটোর জেলা, রাজশাহী বিভাগ, বাংলাদেশ",Baraigram,বাংলাদেশ,রাজশাহী বিভাগ,street,boundaries,['bus_stop'],[],Bangladesh,Rajshahi,Natore,Baraigram,Joari,c8af3368ff6b1435b6152ff8bad865df
5124044034.0,893cf542a37ffff,24.2980524,89.0802335,Bonpara Bypass Bus Stop বনপাড়া বাইপাস বাস স্টপ,,"Bonpara Bypass Bus Stop, Baraigram, Natore District, Rajshahi Division, Bangladesh","বনপাড়া বাইপাস বাস স্টপ, নাটোর জেলা, রাজশাহী বিভাগ, বাংলাদেশ",Baraigram,বাংলাদেশ,রাজশাহী বিভাগ,street,boundaries,['bus_stop'],[],Bangladesh,Rajshahi,Natore,Baraigram,Joari,c8af3368ff6b1435b6152ff8bad865df
5124048521.0,893cf542a37ffff,24.2998315,89.0793964,Filling station,,"Filling station, Baraigram, Natore District, Rajshahi Division, Bangladesh","পেট্রল - পাস্প, নাটোর জেলা, রাজশাহী বিভাগ, বাংলাদেশ",Baraigram,বাংলাদেশ,রাজশাহী বিভাগ,local_admin,boundaries,['fuel'],[],Bangladesh,Rajshahi,Natore,Baraigram,Joari,c8af3368ff6b1435b6152ff8bad865df
5124049042.0,893cf542bdbffff,24.3009255,89.0795777,"Uttara Hotel & restaurant, Kalikapur, Bonpara উত্তরা হোটেল এন্ড রেস্টুরেন্টে কালিকাপুর, বনপাড়া",,"Uttara Hotel & restaurant Kalikapur Bonpara, Baraigram, Natore District, Rajshahi Division, Bangladesh","উত্তরা হোটেল এন্ড রেস্টুরেন্টে কালিকাপুর বনপাড়া, নাটোর জেলা, রাজশাহী বিভাগ, বাংলাদেশ",Baraigram,বাংলাদেশ,রাজশাহী বিভাগ,local_admin,boundaries,['restaurant'],[],Bangladesh,Rajshahi,Natore,Baraigram,Joari,c8af3368ff6b1435b6152ff8bad865df
5124056693.0,893cf542d5bffff,24.3325815,89.0731311,Karbala Sugar Center কারবালা ইক্ষু বিক্রয় কেন্দ্র,,"Karbala Sugar Center, Baraigram, Natore District, Rajshahi Division, Bangladesh","কারবালা ইক্ষু বিক্রয় কেন্দ্র, নাটোর জেলা, রাজশাহী বিভাগ, বাংলাদেশ",Baraigram,বাংলাদেশ,রাজশাহী বিভাগ,local_admin,boundaries,['marketplace'],[],Bangladesh,Rajshahi,Natore,Baraigram,Joari,c8af3368ff6b1435b6152ff8bad865df
5124059735.0,893cf542d53ffff,24.3336358,89.0727909,কারবালা মসজিদ,,"Karbala Mosque, Baraigram, Natore District, Rajshahi Division, Bangladesh","কারবালা মসজিদ, নাটোর জেলা, রাজশাহী বিভাগ, বাংলাদেশ",Baraigram,বাংলাদেশ,রাজশাহী বিভাগ,local_admin,boundaries,['place_of_worship_muslim'],[],Bangladesh,Rajshahi,Natore,Baraigram,Joari,c8af3368ff6b1435b6152ff8bad865df
5124063105.0,893cf542dd3ffff,24.3433895,89.0707359,Miraz Cafe মিরাজ ক্যাফে,,"Miraz Cafe, Baraigram, Natore District, Rajshahi Division, Bangladesh","মিরাজ ক্যাফে, নাটোর জেলা, রাজশাহী বিভাগ, বাংলাদেশ",Baraigram,বাংলাদেশ,রাজশাহী বিভাগ,local_admin,boundaries,['cafe'],[],Bangladesh,Rajshahi,Natore,Baraigram,Joari,c8af3368ff6b1435b6152ff8bad865df
5124063420.0,893cf542dd7ffff,24.3428092,89.0712783,Bonoful Hotel,,"Bonoful Hotel, Baraigram, Natore District, Rajshahi Division, Bangladesh","বোনোফুল হোটেল, নাটোর জেলা, রাজশাহী বিভাগ, বাংলাদেশ",Baraigram,বাংলাদেশ,রাজশাহী বিভাগ,local_admin,boundaries,['hotel'],[],Bangladesh,Rajshahi,Natore,Baraigram,Joari,c8af3368ff6b1435b6152ff8bad865df
5124065845.0,893cf542dd3ffff,24.3434793,89.070203,Shaukat Plaza শওকত প্লাজা,,"Shaukat Plaza, Baraigram, Natore District, Rajshahi Division, Bangladesh","শওকত প্লাজা, নাটোর জেলা, রাজশাহী বিভাগ, বাংলাদেশ",Baraigram,বাংলাদেশ,রাজশাহী বিভাগ,local_admin,boundaries,['supermarket'],[],Bangladesh,Rajshahi,Natore,Baraigram,Joari,c8af3368ff6b1435b6152ff8bad865df
5124067681.0,893cf542dd3ffff,24.3437325,89.0701797,Nahar Plaza নাহার প্লাজা,,"Nahar Plaza, Baraigram, Natore District, Rajshahi Division, Bangladesh","নাহার প্লাজা, নাটোর জেলা, রাজশাহী বিভাগ, বাংলাদেশ",Baraigram,বাংলাদেশ,রাজশাহী বিভাগ,local_admin,boundaries,['supermarket'],[],Bangladesh,Rajshahi,Natore,Baraigram,Joari,c8af3368ff6b1435b6152ff8bad865df
5124068128.0,893cf55536fffff,24.3441962,89.0706326,Ahmedpur Bus Stop আহমেদপুর বাস স্টপ,,"Ahmedpur Bus Stop, Baraigram, Natore District, Rajshahi Division, Bangladesh","আহমেদপুর বাস স্টপ, নাটোর জেলা, রাজশাহী বিভাগ, বাংলাদেশ",Baraigram,বাংলাদেশ,রাজশাহী বিভাগ,street,boundaries,['bus_stop'],[],Bangladesh,Rajshahi,Natore,Baraigram,Joari,c8af3368ff6b1435b6152ff8bad865df
5124068720.0,893cf542dd3ffff,24.3439048,89.0702917,Modubon Hotel,,"Modubon Hotel, Baraigram, Natore District, Rajshahi Division, Bangladesh","মোডুবন হোটেল, নাটোর জেলা, রাজশাহী বিভাগ, বাংলাদেশ",Baraigram,বাংলাদেশ,রাজশাহী বিভাগ,local_admin,boundaries,['hotel'],[],Bangladesh,Rajshahi,Natore,Baraigram,Joari,c8af3368ff6b1435b6152ff8bad865df
5124072268.0,893cf55536fffff,24.3443573,89.0706718,সোনালী ব্যাংক লিমিটেড,['Sonali Bank Limited'],"Sonali Bank Limited, Baraigram, Natore District, Rajshahi Division, Bangladesh","সোনালী ব্যাংক লিমিটেড, নাটোর জেলা, রাজশাহী বিভাগ, বাংলাদেশ",Baraigram,বাংলাদেশ,রাজশাহী বিভাগ,local_admin,boundaries,['bank'],[],Bangladesh,Rajshahi,Natore,Baraigram,Joari,c8af3368ff6b1435b6152ff8bad865df
5124075371.0,893cf55536fffff,24.344366,89.0699095,Hasen Ali Super Market হাসেন আলি সুপার মার্কেট,,"Hasen Ali Super Market, Baraigram, Natore District, Rajshahi Division, Bangladesh","হাসেন আলি সুপার মার্কেট, নাটোর জেলা, রাজশাহী বিভাগ, বাংলাদেশ",Baraigram,বাংলাদেশ,রাজশাহী বিভাগ,local_admin,boundaries,['supermarket'],[],Bangladesh,Rajshahi,Natore,Baraigram,Joari,c8af3368ff6b1435b6152ff8bad865df
5124078677.0,893cf55536fffff,24.3462446,89.0694462,Showrav Tayar Store,,"Showrav Tayar Store, Gurudaspur Upazila, Natore District, Rajshahi Division, Bangladesh","শোরভ তায়ার স্টোর, গুরুদাসপুর উপজেলা, নাটোর জেলা, রাজশাহী বিভাগ, বাংলাদেশ",গুরুদাসপুর উপজেলা,বাংলাদেশ,রাজশাহী বিভাগ,local_admin,boundaries,['bicycle'],[],Bangladesh,Rajshahi,Natore,Baraigram,Joari,c8af3368ff6b1435b6152ff8bad865df
5124079857.0,893cf55536fffff,24.3446589,89.0706089,Goni Machinery,,"Goni Machinery, Baraigram, Natore District, Rajshahi Division, Bangladesh","গনি যন্ত্রপাতি, নাটোর জেলা, রাজশাহী বিভাগ, বাংলাদেশ",Baraigram,বাংলাদেশ,রাজশাহী বিভাগ,local_admin,boundaries,['bicycle'],[],Bangladesh,Rajshahi,Natore,Baraigram,Joari,c8af3368ff6b1435b6152ff8bad865df
5124080924.0,893cf55536fffff,24.3447395,89.0705405,Ahmedpur New Adorso Hotel And Resturent,,"Ahmedpur New Adorso Hotel And Resturent, Baraigram, Natore District, Rajshahi Division, Bangladesh","আহমেদপুর নতুন অ্যাডোরশো হোটেল এবং রেস্তোঁরা, নাটোর জেলা, রাজশাহী বিভাগ, বাংলাদেশ",Baraigram,বাংলাদেশ,রাজশাহী বিভাগ,local_admin,boundaries,['hotel'],[],Bangladesh,Rajshahi,Natore,Baraigram,Joari,c8af3368ff6b1435b6152ff8bad865df
5124085907.0,893cf555377ffff,24.3501458,89.0678246,Ahmedpur Bridge mosque,,"Ahmedpur Bridge mosque, Natore, Natore District, Rajshahi Division, Bangladesh","আহমেদপুর ব্রিজ মসজিদ, নাটোর জেলা, রাজশাহী বিভাগ, বাংলাদেশ",Natore,বাংলাদেশ,রাজশাহী বিভাগ,local_admin,boundaries,['place_of_worship_muslim'],[],Bangladesh,Rajshahi,Natore,NatoreSadar,LakshmipurKholabaria,ce2cfb4377fd45c404ff942748571fcd
5124094623.0,893cf555313ffff,24.3569293,89.0600124,কাদিমসাতুরিয়া জামে মসজিদ,,"Kadimasaturia Jame Mosque, Natore, Natore District, Rajshahi Division, Bangladesh","কাদিমসাতুরিয়া জামে মসজিদ, নাটোর জেলা, রাজশাহী বিভাগ, বাংলাদেশ",Natore,বাংলাদেশ,রাজশাহী বিভাগ,local_admin,boundaries,['place_of_worship_muslim'],[],Bangladesh,Rajshahi,Natore,NatoreSadar,Halsa,810cdd721867cf70acb7628910462b8b
5124105986.0,893cf55503bffff,24.3699037,89.0499578,Hoybotpur Bastand হয়বতপুর বাস স্ট্যান্ড,,"Hoybotpur Bastand, Natore, Natore District, Rajshahi Division, Bangladesh","হয়বতপুর বাস স্ট্যান্ড, নাটোর জেলা, রাজশাহী বিভাগ, বাংলাদেশ",Natore,বাংলাদেশ,রাজশাহী বিভাগ,street,boundaries,['bus_stop'],[],Bangladesh,Rajshahi,Natore,NatoreSadar,LakshmipurKholabaria,ce2cfb4377fd45c404ff942748571fcd
5124129027.0,893cf555007ffff,24.3709295,89.0491014,হয়বতপুর কৃষি ব্যাংক,['Hoybotpur Krishi Bank'],"Habatpur Agricultural Bank, Natore, Natore District, Rajshahi Division, Bangladesh","হয়বতপুর কৃষি ব্যাংক, নাটোর জেলা, রাজশাহী বিভাগ, বাংলাদেশ",Natore,বাংলাদেশ,রাজশাহী বিভাগ,local_admin,boundaries,['bank'],[],Bangladesh,Rajshahi,Natore,NatoreSadar,LakshmipurKholabaria,ce2cfb4377fd45c404ff942748571fcd
5124159396.0,893cf555017ffff,24.3730605,89.0465796,Haybat Pur Filling Station,,"Haybat Pur Filling Station, Natore, Natore District, Rajshahi Division, Bangladesh","হাইবাত পুর ফিলিং স্টেশন, নাটোর জেলা, রাজশাহী বিভাগ, বাংলাদেশ",Natore,বাংলাদেশ,রাজশাহী বিভাগ,local_admin,boundaries,['fuel'],[],Bangladesh,Rajshahi,Natore,NatoreSadar,LakshmipurKholabaria,ce2cfb4377fd45c404ff942748571fcd
5124166529.0,893cf5573dbffff,24.4067336,89.0185688,Natore Police Line নাটোর পুলিশ লাইন,,"Natore Police Line, Natore, Natore District, Rajshahi Division, Bangladesh","নাটোর পুলিশ লাইন, নাটোর জেলা, রাজশাহী বিভাগ, বাংলাদেশ",Natore,বাংলাদেশ,রাজশাহী বিভাগ,local_admin,boundaries,['police'],[],Bangladesh,Rajshahi,Natore,NatoreSadar,BaraHarishpur,ce0ab69a2eb33f321ba6c8384e6c4692
5124167141.0,893cf557347ffff,24.4016696,89.0310091,Dattapara Jame Masjid দত্তপাড়া জামে মসজিদ,,"Dattapara Jame Masjid, Natore, Natore District, Rajshahi Division, Bangladesh","দত্তপাড়া জামে মসজিদ, নাটোর জেলা, রাজশাহী বিভাগ, বাংলাদেশ",Natore,বাংলাদেশ,রাজশাহী বিভাগ,local_admin,boundaries,['place_of_worship_muslim'],[],Bangladesh,Rajshahi,Natore,NatoreSadar,BaraHarishpur,ce0ab69a2eb33f321ba6c8384e6c4692
5124167516.0,893cf557347ffff,24.4015404,89.0306466,Dattapara Bus Stop,,"Dattapara Bus Stop, Natore, Natore District, Rajshahi Division, Bangladesh","দত্তাপারা বাস স্টপ, নাটোর জেলা, রাজশাহী বিভাগ, বাংলাদেশ",Natore,বাংলাদেশ,রাজশাহী বিভাগ,street,boundaries,['bus_stop'],[],Bangladesh,Rajshahi,Natore,NatoreSadar,BaraHarishpur,ce0ab69a2eb33f321ba6c8384e6c4692
5124177712.0,893cf557287ffff,24.4102052,89.0080694,Sahara Food Garden,,"Sahara Food Garden, Natore, Natore District, Rajshahi Division, Bangladesh","সাহারা ফুড গার্ডেন, নাটোর জেলা, রাজশাহী বিভাগ, বাংলাদেশ",Natore,বাংলাদেশ,রাজশাহী বিভাগ,local_admin,boundaries,['restaurant'],[],Bangladesh,Rajshahi,Natore,NatoreSadar,BaraHarishpur,ce0ab69a2eb33f321ba6c8384e6c4692
5124178221.0,893cf557287ffff,24.4102565,89.0078009,Baitun Noor Jame Masjid,,"Baitun Noor Jame Masjid, Natore, Natore District, Rajshahi Division, Bangladesh","বেতুন নূর জামে মসজিদ, নাটোর জেলা, রাজশাহী বিভাগ, বাংলাদেশ",Natore,বাংলাদেশ,রাজশাহী বিভাগ,local_admin,boundaries,['place_of_worship_muslim'],[],Bangladesh,Rajshahi,Natore,NatoreSadar,BaraHarishpur,ce0ab69a2eb33f321ba6c8384e6c4692
5124178459.0,893cf557287ffff,24.4103494,89.0071333,"অর্গ্যানন হোমিও ফার্মেসী, নাটোর",,"Organon Homo Pharmacy Natore, Natore, Natore District, Rajshahi Division, Bangladesh","অর্গ্যানন হোমিও ফার্মেসী নাটোর, নাটোর জেলা, রাজশাহী বিভাগ, বাংলাদেশ",Natore,বাংলাদেশ,রাজশাহী বিভাগ,local_admin,boundaries,['pharmacy'],[],Bangladesh,Rajshahi,Natore,NatoreSadar,BaraHarishpur,ce0ab69a2eb33f321ba6c8384e6c4692
5124181156.0,893cf557297ffff,24.4109124,89.0055364,Dhaka Bakery,,"Dhaka Bakery, Natore, Natore District, Rajshahi Division, Bangladesh","Dhaka াকা বেকারি, নাটোর জেলা, রাজশাহী বিভাগ, বাংলাদেশ",Natore,বাংলাদেশ,রাজশাহী বিভাগ,local_admin,boundaries,['bakery'],[],Bangladesh,Rajshahi,Natore,NatoreSadar,BaraHarishpur,ce0ab69a2eb33f321ba6c8384e6c4692
5124185818.0,893cf557297ffff,24.4112899,89.0042752,TVS Autos,,"TVS Autos, Natore, Natore District, Rajshahi Division, Bangladesh","টিভিএস অটোস, নাটোর জেলা, রাজশাহী বিভাগ, বাংলাদেশ",Natore,বাংলাদেশ,রাজশাহী বিভাগ,local_admin,boundaries,['motorcycle'],[],Bangladesh,Rajshahi,Natore,NatoreSadar,BaraHarishpur,ce0ab69a2eb33f321ba6c8384e6c4692
5124196942.0,893cf55762fffff,24.4118456,89.0025181,Ayan Motors,,"Ayan Motors, Natore, Natore District, Rajshahi Division, Bangladesh","আয়ান মোটরস, নাটোর জেলা, রাজশাহী বিভাগ, বাংলাদেশ",Natore,বাংলাদেশ,রাজশাহী বিভাগ,local_admin,boundaries,['motorcycle'],[],Bangladesh,Rajshahi,Natore,NatoreSadar,NatorePaurashava,dd35f10efe310fd7a061446540bbdbea
5153269755.0,893cf540c6bffff,24.2707327,89.0903988,Godhora Bazar গোধড়া বাজার,,"Godhora Bazar, Baraigram, Natore District, Rajshahi Division, Bangladesh","গোধড়া বাজার, নাটোর জেলা, রাজশাহী বিভাগ, বাংলাদেশ",Baraigram,বাংলাদেশ,রাজশাহী বিভাগ,local_admin,boundaries,['marketplace'],[],Bangladesh,Rajshahi,Natore,Lalpur,KadamChilan,abd492de33bc21829e0bec0350b40eb9
5153271782.0,893cf540c7bffff,24.2726747,89.0895944,গুনাইহাটি বাজার,,"Gunaihati Bazar, Baraigram, Natore District, Rajshahi Division, Bangladesh","গুনাইহাটি বাজার, নাটোর জেলা, রাজশাহী বিভাগ, বাংলাদেশ",Baraigram,বাংলাদেশ,রাজশাহী বিভাগ,local_admin,boundaries,['marketplace'],[],Bangladesh,Rajshahi,Natore,Baraigram,Majgaon,fd2af4647d74c7b6756caef50fcf761f
5153373621.0,893cf540c93ffff,24.2902396,89.0815704,Khairul Tea Stall খায়রুল টি স্টল,,"Khairul Tea Stall, Baraigram, Natore District, Rajshahi Division, Bangladesh","খায়রুল টি স্টল, নাটোর জেলা, রাজশাহী বিভাগ, বাংলাদেশ",Baraigram,বাংলাদেশ,রাজশাহী বিভাগ,local_admin,boundaries,['tea'],[],Bangladesh,Rajshahi,Natore,Baraigram,BanparaPaurashava,6b32e551f343804b323cd384f3e06f6e
5153375296.0,893cf540c93ffff,24.2902794,89.0818473,Bonpara Pouro Market বনপাড়া পৌর মার্কেট,,"Bonpara Pouro Market, Baraigram, Natore District, Rajshahi Division, Bangladesh","বনপাড়া পৌর মার্কেট, নাটোর জেলা, রাজশাহী বিভাগ, বাংলাদেশ",Baraigram,বাংলাদেশ,রাজশাহী বিভাগ,local_admin,boundaries,['marketplace'],[],Bangladesh,Rajshahi,Natore,Baraigram,BanparaPaurashava,6b32e551f343804b323cd384f3e06f6e
5153376878.0,893cf540c93ffff,24.2905239,89.0816448,Prince Sweet প্রিন্স মিষ্টি,,"Prince Sweet, Baraigram, Natore District, Rajshahi Division, Bangladesh","প্রিন্স মিষ্টি, নাটোর জেলা, রাজশাহী বিভাগ, বাংলাদেশ",Baraigram,বাংলাদেশ,রাজশাহী বিভাগ,local_admin,boundaries,['restaurant'],[],Bangladesh,Rajshahi,Natore,Baraigram,BanparaPaurashava,6b32e551f343804b323cd384f3e06f6e
5153377041.0,893cf540c93ffff,24.2906724,89.0820773,R.S. Market আর এস মার্কেট,,"R.S. Market, Baraigram, Natore District, Rajshahi Division, Bangladesh","আর এস মার্কেট, নাটোর জেলা, রাজশাহী বিভাগ, বাংলাদেশ",Baraigram,বাংলাদেশ,রাজশাহী বিভাগ,local_admin,boundaries,['marketplace'],[],Bangladesh,Rajshahi,Natore,Baraigram,BanparaPaurashava,6b32e551f343804b323cd384f3e06f6e
5153377075.0,893cf540c93ffff,24.2907163,89.0824577,"New Market, Bonpara নিউ মার্কেট, বনপাড়া",,"New Market Bonpara, Baraigram, Natore District, Rajshahi Division, Bangladesh","নিউ মার্কেট বনপাড়া, নাটোর জেলা, রাজশাহী বিভাগ, বাংলাদেশ",Baraigram,বাংলাদেশ,রাজশাহী বিভাগ,local_admin,boundaries,['marketplace'],[],Bangladesh,Rajshahi,Natore,Baraigram,BanparaPaurashava,6b32e551f343804b323cd384f3e06f6e
5153377076.0,893cf540c93ffff,24.2908041,89.0816569,Pari Food Hotel পরীর খাদ্য হোটেল,,"Pari Food Hotel, Baraigram, Natore District, Rajshahi Division, Bangladesh","পরীর খাদ্য হোটেল, নাটোর জেলা, রাজশাহী বিভাগ, বাংলাদেশ",Baraigram,বাংলাদেশ,রাজশাহী বিভাগ,local_admin,boundaries,['restaurant'],[],Bangladesh,Rajshahi,Natore,Baraigram,BanparaPaurashava,6b32e551f343804b323cd384f3e06f6e
5153380775.0,893cf540c93ffff,24.2906101,89.0801984,Bonpara Bazar বনপাড়া বাজার,,"Bonpara Bazar, Baraigram, Natore District, Rajshahi Division, Bangladesh","বনপাড়া বাজার, নাটোর জেলা, রাজশাহী বিভাগ, বাংলাদেশ",Baraigram,বাংলাদেশ,রাজশাহী বিভাগ,local_admin,boundaries,['marketplace'],[],Bangladesh,Rajshahi,Natore,Baraigram,BanparaPaurashava,6b32e551f343804b323cd384f3e06f6e
5153381049.0,893cf540c93ffff,24.2908448,89.0805485,Pan & Supari Bazar পান সুপারি বাজার,,"Pan & Supari Bazar, Baraigram, Natore District, Rajshahi Division, Bangladesh","পান সুপারি বাজার, নাটোর জেলা, রাজশাহী বিভাগ, বাংলাদেশ",Baraigram,বাংলাদেশ,রাজশাহী বিভাগ,local_admin,boundaries,['marketplace'],[],Bangladesh,Rajshahi,Natore,Baraigram,BanparaPaurashava,6b32e551f343804b323cd384f3e06f6e
5153406077.0,893cf5570dbffff,24.421254,89.0019555,Judge Court Mor,,"Judge Court Mor, Natore, Natore District, Rajshahi Division, Bangladesh","বিচারক আদালত মুর, নাটোর জেলা, রাজশাহী বিভাগ, বাংলাদেশ",Natore,বাংলাদেশ,রাজশাহী বিভাগ,local_admin,boundaries,['convenience'],[],Bangladesh,Rajshahi,Natore,NatoreSadar,NatorePaurashava,dd35f10efe310fd7a061446540bbdbea
5153407408.0,893cf5570dbffff,24.4215692,89.0017405,Judge Court Mosque জজ আদালতের মসজিদ,,"Judge Court Mosque, Natore, Natore District, Rajshahi Division, Bangladesh","জজ আদালতের মসজিদ, নাটোর জেলা, রাজশাহী বিভাগ, বাংলাদেশ",Natore,বাংলাদেশ,রাজশাহী বিভাগ,local_admin,boundaries,['place_of_worship_muslim'],[],Bangladesh,Rajshahi,Natore,NatoreSadar,NatorePaurashava,dd35f10efe310fd7a061446540bbdbea
5153460143.0,893cf55620bffff,24.4476004,89.0448302,ডাল সড়ক,,"Branches, Natore, Natore District, Rajshahi Division, Bangladesh","ডাল সড়ক, নাটোর জেলা, রাজশাহী বিভাগ, বাংলাদেশ",Natore,বাংলাদেশ,রাজশাহী বিভাগ,street,boundaries,['bus_stop'],[],Bangladesh,Rajshahi,Natore,NatoreSadar,Dighapatia,0da869d6c2b473e16ae2b7587866684a
5153462949.0,893cf556387ffff,24.4678653,89.06955,Bondor Bazar,,"Bondor Bazar, Singra, Natore District, Rajshahi Division, Bangladesh","বন্ডর বাজার, নাটোর জেলা, রাজশাহী বিভাগ, বাংলাদেশ",Singra,বাংলাদেশ,রাজশাহী বিভাগ,local_admin,boundaries,['marketplace'],[],Bangladesh,Rajshahi,Natore,Singra,Lalore,3576e0203f93a89a1a8f53ff654b0ab3
1738181880.0,893cf573293ffff,24.3515036,89.2996879,,,"Gurudaspur Upazila, Natore District, Rajshahi Division, Bangladesh","গুরুদাসপুর উপজেলা, নাটোর জেলা, রাজশাহী বিভাগ, বাংলাদেশ",গুরুদাসপুর উপজেলা,বাংলাদেশ,রাজশাহী বিভাগ,local_admin,boundaries,['toll_booth'],[],Bangladesh,Rajshahi,Natore,Gurudaspur,Moshinda,02c88130bc826810d24b06c7cd07a247
5160511313.0,893cf54a12fffff,24.1692548,89.0011484,গ্রামীণ ব্যাংক,['Grameen Bank'],"Grameen Bank, Lalpur, Natore District, Rajshahi Division, Bangladesh","গ্রামীণ ব্যাংক, নাটোর জেলা, রাজশাহী বিভাগ, বাংলাদেশ",Lalpur,বাংলাদেশ,রাজশাহী বিভাগ,local_admin,boundaries,['bank'],[],Bangladesh,Rajshahi,Natore,Lalpur,Ishwardi,4f7884e0ced7182626ee389b029992bc
5160511925.0,893cf54a12fffff,24.1693784,89.0017037,Gouripur Bus Stop,,"Gouripur Bus Stop, Lalpur, Natore District, Rajshahi Division, Bangladesh","গুরিপুর বাস স্টপ, নাটোর জেলা, রাজশাহী বিভাগ, বাংলাদেশ",Lalpur,বাংলাদেশ,রাজশাহী বিভাগ,street,boundaries,['bus_stop'],[],Bangladesh,Rajshahi,Natore,Lalpur,Ishwardi,4f7884e0ced7182626ee389b029992bc
5160526214.0,893cf54ae97ffff,24.168607,89.0041144,Gouripur post office - গৌরীপুর পোস্ট অফিস,,"Gouripur post office -, Lalpur, Natore District, Rajshahi Division, Bangladesh","গৌরীপুর পোস্ট অফিস, নাটোর জেলা, রাজশাহী বিভাগ, বাংলাদেশ",Lalpur,বাংলাদেশ,রাজশাহী বিভাগ,local_admin,boundaries,['post_office'],[],Bangladesh,Rajshahi,Natore,Lalpur,Ishwardi,4f7884e0ced7182626ee389b029992bc
536990366.0,893cf518e87ffff,24.57599984,89.1666376,Eidgagh,,"Eidgagh, Singra, Natore District, Rajshahi Division, Bangladesh","Eid দেগাগ, নাটোর জেলা, রাজশাহী বিভাগ, বাংলাদেশ",Singra,বাংলাদেশ,রাজশাহী বিভাগ,local_admin,boundaries,['place_of_worship'],[],Bangladesh,Rajshahi,Natore,Singra,RamanandaKhajura,4b03a22e051f41db9266c2940b620dd1
536990868.0,893cf518e87ffff,24.5752756,89.1662304,Soair Jame Mosque,,"Soair Jame Mosque, Singra, Natore District, Rajshahi Division, Bangladesh","সোয়ার জামে মসজিদ, নাটোর জেলা, রাজশাহী বিভাগ, বাংলাদেশ",Singra,বাংলাদেশ,রাজশাহী বিভাগ,local_admin,boundaries,['place_of_worship_muslim'],[],Bangladesh,Rajshahi,Natore,Singra,RamanandaKhajura,4b03a22e051f41db9266c2940b620dd1
536993867.0,893cf518c4bffff,24.57793276,89.16598515,,,"Singra, Natore District, Rajshahi Division, Bangladesh","নাটোর জেলা, রাজশাহী বিভাগ, বাংলাদেশ",Singra,বাংলাদেশ,রাজশাহী বিভাগ,local_admin,boundaries,['pitch'],[],Bangladesh,Rajshahi,Natore,Singra,RamanandaKhajura,4b03a22e051f41db9266c2940b620dd1
537994685.0,893cf519ad7ffff,24.50499625,89.14136765,শহিদুল মার্কেট,,"Dresses Market, Singra, Natore District, Rajshahi Division, Bangladesh","শহিদুল মার্কেট, নাটোর জেলা, রাজশাহী বিভাগ, বাংলাদেশ",Singra,বাংলাদেশ,রাজশাহী বিভাগ,local_admin,boundaries,['marketplace'],[],Bangladesh,Rajshahi,Natore,Singra,SingraPaurashava,57f0e84245c59cc1bdc7d551ce273095
538056258.0,893cf519a8bffff,24.50367104,89.14417709,Atahar Ali Market,,"Atahar Ali Market, Singra, Natore District, Rajshahi Division, Bangladesh","আতাহার আলী বাজার, নাটোর জেলা, রাজশাহী বিভাগ, বাংলাদেশ",Singra,বাংলাদেশ,রাজশাহী বিভাগ,local_admin,boundaries,['marketplace'],[],Bangladesh,Rajshahi,Natore,Singra,SingraPaurashava,57f0e84245c59cc1bdc7d551ce273095
540734082.0,893cf519a8bffff,24.50607517,89.14272671,স্মৃতি সুপার মার্কেট,,"Memorial Super Market, Singra, Natore District, Rajshahi Division, Bangladesh","স্মৃতি সুপার মার্কেট, নাটোর জেলা, রাজশাহী বিভাগ, বাংলাদেশ",Singra,বাংলাদেশ,রাজশাহী বিভাগ,local_admin,boundaries,['marketplace'],[],Bangladesh,Rajshahi,Natore,Singra,SingraPaurashava,57f0e84245c59cc1bdc7d551ce273095
5654213721.0,893cf55704bffff,24.4108946,89.0078786,,"['Natore 132kv Grid Substation, PGCB']","Natore, Natore District, Rajshahi Division, Bangladesh","নাটোর জেলা, রাজশাহী বিভাগ, বাংলাদেশ",Natore,বাংলাদেশ,রাজশাহী বিভাগ,local_admin,boundaries,['government'],[],Bangladesh,Rajshahi,Natore,NatoreSadar,BaraHarishpur,ce0ab69a2eb33f321ba6c8384e6c4692
542088195.0,893cf519a8bffff,24.50562405,89.14244476,শেখ মার্কেট,,"Sheikh Market, Singra, Natore District, Rajshahi Division, Bangladesh","শেখ মার্কেট, নাটোর জেলা, রাজশাহী বিভাগ, বাংলাদেশ",Singra,বাংলাদেশ,রাজশাহী বিভাগ,local_admin,boundaries,['marketplace'],[],Bangladesh,Rajshahi,Natore,Singra,SingraPaurashava,57f0e84245c59cc1bdc7d551ce273095
542088902.0,893cf519a9bffff,24.50676396,89.14277092,Singra Thana,,"Singra Thana, Singra, Natore District, Rajshahi Division, Bangladesh","সিংরা থানা, নাটোর জেলা, রাজশাহী বিভাগ, বাংলাদেশ",Singra,বাংলাদেশ,রাজশাহী বিভাগ,local_admin,boundaries,['police'],[],Bangladesh,Rajshahi,Natore,Singra,SingraPaurashava,57f0e84245c59cc1bdc7d551ce273095
563071527.0,893cf519a83ffff,24.50912765,89.14528525,Singra Damdama Al Jamiyatul Moshid,,"Singra Damdama Al Jamiyatul Moshid, Singra, Natore District, Rajshahi Division, Bangladesh","সিংরা দামদামা আল জামিয়েটুল মোসজিড, নাটোর জেলা, রাজশাহী বিভাগ, বাংলাদেশ",Singra,বাংলাদেশ,রাজশাহী বিভাগ,local_admin,boundaries,['place_of_worship_muslim'],[],Bangladesh,Rajshahi,Natore,Singra,SingraPaurashava,57f0e84245c59cc1bdc7d551ce273095
567107969.0,893cf51984bffff,24.51298526,89.14785316,Singra Damdama Primari School,,"Singra Damdama Primari School, Singra, Natore District, Rajshahi Division, Bangladesh","সিংরা দামদামা প্রিমারি স্কুল, নাটোর জেলা, রাজশাহী বিভাগ, বাংলাদেশ",Singra,বাংলাদেশ,রাজশাহী বিভাগ,local_admin,boundaries,['school'],[],Bangladesh,Rajshahi,Natore,Singra,SingraPaurashava,57f0e84245c59cc1bdc7d551ce273095
567107976.0,893cf51984bffff,24.51248795,89.14731143,Singra Damdama Pilot School & College,,"Singra Damdama Pilot School & College, Singra, Natore District, Rajshahi Division, Bangladesh","সিংরা দামদামা পাইলট স্কুল ও কলেজ, নাটোর জেলা, রাজশাহী বিভাগ, বাংলাদেশ",Singra,বাংলাদেশ,রাজশাহী বিভাগ,local_admin,boundaries,['college'],[],Bangladesh,Rajshahi,Natore,Singra,SingraPaurashava,57f0e84245c59cc1bdc7d551ce273095
5976020585.0,893cf5573d7ffff,24.4103462,89.023678,,['Robi switch room'],"Natore, Natore District, Rajshahi Division, Bangladesh","নাটোর জেলা, রাজশাহী বিভাগ, বাংলাদেশ",Natore,বাংলাদেশ,রাজশাহী বিভাগ,local_admin,boundaries,['mobile_phone'],[],Bangladesh,Rajshahi,Natore,NatoreSadar,Dighapatia,0da869d6c2b473e16ae2b7587866684a
6018702589.0,893cf54f0c7ffff,24.1627166,89.0940227,মাঝগ্রাম জংশন,"['মাঝগ্রাম জংশন', 'Majhgram Juncton']","Midgram Junction, Baraigram, Natore District, Rajshahi Division, Bangladesh","মাঝগ্রাম জংশন, নাটোর জেলা, রাজশাহী বিভাগ, বাংলাদেশ",Baraigram,বাংলাদেশ,রাজশাহী বিভাগ,local_admin,boundaries,['railway_station'],[],Bangladesh,Rajshahi,Natore,Lalpur,Duaria,33f7faaae3f913717850459d7b19225e
571856972.0,893cf51984bffff,24.51326436,89.14730552,Singra Damdama Pilot School & College,,"Singra Damdama Pilot School & College, Singra, Natore District, Rajshahi Division, Bangladesh","সিংরা দামদামা পাইলট স্কুল ও কলেজ, নাটোর জেলা, রাজশাহী বিভাগ, বাংলাদেশ",Singra,বাংলাদেশ,রাজশাহী বিভাগ,local_admin,boundaries,['playground'],[],Bangladesh,Rajshahi,Natore,Singra,SingraPaurashava,57f0e84245c59cc1bdc7d551ce273095
575037634.0,893cf50b59bffff,24.49896035,89.18166586,,,"Singra, Natore District, Rajshahi Division, Bangladesh","নাটোর জেলা, রাজশাহী বিভাগ, বাংলাদেশ",Singra,বাংলাদেশ,রাজশাহী বিভাগ,local_admin,boundaries,['water_park'],[],Bangladesh,Rajshahi,Natore,Singra,Chaugram,c0b9ba2903a37df0208dec7a473370cb
586807104.0,893cf519adbffff,24.49842999,89.13479487,,,"Singra, Natore District, Rajshahi Division, Bangladesh","নাটোর জেলা, রাজশাহী বিভাগ, বাংলাদেশ",Singra,বাংলাদেশ,রাজশাহী বিভাগ,local_admin,boundaries,['school'],[],Bangladesh,Rajshahi,Natore,Singra,SingraPaurashava,57f0e84245c59cc1bdc7d551ce273095
4231393975.0,893cf5468d3ffff,24.370029,89.2326696,Gurudaspur Post Office,,"Gurudaspur Post Office, Gurudaspur Upazila, Natore District, Rajshahi Division, Bangladesh","গুরুদাসপুর ডাকঘর, গুরুদাসপুর উপজেলা, নাটোর জেলা, রাজশাহী বিভাগ, বাংলাদেশ",গুরুদাসপুর উপজেলা,বাংলাদেশ,রাজশাহী বিভাগ,local_admin,boundaries,['post_office'],[],Bangladesh,Rajshahi,Natore,Gurudaspur,GurudaspurPaurashava,3201ccc6f77e34661c7746a71fbe4f93
586807112.0,893cf519adbffff,24.49864649,89.13593827,,,"Singra, Natore District, Rajshahi Division, Bangladesh","নাটোর জেলা, রাজশাহী বিভাগ, বাংলাদেশ",Singra,বাংলাদেশ,রাজশাহী বিভাগ,local_admin,boundaries,['substation'],[],Bangladesh,Rajshahi,Natore,Singra,SingraPaurashava,57f0e84245c59cc1bdc7d551ce273095
6755050221.0,893cf557553ffff,24.4396062,89.0116485,,,"Natore, Natore District, Rajshahi Division, Bangladesh","নাটোর জেলা, রাজশাহী বিভাগ, বাংলাদেশ",Natore,বাংলাদেশ,রাজশাহী বিভাগ,local_admin,boundaries,['gate'],[],Bangladesh,Rajshahi,Natore,NatoreSadar,Dighapatia,0da869d6c2b473e16ae2b7587866684a
586807113.0,893cf519acbffff,24.49808809,89.13798601,Cholonbil Mahila Degree College,,"Cholonbil Mahila Degree College, Singra, Natore District, Rajshahi Division, Bangladesh","চোলনবিল মাহিলা ডিগ্রি কলেজ, নাটোর জেলা, রাজশাহী বিভাগ, বাংলাদেশ",Singra,বাংলাদেশ,রাজশাহী বিভাগ,local_admin,boundaries,['college'],[],Bangladesh,Rajshahi,Natore,Singra,SingraPaurashava,57f0e84245c59cc1bdc7d551ce273095
6755926744.0,893cf5575cbffff,24.4406749,89.0108742,,,"Natore, Natore District, Rajshahi Division, Bangladesh","নাটোর জেলা, রাজশাহী বিভাগ, বাংলাদেশ",Natore,বাংলাদেশ,রাজশাহী বিভাগ,local_admin,boundaries,['helipad'],[],Bangladesh,Rajshahi,Natore,NatoreSadar,Dighapatia,0da869d6c2b473e16ae2b7587866684a
589552000.0,893cf519ac7ffff,24.5026813,89.14397937,Singra Hamidia Madrasa,,"Singra Hamidia Madrasa, Singra, Natore District, Rajshahi Division, Bangladesh","সিংরা হামিদিয়া মাদ্রাসা, নাটোর জেলা, রাজশাহী বিভাগ, বাংলাদেশ",Singra,বাংলাদেশ,রাজশাহী বিভাগ,local_admin,boundaries,['school'],[],Bangladesh,Rajshahi,Natore,Singra,SingraPaurashava,57f0e84245c59cc1bdc7d551ce273095
591886347.0,893cf519a8bffff,24.5062315,89.143005,সিংড়া উপজেলা পোস্ট অফিস,,"Singara Upazila Post Office, Singra, Natore District, Rajshahi Division, Bangladesh","সিংড়া উপজেলা পোস্ট অফিস, নাটোর জেলা, রাজশাহী বিভাগ, বাংলাদেশ",Singra,বাংলাদেশ,রাজশাহী বিভাগ,local_admin,boundaries,['post_office'],[],Bangladesh,Rajshahi,Natore,Singra,SingraPaurashava,57f0e84245c59cc1bdc7d551ce273095
6756919776.0,893cf5575cbffff,24.4405425,89.0099386,,,"Natore, Natore District, Rajshahi Division, Bangladesh","নাটোর জেলা, রাজশাহী বিভাগ, বাংলাদেশ",Natore,বাংলাদেশ,রাজশাহী বিভাগ,local_admin,boundaries,['fountain'],[],Bangladesh,Rajshahi,Natore,NatoreSadar,Dighapatia,0da869d6c2b473e16ae2b7587866684a
6756919779.0,893cf5575cbffff,24.4400402,89.01059,,,"Natore, Natore District, Rajshahi Division, Bangladesh","নাটোর জেলা, রাজশাহী বিভাগ, বাংলাদেশ",Natore,বাংলাদেশ,রাজশাহী বিভাগ,local_admin,boundaries,['memorial'],[],Bangladesh,Rajshahi,Natore,NatoreSadar,Dighapatia,0da869d6c2b473e16ae2b7587866684a
591886474.0,893cf519a8bffff,24.50454249,89.14517772,সিংড়া কোর্ট মাঠ,['Singra Cort Math'],"Singra court ground, Singra, Natore District, Rajshahi Division, Bangladesh","সিংড়া কোর্ট মাঠ, নাটোর জেলা, রাজশাহী বিভাগ, বাংলাদেশ",Singra,বাংলাদেশ,রাজশাহী বিভাগ,local_admin,boundaries,['playground'],[],Bangladesh,Rajshahi,Natore,Singra,SingraPaurashava,57f0e84245c59cc1bdc7d551ce273095
6799957430.0,893cf542263ffff,24.2897439,89.008877,Bangladesh Army University of Engineering and Technology,['বাংলাদেশ সেনাবাহিনী প্রকৌশল ও প্রযুক্তি বিশ্ববিদ্যালয়'],"Bangladesh Army University of Engineering and Technology, ","বাংলাদেশ আর্মি ইঞ্জিনিয়ারিং অ্যান্ড টেকনোলজি বিশ্ববিদ্যালয়, ",Bagatipara,বাংলাদেশ,রাজশাহী বিভাগ,housenumber,sameSource,['university'],[],Bangladesh,Rajshahi,Natore,BagatiPara,Dayarampur,d63facee50d23aa8ef35b227cec53632
8449382124.0,893cf54abc7ffff,24.1519097,89.0452423,,,"Lalpur, Natore District, Rajshahi Division, Bangladesh","নাটোর জেলা, রাজশাহী বিভাগ, বাংলাদেশ",Lalpur,বাংলাদেশ,রাজশাহী বিভাগ,local_admin,boundaries,['helipad'],[],Bangladesh,Rajshahi,Natore,Lalpur,Ishwardi,4f7884e0ced7182626ee389b029992bc
8778433948.0,893cf55762bffff,24.4118529,89.0002716,Mim computer and photostat,,"Mim computer and photostat, ","এমআইএম কম্পিউটার এবং ফটোস্ট্যাট, ",Natore,বাংলাদেশ,রাজশাহী বিভাগ,housenumber,sameSource,['computer'],[],Bangladesh,Rajshahi,Natore,NatoreSadar,NatorePaurashava,dd35f10efe310fd7a061446540bbdbea
729908732.0,893cf519a8bffff,24.50556799,89.14350538,,,"Singra, Natore District, Rajshahi Division, Bangladesh","নাটোর জেলা, রাজশাহী বিভাগ, বাংলাদেশ",Singra,বাংলাদেশ,রাজশাহী বিভাগ,local_admin,boundaries,['playground'],[],Bangladesh,Rajshahi,Natore,Singra,SingraPaurashava,57f0e84245c59cc1bdc7d551ce273095
9530872755.0,893cf55440bffff,24.4341186,89.0629975,,['গাঙ্গইল জামে মসজিদ'],"Natore, Natore District, Rajshahi Division, Bangladesh","নাটোর জেলা, রাজশাহী বিভাগ, বাংলাদেশ",Natore,বাংলাদেশ,রাজশাহী বিভাগ,local_admin,boundaries,['place_of_worship_muslim'],[],Bangladesh,Rajshahi,Natore,NatoreSadar,Dighapatia,0da869d6c2b473e16ae2b7587866684a
9530872756.0,893cf5425d7ffff,24.3439285,89.0075012,,"['বাসুপাড়া, দক্ষিণ পাড়া, জামে মসজিদ']","Natore, Natore District, Rajshahi Division, Bangladesh","নাটোর জেলা, রাজশাহী বিভাগ, বাংলাদেশ",Natore,বাংলাদেশ,রাজশাহী বিভাগ,local_admin,boundaries,['place_of_worship_muslim'],[],Bangladesh,Rajshahi,Natore,NatoreSadar,LakshmipurKholabaria,ce2cfb4377fd45c404ff942748571fcd
1472122431.0,893cf54307bffff,24.2598727,88.971789,আব্দুলপুর জংশন,"['Abdulpur', 'Abdulpur Junction']","Abdulpur Junction, Lalpur, Natore District, Rajshahi Division, Bangladesh","আব্দুলপুর জংশন, নাটোর জেলা, রাজশাহী বিভাগ, বাংলাদেশ",Lalpur,বাংলাদেশ,রাজশাহী বিভাগ,local_admin,boundaries,['railway_station'],[],Bangladesh,Rajshahi,Natore,Lalpur,Changdhupail,5a3e6c3138dbd16f5eb4c1b773f723c5
2344447507.0,893cf54a097ffff,24.1768408,88.9620062,Lalpur Upazila Health Complex,,"Lalpur Upazila Health Complex, Lalpur, Natore District, Rajshahi Division, Bangladesh","লালপুর উপজিলা স্বাস্থ্য কমপ্লেক্স, নাটোর জেলা, রাজশাহী বিভাগ, বাংলাদেশ",Lalpur,বাংলাদেশ,রাজশাহী বিভাগ,local_admin,boundaries,['hospital'],[],Bangladesh,Rajshahi,Natore,Lalpur,Lalpur,7c73af9e91d37d512ddf0113f916d6e7
2344453138.0,893cf557653ffff,24.4098391,88.9834983,Natore General Hospital,,"Natore General Hospital, Natore, Natore District, Rajshahi Division, Bangladesh","নাটোর জেনারেল হাসপাতাল, নাটোর জেলা, রাজশাহী বিভাগ, বাংলাদেশ",Natore,বাংলাদেশ,রাজশাহী বিভাগ,local_admin,boundaries,['hospital'],[],Bangladesh,Rajshahi,Natore,NatoreSadar,NatorePaurashava,dd35f10efe310fd7a061446540bbdbea
2571491729.0,893cf5cc22fffff,24.5026199,88.9599207,মাধনগর,['Madhnagar'],"Madhanagar, Natore, Natore District, Rajshahi Division, Bangladesh","মাধনগর, নাটোর জেলা, রাজশাহী বিভাগ, বাংলাদেশ",Natore,বাংলাদেশ,রাজশাহী বিভাগ,local_admin,boundaries,['railway_station'],[],Bangladesh,Rajshahi,Natore,NatoreSadar,NaldangaPaurashava,11f5969769161a1ad952a47204596234
2613320630.0,893cf557617ffff,24.4197108,88.9916251,Natore Royal Palace,,"Natore Royal Palace, Natore, Natore District, Rajshahi Division, Bangladesh","নাটোর রয়্যাল প্যালেস, নাটোর জেলা, রাজশাহী বিভাগ, বাংলাদেশ",Natore,বাংলাদেশ,রাজশাহী বিভাগ,local_admin,boundaries,['memorial'],[],Bangladesh,Rajshahi,Natore,NatoreSadar,NatorePaurashava,dd35f10efe310fd7a061446540bbdbea
10097418.0,893cf519a8bffff,24.50547179,89.14345917,Singra Damdama Government Girls High School,,"Singra Damdama Government Girls High School, Singra, Natore District, Rajshahi Division, Bangladesh","সিংরা দামদামা সরকারী মেয়েরা উচ্চ বিদ্যালয়, নাটোর জেলা, রাজশাহী বিভাগ, বাংলাদেশ",Singra,বাংলাদেশ,রাজশাহী বিভাগ,local_admin,boundaries,['school'],[],Bangladesh,Rajshahi,Natore,Singra,SingraPaurashava,57f0e84245c59cc1bdc7d551ce273095
5219734021.0,893cf518a47ffff,24.5456593,89.1834156,,,,,Singra,বাংলাদেশ,রাজশাহী বিভাগ,housenumber,,,,Bangladesh,Rajshahi,Natore,Singra,Chaugram,c0b9ba2903a37df0208dec7a473370cb
5124016540.0,893cf57366fffff,24.3478507,89.2935316,Sagor Machineries & Motors সাগর মেশিনারি ও মটরস,,"Sagor Machineries & Motors, Gurudaspur Upazila, Natore District, Rajshahi Division, Bangladesh","সাগর মেশিনারি ও মটরস, গুরুদাসপুর উপজেলা, নাটোর জেলা, রাজশাহী বিভাগ, বাংলাদেশ",গুরুদাসপুর উপজেলা,বাংলাদেশ,রাজশাহী বিভাগ,local_admin,boundaries,['car_parts'],[],Bangladesh,Rajshahi,Natore,Gurudaspur,Moshinda,02c88130bc826810d24b06c7cd07a247
4041688932.0,893cf557603ffff,24.4154088,88.9925201,Lalbazer Jame mosjid,,"Lalbazer Jame mosjid, Natore, Natore District, Rajshahi Division, Bangladesh","লালবাজার জামে মোসজিড, নাটোর জেলা, রাজশাহী বিভাগ, বাংলাদেশ",Natore,বাংলাদেশ,রাজশাহী বিভাগ,local_admin,boundaries,['place_of_worship_muslim'],[],Bangladesh,Rajshahi,Natore,NatoreSadar,NatorePaurashava,dd35f10efe310fd7a061446540bbdbea
5124017387.0,893cf57366fffff,24.3486394,89.2934276,HIRA MUKTA OPTICS হিরা মুক্তি অপটিকস,,"HIRA MUKTA OPTICS, Gurudaspur Upazila, Natore District, Rajshahi Division, Bangladesh","হিরা মুক্তি অপটিকস, গুরুদাসপুর উপজেলা, নাটোর জেলা, রাজশাহী বিভাগ, বাংলাদেশ",গুরুদাসপুর উপজেলা,বাংলাদেশ,রাজশাহী বিভাগ,local_admin,boundaries,['marketplace'],[],Bangladesh,Rajshahi,Natore,Gurudaspur,Moshinda,02c88130bc826810d24b06c7cd07a247
4041693984.0,893cf55763bffff,24.4145064,88.9959727,Old Bus Terminal Mosque,,"Old Bus Terminal Mosque, Natore, Natore District, Rajshahi Division, Bangladesh","পুরানো বাস টার্মিনাল মসজিদ, নাটোর জেলা, রাজশাহী বিভাগ, বাংলাদেশ",Natore,বাংলাদেশ,রাজশাহী বিভাগ,local_admin,boundaries,['place_of_worship_muslim'],[],Bangladesh,Rajshahi,Natore,NatoreSadar,NatorePaurashava,dd35f10efe310fd7a061446540bbdbea
5124019021.0,893cf57366fffff,24.3484184,89.2933544,Kanchikata Bus Stop,,"Kanchikata Bus Stop, Gurudaspur Upazila, Natore District, Rajshahi Division, Bangladesh","কাঞ্চিকাটা বাস স্টপ, গুরুদাসপুর উপজেলা, নাটোর জেলা, রাজশাহী বিভাগ, বাংলাদেশ",গুরুদাসপুর উপজেলা,বাংলাদেশ,রাজশাহী বিভাগ,street,boundaries,['bus_stop'],[],Bangladesh,Rajshahi,Natore,Gurudaspur,Moshinda,02c88130bc826810d24b06c7cd07a247
4041872704.0,893cf552b17ffff,24.410252,88.9676265,অগ্রণী ব্যাংক,['Agrani Bank'],"Agrani Bank, Natore, Natore District, Rajshahi Division, Bangladesh","অগ্রণী ব্যাংক, নাটোর জেলা, রাজশাহী বিভাগ, বাংলাদেশ",Natore,বাংলাদেশ,রাজশাহী বিভাগ,local_admin,boundaries,['bank'],[],Bangladesh,Rajshahi,Natore,NatoreSadar,NatorePaurashava,dd35f10efe310fd7a061446540bbdbea
5124023104.0,893cf57366bffff,24.3486158,89.2923162,Kachikata Jame Masjid,,"Kachikata Jame Masjid, Gurudaspur Upazila, Natore District, Rajshahi Division, Bangladesh","কাচিকাটা জামে মসজিদ, গুরুদাসপুর উপজেলা, নাটোর জেলা, রাজশাহী বিভাগ, বাংলাদেশ",গুরুদাসপুর উপজেলা,বাংলাদেশ,রাজশাহী বিভাগ,local_admin,boundaries,['place_of_worship_muslim'],[],Bangladesh,Rajshahi,Natore,Gurudaspur,Moshinda,02c88130bc826810d24b06c7cd07a247
5124028367.0,893cf57366bffff,24.3480752,89.2928151,Kachikata Bisworoad Bazar,,"Kachikata Bisworoad Bazar, Gurudaspur Upazila, Natore District, Rajshahi Division, Bangladesh","কাচিকাটা বিসোরোড বাজার, গুরুদাসপুর উপজেলা, নাটোর জেলা, রাজশাহী বিভাগ, বাংলাদেশ",গুরুদাসপুর উপজেলা,বাংলাদেশ,রাজশাহী বিভাগ,local_admin,boundaries,['marketplace'],[],Bangladesh,Rajshahi,Natore,Gurudaspur,Moshinda,02c88130bc826810d24b06c7cd07a247
4041875111.0,893cf552b33ffff,24.4116028,88.9730548,N.S. Government College Masjid,,"N.S. Government College Masjid, Natore, Natore District, Rajshahi Division, Bangladesh","এন.এস.সরকারী কলেজ মসজিদ, নাটোর জেলা, রাজশাহী বিভাগ, বাংলাদেশ",Natore,বাংলাদেশ,রাজশাহী বিভাগ,local_admin,boundaries,['place_of_worship_muslim'],[],Bangladesh,Rajshahi,Natore,NatoreSadar,NatorePaurashava,dd35f10efe310fd7a061446540bbdbea
5124029429.0,893cf546a6bffff,24.3343825,89.2436941,নয়া বাজার বিশ্বরোড,,"New Market World Road, Gurudaspur Upazila, Natore District, Rajshahi Division, Bangladesh","নয়া বাজার বিশ্বরোড, গুরুদাসপুর উপজেলা, নাটোর জেলা, রাজশাহী বিভাগ, বাংলাদেশ",গুরুদাসপুর উপজেলা,বাংলাদেশ,রাজশাহী বিভাগ,street,boundaries,['bus_stop'],[],Bangladesh,Rajshahi,Natore,Gurudaspur,Dharabarisha,28914c690acc8a1cb8c2fd6393ce9a4d
4041880922.0,893cf552b37ffff,24.4122121,88.975611,Jamuna Petrol Pump,,"Jamuna Petrol Pump, Natore, Natore District, Rajshahi Division, Bangladesh","জামুনা পেট্রোল পাম্প, নাটোর জেলা, রাজশাহী বিভাগ, বাংলাদেশ",Natore,বাংলাদেশ,রাজশাহী বিভাগ,local_admin,boundaries,['fuel'],[],Bangladesh,Rajshahi,Natore,NatoreSadar,NatorePaurashava,dd35f10efe310fd7a061446540bbdbea
4041881973.0,893cf552b27ffff,24.4106593,88.9787438,Palpara Jame Masjid,,"Palpara Jame Masjid, Natore, Natore District, Rajshahi Division, Bangladesh","পালপেরা জামে মসজিদ, নাটোর জেলা, রাজশাহী বিভাগ, বাংলাদেশ",Natore,বাংলাদেশ,রাজশাহী বিভাগ,local_admin,boundaries,['place_of_worship_muslim'],[],Bangladesh,Rajshahi,Natore,NatoreSadar,NatorePaurashava,dd35f10efe310fd7a061446540bbdbea
4041886532.0,893cf557657ffff,24.4125173,88.9852,Boro Masjid,,"Boro Masjid, Natore, Natore District, Rajshahi Division, Bangladesh","বোরো মসজিদ, নাটোর জেলা, রাজশাহী বিভাগ, বাংলাদেশ",Natore,বাংলাদেশ,রাজশাহী বিভাগ,local_admin,boundaries,['place_of_worship_muslim'],[],Bangladesh,Rajshahi,Natore,NatoreSadar,NatorePaurashava,dd35f10efe310fd7a061446540bbdbea
280431425.0,893cf518a7bffff,24.54304675,89.18605579999999,সেতু,['Bridge'],"Bridge, Singra, Natore District, Rajshahi Division, Bangladesh","সেতু, নাটোর জেলা, রাজশাহী বিভাগ, বাংলাদেশ",Singra,বাংলাদেশ,রাজশাহী বিভাগ,street,,,,Bangladesh,Rajshahi,Natore,Singra,Chaugram,c0b9ba2903a37df0208dec7a473370cb
591886346.0,893cf519a8bffff,24.50588956192563,89.14226858631095,Bazar Road,,"Bazar Road, Singra, Natore District, Rajshahi Division, Bangladesh","বাজর রোড, নাটোর জেলা, রাজশাহী বিভাগ, বাংলাদেশ",Singra,বাংলাদেশ,রাজশাহী বিভাগ,street,,,,Bangladesh,Rajshahi,Natore,Singra,SingraPaurashava,57f0e84245c59cc1bdc7d551ce273095
280431437.0,893cf5199b3ffff,24.53797693222853,89.18241727570913,বগুড়া - নাটোর মহাসড়ক,"['Bogra - Natore Hwy', 'Bogura - Natore Hwy']","Bogra - Natore highway, -, Bogura - Natore Hwy, Singra, Natore District, Rajshahi Division, Bangladesh","বগুড়া নাটোর মহাসড়ক, নাটোর জেলা, রাজশাহী বিভাগ, বাংলাদেশ",Singra,বাংলাদেশ,রাজশাহী বিভাগ,street,,,,Bangladesh,Rajshahi,Natore,Singra,Chaugram,c0b9ba2903a37df0208dec7a473370cb
280431438.0,893cf519a17ffff,24.50483064789065,89.15086994954466,বগুড়া - নাটোর মহাসড়ক,"['Bogra - Natore Hwy', 'Bogura - Natore Hwy']","Bogra - Natore highway, -, Bogura - Natore Hwy, Singra, Natore District, Rajshahi Division, Bangladesh","বগুড়া নাটোর মহাসড়ক, নাটোর জেলা, রাজশাহী বিভাগ, বাংলাদেশ",Singra,বাংলাদেশ,রাজশাহী বিভাগ,street,,,,Bangladesh,Rajshahi,Natore,Singra,SingraPaurashava,57f0e84245c59cc1bdc7d551ce273095
280431430.0,893cf519867ffff,24.5161394,89.1617015,বগুড়া - নাটোর মহাসড়ক,"['Bogra - Natore Hwy', 'Bogura - Natore Hwy']","Bogra - Natore highway, -, Bogura - Natore Hwy, Singra, Natore District, Rajshahi Division, Bangladesh","বগুড়া নাটোর মহাসড়ক, নাটোর জেলা, রাজশাহী বিভাগ, বাংলাদেশ",Singra,বাংলাদেশ,রাজশাহী বিভাগ,street,,,,Bangladesh,Rajshahi,Natore,Singra,Tajpur,4c71b89fa5cc7cc44d0a377e2b593e1a
4561962405.0,893cf55760bffff,24.4120613,88.9907788,,,"Natore, Natore District, Rajshahi Division, Bangladesh","নাটোর জেলা, রাজশাহী বিভাগ, বাংলাদেশ",Natore,বাংলাদেশ,রাজশাহী বিভাগ,local_admin,boundaries,['fire_station'],[],Bangladesh,Rajshahi,Natore,NatoreSadar,NatorePaurashava,dd35f10efe310fd7a061446540bbdbea
280308695.0,893cf556d8fffff,24.4984001,89.1215291,বগুড়া - নাটোর মহাসড়ক,['Bogra - Natore Hwy'],"Bogra - Natore highway, -, Bogra - Natore Hwy, Singra, Natore District, Rajshahi Division, Bangladesh","বগুড়া নাটোর মহাসড়ক, নাটোর জেলা, রাজশাহী বিভাগ, বাংলাদেশ",Singra,বাংলাদেশ,রাজশাহী বিভাগ,street,,,,Bangladesh,Rajshahi,Natore,Singra,SingraPaurashava,57f0e84245c59cc1bdc7d551ce273095
4564252936.0,893cf5576b3ffff,24.4239778,88.9934706,,['salma house'],,,Natore,বাংলাদেশ,রাজশাহী বিভাগ,housenumber,sameSource,['guest_house'],[],Bangladesh,Rajshahi,Natore,NatoreSadar,NatorePaurashava,dd35f10efe310fd7a061446540bbdbea
5154654658.0,893cf50148fffff,24.5930551,89.2368799,সোনালী ব্যাংক লিমিটেড,['Sonali Bank Limated'],"Sonali Bank Limited, Nandigram, Bogura District, Rajshahi Division, Bangladesh","সোনালী ব্যাংক লিমিটেড, বগুড়া জেলা, রাজশাহী বিভাগ, বাংলাদেশ",Nandigram,বাংলাদেশ,রাজশাহী বিভাগ,local_admin,boundaries,['bank'],[],Bangladesh,Rajshahi,Natore,Singra,Sukash,fe65c947bbc85d26c9380c90e63c06d1
5154655232.0,893cf50148fffff,24.5928527,89.2371454,Ranbagha Bazar রনবাঘা বাজার,,"Ranbagha Bazar, Nandigram, Bogura District, Rajshahi Division, Bangladesh","রনবাঘা বাজার, বগুড়া জেলা, রাজশাহী বিভাগ, বাংলাদেশ",Nandigram,বাংলাদেশ,রাজশাহী বিভাগ,local_admin,boundaries,['marketplace'],[],Bangladesh,Rajshahi,Natore,Singra,Sukash,fe65c947bbc85d26c9380c90e63c06d1
5154655835.0,893cf50148fffff,24.5931315,89.2377344,Ranbagha Post Office,,"Ranbagha Post Office, Nandigram, Bogura District, Rajshahi Division, Bangladesh","রণবাগ পোস্ট অফিস, বগুড়া জেলা, রাজশাহী বিভাগ, বাংলাদেশ",Nandigram,বাংলাদেশ,রাজশাহী বিভাগ,local_admin,boundaries,['post_office'],[],Bangladesh,Rajshahi,Natore,Singra,Sukash,fe65c947bbc85d26c9380c90e63c06d1
280431435.0,893cf519827ffff,24.52246407951875,89.1677653809379,বগুড়া - নাটোর মহাসড়ক,"['Bogra - Natore Hwy', 'Bogura - Natore Hwy']","Bogra - Natore highway, -, Bogura - Natore Hwy, Singra, Natore District, Rajshahi Division, Bangladesh","বগুড়া নাটোর মহাসড়ক, নাটোর জেলা, রাজশাহী বিভাগ, বাংলাদেশ",Singra,বাংলাদেশ,রাজশাহী বিভাগ,street,,,,Bangladesh,Rajshahi,Natore,Singra,Chaugram,c0b9ba2903a37df0208dec7a473370cb
4992074939.0,893cf557687ffff,24.424937,88.9896572,,['Rothbary mor রথবাড়ী মোড়'],,,Natore,বাংলাদেশ,রাজশাহী বিভাগ,housenumber,sameSource,['supermarket'],[],Bangladesh,Rajshahi,Natore,NatoreSadar,NatorePaurashava,dd35f10efe310fd7a061446540bbdbea
280305350.0,893cf54444fffff,24.3207677,89.1876235,Rajshahi - Dhaka Highway,,"Rajshahi - Dhaka Highway, Baraigram, Natore District, Rajshahi Division, Bangladesh","রাজশাহী - Dhaka াকা মহাসড়ক, নাটোর জেলা, রাজশাহী বিভাগ, বাংলাদেশ",Baraigram,বাংলাদেশ,রাজশাহী বিভাগ,street,,,,Bangladesh,Rajshahi,Natore,Baraigram,BaraigramPaurashava,78ffffcb4c6498db072d74712723ee84
280431426.0,893cf51982bffff,24.51784245,89.16333165,সেতু,['Bridge'],"Bridge, Singra, Natore District, Rajshahi Division, Bangladesh","সেতু, নাটোর জেলা, রাজশাহী বিভাগ, বাংলাদেশ",Singra,বাংলাদেশ,রাজশাহী বিভাগ,street,,,,Bangladesh,Rajshahi,Natore,Singra,Tajpur,4c71b89fa5cc7cc44d0a377e2b593e1a
5125953844.0,893cf55762bffff,24.4121395,88.998494,Bismilla Hotel বিসমিল্লা হোটেল,,"Bismilla Hotel, Natore, Natore District, Rajshahi Division, Bangladesh","বিসমিল্লা হোটেল, নাটোর জেলা, রাজশাহী বিভাগ, বাংলাদেশ",Natore,বাংলাদেশ,রাজশাহী বিভাগ,local_admin,boundaries,['restaurant'],[],Bangladesh,Rajshahi,Natore,NatoreSadar,NatorePaurashava,dd35f10efe310fd7a061446540bbdbea
5125956887.0,893cf55762bffff,24.412125,88.9980758,Babu tea stall,,"Babu tea stall, Natore, Natore District, Rajshahi Division, Bangladesh","বাবু চা স্টল, নাটোর জেলা, রাজশাহী বিভাগ, বাংলাদেশ",Natore,বাংলাদেশ,রাজশাহী বিভাগ,local_admin,boundaries,['cafe'],[],Bangladesh,Rajshahi,Natore,NatoreSadar,NatorePaurashava,dd35f10efe310fd7a061446540bbdbea
5125956911.0,893cf557677ffff,24.4122561,88.996546,,,"Natore, Natore District, Rajshahi Division, Bangladesh","নাটোর জেলা, রাজশাহী বিভাগ, বাংলাদেশ",Natore,বাংলাদেশ,রাজশাহী বিভাগ,local_admin,boundaries,['atm'],[],Bangladesh,Rajshahi,Natore,NatoreSadar,NatorePaurashava,dd35f10efe310fd7a061446540bbdbea
5125962900.0,893cf557677ffff,24.412683,88.996618,"R.P. Filling Station আর,পি ফিলিং স্টেশন",,"R.P. Filling Station, Natore, Natore District, Rajshahi Division, Bangladesh","আর পি ফিলিং স্টেশন, নাটোর জেলা, রাজশাহী বিভাগ, বাংলাদেশ",Natore,বাংলাদেশ,রাজশাহী বিভাগ,local_admin,boundaries,['fuel'],[],Bangladesh,Rajshahi,Natore,NatoreSadar,NatorePaurashava,dd35f10efe310fd7a061446540bbdbea
5126017119.0,893cf557677ffff,24.4121939,88.9963247,স্বাধীনতা চত্বর নাটোর।,,"Freedom Square Natore., Natore, Natore District, Rajshahi Division, Bangladesh","স্বাধীনতা চত্বর নাটোর।, নাটোর জেলা, রাজশাহী বিভাগ, বাংলাদেশ",Natore,বাংলাদেশ,রাজশাহী বিভাগ,local_admin,boundaries,['city_gate'],[],Bangladesh,Rajshahi,Natore,NatoreSadar,NatorePaurashava,dd35f10efe310fd7a061446540bbdbea
280308686.0,893cf519a1bffff,24.50000752951039,89.14418968226238,বগুড়া - নাটোর মহাসড়ক,['Bogra - Natore Hwy'],"Bogra - Natore highway, -, Bogra - Natore Hwy, Singra, Natore District, Rajshahi Division, Bangladesh","বগুড়া নাটোর মহাসড়ক, নাটোর জেলা, রাজশাহী বিভাগ, বাংলাদেশ",Singra,বাংলাদেশ,রাজশাহী বিভাগ,street,,,,Bangladesh,Rajshahi,Natore,Singra,SingraPaurashava,57f0e84245c59cc1bdc7d551ce273095
5126018375.0,893cf557677ffff,24.4120894,88.9959497,"স্বাধীনতা চত্বর বাস স্টপেজ,নাটোর",,"Freedom Square Bus Stopage Natore, Natore, Natore District, Rajshahi Division, Bangladesh","স্বাধীনতা চত্বর বাস স্টপেজ নাটোর, নাটোর জেলা, রাজশাহী বিভাগ, বাংলাদেশ",Natore,বাংলাদেশ,রাজশাহী বিভাগ,street,boundaries,['bus_stop'],[],Bangladesh,Rajshahi,Natore,NatoreSadar,NatorePaurashava,dd35f10efe310fd7a061446540bbdbea
5126023289.0,893cf557677ffff,24.4127625,88.9964332,BRTC Bus Stop বিআরটিসি বাস স্টপেজ,,"BRTC Bus Stop, Natore, Natore District, Rajshahi Division, Bangladesh","বিআরটিসি বাস স্টপেজ, নাটোর জেলা, রাজশাহী বিভাগ, বাংলাদেশ",Natore,বাংলাদেশ,রাজশাহী বিভাগ,street,boundaries,['bus_stop'],[],Bangladesh,Rajshahi,Natore,NatoreSadar,NatorePaurashava,dd35f10efe310fd7a061446540bbdbea
5126032091.0,893cf55760fffff,24.4118566,88.9930513,ট্রাস্ট ব্যাংক লিমিটেড,['Trust Bank Limited'],"Trust Bank Limited, Natore, Natore District, Rajshahi Division, Bangladesh","ট্রাস্ট ব্যাংক লিমিটেড, নাটোর জেলা, রাজশাহী বিভাগ, বাংলাদেশ",Natore,বাংলাদেশ,রাজশাহী বিভাগ,local_admin,boundaries,['bank'],[],Bangladesh,Rajshahi,Natore,NatoreSadar,NatorePaurashava,dd35f10efe310fd7a061446540bbdbea
5126039438.0,893cf55760fffff,24.4132075,88.99161,Babur pukur,,"Babur pukur, Natore, Natore District, Rajshahi Division, Bangladesh","বাবুর পুকুর, নাটোর জেলা, রাজশাহী বিভাগ, বাংলাদেশ",Natore,বাংলাদেশ,রাজশাহী বিভাগ,local_admin,boundaries,['water_works'],[],Bangladesh,Rajshahi,Natore,NatoreSadar,NatorePaurashava,dd35f10efe310fd7a061446540bbdbea
280305348.0,893cf547003ffff,24.3161195,89.1435808,Rajshahi - Dhaka Highway,,"Rajshahi - Dhaka Highway, Baraigram, Natore District, Rajshahi Division, Bangladesh","রাজশাহী - Dhaka াকা মহাসড়ক, নাটোর জেলা, রাজশাহী বিভাগ, বাংলাদেশ",Baraigram,বাংলাদেশ,রাজশাহী বিভাগ,street,,,,Bangladesh,Rajshahi,Natore,Baraigram,Majgaon,fd2af4647d74c7b6756caef50fcf761f
5126051889.0,893cf55760bffff,24.4128658,88.988784,,,"Natore, Natore District, Rajshahi Division, Bangladesh","নাটোর জেলা, রাজশাহী বিভাগ, বাংলাদেশ",Natore,বাংলাদেশ,রাজশাহী বিভাগ,local_admin,boundaries,['atm'],[],Bangladesh,Rajshahi,Natore,NatoreSadar,NatorePaurashava,dd35f10efe310fd7a061446540bbdbea
5126055267.0,893cf55760bffff,24.4131219,88.988878,প্রাইম ব্যাংক লিমিটেড,['Prime Bank Limited'],"Prime Bank Limited, Natore, Natore District, Rajshahi Division, Bangladesh","প্রাইম ব্যাংক লিমিটেড, নাটোর জেলা, রাজশাহী বিভাগ, বাংলাদেশ",Natore,বাংলাদেশ,রাজশাহী বিভাগ,local_admin,boundaries,['bank'],[],Bangladesh,Rajshahi,Natore,NatoreSadar,NatorePaurashava,dd35f10efe310fd7a061446540bbdbea
5126058780.0,893cf55761bffff,24.4135752,88.9874742,Dhaka Bus Stand,,"Dhaka Bus Stand, Natore, Natore District, Rajshahi Division, Bangladesh","Dhaka াকা বাস স্ট্যান্ড, নাটোর জেলা, রাজশাহী বিভাগ, বাংলাদেশ",Natore,বাংলাদেশ,রাজশাহী বিভাগ,street,boundaries,['bus_stop'],[],Bangladesh,Rajshahi,Natore,NatoreSadar,NatorePaurashava,dd35f10efe310fd7a061446540bbdbea
5126068186.0,893cf55761bffff,24.4141723,88.9865434,Mukti Plaza মুক্তির প্লাজা,,"Mukti Plaza, ","মুক্তির প্লাজা, ",Natore,বাংলাদেশ,রাজশাহী বিভাগ,housenumber,sameSource,['marketplace'],[],Bangladesh,Rajshahi,Natore,NatoreSadar,NatorePaurashava,dd35f10efe310fd7a061446540bbdbea
575036332.0,893cf519a3bffff,24.498879582842104,89.15438805872877,সিংড়া - তাড়াশ সড়ক,['Singra - Tarash Road'],"Singra - Tarash Road, -, Singra, Natore District, Rajshahi Division, Bangladesh","সিংড়া তাড়াশ সড়ক, নাটোর জেলা, রাজশাহী বিভাগ, বাংলাদেশ",Singra,বাংলাদেশ,রাজশাহী বিভাগ,street,,,,Bangladesh,Rajshahi,Natore,Singra,Tajpur,4c71b89fa5cc7cc44d0a377e2b593e1a
5126068962.0,893cf55761bffff,24.4141032,88.9863563,চায়না ব্যাগ হাউজ,,"China Bag House, Natore, Natore District, Rajshahi Division, Bangladesh","চায়না ব্যাগ হাউজ, নাটোর জেলা, রাজশাহী বিভাগ, বাংলাদেশ",Natore,বাংলাদেশ,রাজশাহী বিভাগ,local_admin,boundaries,['supermarket'],[],Bangladesh,Rajshahi,Natore,NatoreSadar,NatorePaurashava,dd35f10efe310fd7a061446540bbdbea
536995298.0,893cf518c57ffff,24.584977797448115,89.1682900071537,Soair Jhingabaria road,,"Soair Jhingabaria road, Singra, Natore District, Rajshahi Division, Bangladesh","সোয়ার ঝিঙ্গাবারিয়া রোড, নাটোর জেলা, রাজশাহী বিভাগ, বাংলাদেশ",Singra,বাংলাদেশ,রাজশাহী বিভাগ,street,,,,Bangladesh,Rajshahi,Natore,Singra,RamanandaKhajura,4b03a22e051f41db9266c2940b620dd1
5126069055.0,893cf55761bffff,24.4142942,88.9864379,Shadek Complex সাদেক কমপ্লেক্স,,"Shadek Complex, Natore, Natore District, Rajshahi Division, Bangladesh","সাদেক কমপ্লেক্স, নাটোর জেলা, রাজশাহী বিভাগ, বাংলাদেশ",Natore,বাংলাদেশ,রাজশাহী বিভাগ,local_admin,boundaries,['marketplace'],[],Bangladesh,Rajshahi,Natore,NatoreSadar,NatorePaurashava,dd35f10efe310fd7a061446540bbdbea
280308694.0,893cf519a03ffff,24.501751,89.14791604999999,বগুড়া - নাটোর মহাসড়ক,['Bogra - Natore Hwy'],"Bogra - Natore highway, -, Bogra - Natore Hwy, Singra, Natore District, Rajshahi Division, Bangladesh","বগুড়া নাটোর মহাসড়ক, নাটোর জেলা, রাজশাহী বিভাগ, বাংলাদেশ",Singra,বাংলাদেশ,রাজশাহী বিভাগ,street,,,,Bangladesh,Rajshahi,Natore,Singra,SingraPaurashava,57f0e84245c59cc1bdc7d551ce273095
5126071889.0,893cf55761bffff,24.4134674,88.9858084,Rubel Cloth store. রুবেল কাপড়ের দোকান।,,"Rubel Cloth store., Natore, Natore District, Rajshahi Division, Bangladesh","রুবেল কাপড়ের দোকান।, নাটোর জেলা, রাজশাহী বিভাগ, বাংলাদেশ",Natore,বাংলাদেশ,রাজশাহী বিভাগ,local_admin,boundaries,['clothes'],[],Bangladesh,Rajshahi,Natore,NatoreSadar,NatorePaurashava,dd35f10efe310fd7a061446540bbdbea
5126076827.0,893cf55761bffff,24.4142036,88.9860244,Lusan Fashion,,"Lusan Fashion, Natore, Natore District, Rajshahi Division, Bangladesh","লুসান ফ্যাশন, নাটোর জেলা, রাজশাহী বিভাগ, বাংলাদেশ",Natore,বাংলাদেশ,রাজশাহী বিভাগ,local_admin,boundaries,['clothes'],[],Bangladesh,Rajshahi,Natore,NatoreSadar,NatorePaurashava,dd35f10efe310fd7a061446540bbdbea
5126084416.0,893cf55761bffff,24.4142699,88.9862,NAZ Shoes Natore,,"NAZ Shoes Natore, Natore, Natore District, Rajshahi Division, Bangladesh","নাজ জুতা নাটোর, নাটোর জেলা, রাজশাহী বিভাগ, বাংলাদেশ",Natore,বাংলাদেশ,রাজশাহী বিভাগ,local_admin,boundaries,['shoes'],[],Bangladesh,Rajshahi,Natore,NatoreSadar,NatorePaurashava,dd35f10efe310fd7a061446540bbdbea
5126089006.0,893cf55761bffff,24.4142846,88.9859092,Nimtola Mistanno Vander,,"Nimtola Mistanno Vander, Natore, Natore District, Rajshahi Division, Bangladesh","নিমটোলা মিস্তান্নো ভ্যান্ডার, নাটোর জেলা, রাজশাহী বিভাগ, বাংলাদেশ",Natore,বাংলাদেশ,রাজশাহী বিভাগ,local_admin,boundaries,['cafe'],[],Bangladesh,Rajshahi,Natore,NatoreSadar,NatorePaurashava,dd35f10efe310fd7a061446540bbdbea
5126112282.0,893cf5576cfffff,24.4147587,88.983614,Rent A Car Centre,,"Rent A Car Centre, Natore, Natore District, Rajshahi Division, Bangladesh","একটি গাড়ী কেন্দ্র ভাড়া, নাটোর জেলা, রাজশাহী বিভাগ, বাংলাদেশ",Natore,বাংলাদেশ,রাজশাহী বিভাগ,local_admin,boundaries,['car_rental'],[],Bangladesh,Rajshahi,Natore,NatoreSadar,NatorePaurashava,dd35f10efe310fd7a061446540bbdbea
5126123365.0,893cf5576c3ffff,24.4143851,88.9810622,FAMILY KITCHEN পরিবারের রান্নাঘর,,"FAMILY KITCHEN, Natore, Natore District, Rajshahi Division, Bangladesh","পরিবারের রান্নাঘর, নাটোর জেলা, রাজশাহী বিভাগ, বাংলাদেশ",Natore,বাংলাদেশ,রাজশাহী বিভাগ,local_admin,boundaries,['restaurant'],[],Bangladesh,Rajshahi,Natore,NatoreSadar,NatorePaurashava,dd35f10efe310fd7a061446540bbdbea
743539876.0,893cf519b6fffff,24.4982119,89.1791177,সিংড়া - তাড়াশ সড়ক,['Singra - Tarash Road'],"Singra - Tarash Road, -, Singra, Natore District, Rajshahi Division, Bangladesh","সিংড়া তাড়াশ সড়ক, নাটোর জেলা, রাজশাহী বিভাগ, বাংলাদেশ",Singra,বাংলাদেশ,রাজশাহী বিভাগ,street,,,,Bangladesh,Rajshahi,Natore,Singra,Chaugram,c0b9ba2903a37df0208dec7a473370cb
5126135191.0,893cf5576dbffff,24.4136395,88.9788642,Benu Bekary,,"Benu Bekary, Natore, Natore District, Rajshahi Division, Bangladesh","বেনু বেকারি, নাটোর জেলা, রাজশাহী বিভাগ, বাংলাদেশ",Natore,বাংলাদেশ,রাজশাহী বিভাগ,local_admin,boundaries,['bakery'],[],Bangladesh,Rajshahi,Natore,NatoreSadar,NatorePaurashava,dd35f10efe310fd7a061446540bbdbea
5126141397.0,893cf5576dbffff,24.4132929,88.9780987,Megha Sofa Corner & Furniture মেঘা পালঙ্ক কর্নার ও আসবাবপত্র,,"Megha Sofa Corner & Furniture, Natore, Natore District, Rajshahi Division, Bangladesh","মেঘা পালঙ্ক কর্নার ও আসবাবপত্র, নাটোর জেলা, রাজশাহী বিভাগ, বাংলাদেশ",Natore,বাংলাদেশ,রাজশাহী বিভাগ,local_admin,boundaries,['furniture'],[],Bangladesh,Rajshahi,Natore,NatoreSadar,NatorePaurashava,dd35f10efe310fd7a061446540bbdbea
5126144092.0,893cf552b37ffff,24.4129931,88.9777577,,,"Natore, Natore District, Rajshahi Division, Bangladesh","নাটোর জেলা, রাজশাহী বিভাগ, বাংলাদেশ",Natore,বাংলাদেশ,রাজশাহী বিভাগ,local_admin,boundaries,['atm'],[],Bangladesh,Rajshahi,Natore,NatoreSadar,NatorePaurashava,dd35f10efe310fd7a061446540bbdbea
591886345.0,893cf519a8bffff,24.50554198942329,89.1423836445757,পান পট্ট্রি রোড,,"Patri Road, Singra, Natore District, Rajshahi Division, Bangladesh","পান পট্ট্রি রোড, নাটোর জেলা, রাজশাহী বিভাগ, বাংলাদেশ",Singra,বাংলাদেশ,রাজশাহী বিভাগ,street,,,,Bangladesh,Rajshahi,Natore,Singra,SingraPaurashava,57f0e84245c59cc1bdc7d551ce273095
5126146474.0,893cf5576dbffff,24.413125,88.9776585,Vai vai hotel ভাই ভাই হোটেল,,"Vai vai hotel, Natore, Natore District, Rajshahi Division, Bangladesh","ভাই ভাই হোটেল, নাটোর জেলা, রাজশাহী বিভাগ, বাংলাদেশ",Natore,বাংলাদেশ,রাজশাহী বিভাগ,local_admin,boundaries,['restaurant'],[],Bangladesh,Rajshahi,Natore,NatoreSadar,NatorePaurashava,dd35f10efe310fd7a061446540bbdbea
5126164556.0,893cf552b07ffff,24.4109196,88.9699703,Sadek Hotel,,"Sadek Hotel, Natore, Natore District, Rajshahi Division, Bangladesh","সাদেক হোটেল, নাটোর জেলা, রাজশাহী বিভাগ, বাংলাদেশ",Natore,বাংলাদেশ,রাজশাহী বিভাগ,local_admin,boundaries,['restaurant'],[],Bangladesh,Rajshahi,Natore,NatoreSadar,NatorePaurashava,dd35f10efe310fd7a061446540bbdbea
5126173887.0,893cf552b07ffff,24.410643,88.9690245,Shefaly Pharmacy,,"Shefaly Pharmacy, Natore, Natore District, Rajshahi Division, Bangladesh","শেফালি ফার্মাসি, নাটোর জেলা, রাজশাহী বিভাগ, বাংলাদেশ",Natore,বাংলাদেশ,রাজশাহী বিভাগ,local_admin,boundaries,['pharmacy'],[],Bangladesh,Rajshahi,Natore,NatoreSadar,NatorePaurashava,dd35f10efe310fd7a061446540bbdbea
5126183082.0,893cf552b17ffff,24.4104359,88.9674591,,,"Natore, Natore District, Rajshahi Division, Bangladesh","নাটোর জেলা, রাজশাহী বিভাগ, বাংলাদেশ",Natore,বাংলাদেশ,রাজশাহী বিভাগ,local_admin,boundaries,['atm'],[],Bangladesh,Rajshahi,Natore,NatoreSadar,NatorePaurashava,dd35f10efe310fd7a061446540bbdbea
5126206992.0,893cf552b17ffff,24.4102265,88.9668249,জনতা ব্যাংক লিমিটেড,['Janata Bank Limited'],"Janata Bank Limited, Natore, Natore District, Rajshahi Division, Bangladesh","জনতা ব্যাংক লিমিটেড, নাটোর জেলা, রাজশাহী বিভাগ, বাংলাদেশ",Natore,বাংলাদেশ,রাজশাহী বিভাগ,local_admin,boundaries,['bank'],[],Bangladesh,Rajshahi,Natore,NatoreSadar,NatorePaurashava,dd35f10efe310fd7a061446540bbdbea
280308693.0,893cf556d8bffff,24.49808605,89.11937815,বগুড়া - নাটোর মহাসড়ক,['Bogra - Natore Hwy'],"Bogra - Natore highway, -, Bogra - Natore Hwy, Singra, Natore District, Rajshahi Division, Bangladesh","বগুড়া নাটোর মহাসড়ক, নাটোর জেলা, রাজশাহী বিভাগ, বাংলাদেশ",Singra,বাংলাদেশ,রাজশাহী বিভাগ,street,,,,Bangladesh,Rajshahi,Natore,Singra,SingraPaurashava,57f0e84245c59cc1bdc7d551ce273095
5126215725.0,893cf552b03ffff,24.409681,88.9670098,Basic Bank Limited,,"Basic Bank Limited, Natore, Natore District, Rajshahi Division, Bangladesh","বেসিক ব্যাংক লিমিটেড, নাটোর জেলা, রাজশাহী বিভাগ, বাংলাদেশ",Natore,বাংলাদেশ,রাজশাহী বিভাগ,local_admin,boundaries,['bank'],[],Bangladesh,Rajshahi,Natore,NatoreSadar,NatorePaurashava,dd35f10efe310fd7a061446540bbdbea
5126221560.0,893cf552b03ffff,24.4100499,88.9663838,,,"Natore, Natore District, Rajshahi Division, Bangladesh","নাটোর জেলা, রাজশাহী বিভাগ, বাংলাদেশ",Natore,বাংলাদেশ,রাজশাহী বিভাগ,local_admin,boundaries,['toilets'],[],Bangladesh,Rajshahi,Natore,NatoreSadar,NatorePaurashava,dd35f10efe310fd7a061446540bbdbea
5126249021.0,893cf552b03ffff,24.409259,88.9663987,Modern Hotel আধুনিক হোটেল,,"Modern Hotel, Natore, Natore District, Rajshahi Division, Bangladesh","আধুনিক হোটেল, নাটোর জেলা, রাজশাহী বিভাগ, বাংলাদেশ",Natore,বাংলাদেশ,রাজশাহী বিভাগ,local_admin,boundaries,['restaurant'],[],Bangladesh,Rajshahi,Natore,NatoreSadar,NatorePaurashava,dd35f10efe310fd7a061446540bbdbea
5126355262.0,893cf552bcbffff,24.4064144,88.9564468,Natore Station Bypass Bus Stand নাটোর স্টেশন বাইপাস বাসস্ট্যান্ড,,"Natore Station Bypass Bus Stand, Natore, Natore District, Rajshahi Division, Bangladesh","নাটোর স্টেশন বাইপাস বাসস্ট্যান্ড, নাটোর জেলা, রাজশাহী বিভাগ, বাংলাদেশ",Natore,বাংলাদেশ,রাজশাহী বিভাগ,street,boundaries,['bus_stop'],[],Bangladesh,Rajshahi,Natore,NatoreSadar,Tebaria,3ebe19fdf3ccd64aa00c8dabd6a05e8d
5127658927.0,893cf55764fffff,24.4046438,88.9888459,বটতলার মোড়,,"Tip, Natore, Natore District, Rajshahi Division, Bangladesh","বটতলার মোড়, নাটোর জেলা, রাজশাহী বিভাগ, বাংলাদেশ",Natore,বাংলাদেশ,রাজশাহী বিভাগ,street,boundaries,['bus_stop'],[],Bangladesh,Rajshahi,Natore,NatoreSadar,BaraHarishpur,ce0ab69a2eb33f321ba6c8384e6c4692
5127717837.0,893cf552a0bffff,24.3990068,88.9418805,janani hotel and restaurant জননী হোটেল এবং রেস্টুরেন্ট,,"janani hotel and restaurant, Natore, Natore District, Rajshahi Division, Bangladesh","জননী হোটেল এবং রেস্টুরেন্ট, নাটোর জেলা, রাজশাহী বিভাগ, বাংলাদেশ",Natore,বাংলাদেশ,রাজশাহী বিভাগ,local_admin,boundaries,['restaurant'],[],Bangladesh,Rajshahi,Natore,NatoreSadar,Tebaria,3ebe19fdf3ccd64aa00c8dabd6a05e8d
5127721842.0,893cf5500c3ffff,24.3730329,88.9021215,Tokia Jame Mosjid,,"Tokia Jame Mosjid, Natore, Natore District, Rajshahi Division, Bangladesh","টোকিয়া জামে মোসজিড, নাটোর জেলা, রাজশাহী বিভাগ, বাংলাদেশ",Natore,বাংলাদেশ,রাজশাহী বিভাগ,local_admin,boundaries,['place_of_worship_muslim'],[],Bangladesh,Rajshahi,Natore,NatoreSadar,Kafuria,7fe8d9ee137525ddd32a93d84493e120
280305346.0,893cf544467ffff,24.323681018630317,89.19833011016519,Rajshahi - Dhaka Highway,,"Rajshahi - Dhaka Highway, Baraigram, Natore District, Rajshahi Division, Bangladesh","রাজশাহী - Dhaka াকা মহাসড়ক, নাটোর জেলা, রাজশাহী বিভাগ, বাংলাদেশ",Baraigram,বাংলাদেশ,রাজশাহী বিভাগ,street,,,,Bangladesh,Rajshahi,Natore,Baraigram,BaraigramPaurashava,78ffffcb4c6498db072d74712723ee84
5127721867.0,893cf5500c3ffff,24.3729252,88.9011513,রাজশাহী কৃষি উন্নয়ন ব্যাংক,"['Rajshahi Krishi Unnoyon Bank, Kafuria Branch']","Rajshahi Agricultural Development Bank, Natore, Natore District, Rajshahi Division, Bangladesh","রাজশাহী কৃষি উন্নয়ন ব্যাংক, নাটোর জেলা, রাজশাহী বিভাগ, বাংলাদেশ",Natore,বাংলাদেশ,রাজশাহী বিভাগ,local_admin,boundaries,['bank'],[],Bangladesh,Rajshahi,Natore,NatoreSadar,Kafuria,7fe8d9ee137525ddd32a93d84493e120
591886344.0,893cf519a8bffff,24.505203947339535,89.14187279212317,কাপুর পট্টি রোড,,"Kapoor Potty Road, Singra, Natore District, Rajshahi Division, Bangladesh","কাপুর পট্টি রোড, নাটোর জেলা, রাজশাহী বিভাগ, বাংলাদেশ",Singra,বাংলাদেশ,রাজশাহী বিভাগ,street,,,,Bangladesh,Rajshahi,Natore,Singra,SingraPaurashava,57f0e84245c59cc1bdc7d551ce273095
280431428.0,893cf5199cfffff,24.5270408,89.17215655000001,সেতু,['Bridge'],"Bridge, Singra, Natore District, Rajshahi Division, Bangladesh","সেতু, নাটোর জেলা, রাজশাহী বিভাগ, বাংলাদেশ",Singra,বাংলাদেশ,রাজশাহী বিভাগ,street,,,,Bangladesh,Rajshahi,Natore,Singra,Chaugram,c0b9ba2903a37df0208dec7a473370cb
591886492.0,893cf519a07ffff,24.501979326409938,89.15059943859887,মোল্লাপাড়া সড়ক,['mollapara road'],"Mollapara Road, mollapara road, Singra, Natore District, Rajshahi Division, Bangladesh","মোল্লাপাড়া সড়ক, নাটোর জেলা, রাজশাহী বিভাগ, বাংলাদেশ",Singra,বাংলাদেশ,রাজশাহী বিভাগ,street,,,,Bangladesh,Rajshahi,Natore,Singra,SingraPaurashava,57f0e84245c59cc1bdc7d551ce273095
776316354.0,893cf50b513ffff,24.49554451144789,89.18976990206792,সিংড়া - তাড়াশ সড়ক,['Singra - Tarash Road'],"Singra - Tarash Road, -, Singra, Natore District, Rajshahi Division, Bangladesh","সিংড়া তাড়াশ সড়ক, নাটোর জেলা, রাজশাহী বিভাগ, বাংলাদেশ",Singra,বাংলাদেশ,রাজশাহী বিভাগ,street,,,,Bangladesh,Rajshahi,Natore,Singra,Italy,1cdc9a0e2060ffe2436dd15053bd97e2
255654012.0,893cf519ac7ffff,24.501306000066712,89.14338820318132,উপজেলা সড়ক,,"Upazila road, Singra, Natore District, Rajshahi Division, Bangladesh","উপজেলা সড়ক, নাটোর জেলা, রাজশাহী বিভাগ, বাংলাদেশ",Singra,বাংলাদেশ,রাজশাহী বিভাগ,street,,,,Bangladesh,Rajshahi,Natore,Singra,SingraPaurashava,57f0e84245c59cc1bdc7d551ce273095
5153388418.0,893cf55763bffff,24.4131169,88.9969703,North Bengal Homeo Hall,,"North Bengal Homeo Hall, Natore, Natore District, Rajshahi Division, Bangladesh","উত্তরবঙ্গ হোমো হল, নাটোর জেলা, রাজশাহী বিভাগ, বাংলাদেশ",Natore,বাংলাদেশ,রাজশাহী বিভাগ,local_admin,boundaries,['pharmacy'],[],Bangladesh,Rajshahi,Natore,NatoreSadar,NatorePaurashava,dd35f10efe310fd7a061446540bbdbea
5153390648.0,893cf55763bffff,24.4136698,88.9965845,Nipun Pharmacy নিপুন ফার্মেসী,,"Nipun Pharmacy, Natore, Natore District, Rajshahi Division, Bangladesh","নিপুন ফার্মেসী, নাটোর জেলা, রাজশাহী বিভাগ, বাংলাদেশ",Natore,বাংলাদেশ,রাজশাহী বিভাগ,local_admin,boundaries,['pharmacy'],[],Bangladesh,Rajshahi,Natore,NatoreSadar,NatorePaurashava,dd35f10efe310fd7a061446540bbdbea
5153391676.0,893cf55763bffff,24.4139262,88.9966675,sujan sweets সুজন সুইটস,,"sujan sweets, Natore, Natore District, Rajshahi Division, Bangladesh","সুজন সুইটস, নাটোর জেলা, রাজশাহী বিভাগ, বাংলাদেশ",Natore,বাংলাদেশ,রাজশাহী বিভাগ,local_admin,boundaries,['restaurant'],[],Bangladesh,Rajshahi,Natore,NatoreSadar,NatorePaurashava,dd35f10efe310fd7a061446540bbdbea
5153394843.0,893cf557623ffff,24.4163708,88.9991556,সি.সি.লি চাইনিজ এন্ড থাই রেস্টুরেন্ট (স্টেডিয়াম),,"CCL Chinese & Thai Restaurant Stadium, Natore, Natore District, Rajshahi Division, Bangladesh","সি.সি.লি চাইনিজ এন্ড থাই রেস্টুরেন্ট স্টেডিয়াম, নাটোর জেলা, রাজশাহী বিভাগ, বাংলাদেশ",Natore,বাংলাদেশ,রাজশাহী বিভাগ,local_admin,boundaries,['restaurant'],[],Bangladesh,Rajshahi,Natore,NatoreSadar,NatorePaurashava,dd35f10efe310fd7a061446540bbdbea
5153402777.0,893cf557637ffff,24.4182615,88.9999442,Natore New Indoor Stadium,,"Natore New Indoor Stadium, Natore, Natore District, Rajshahi Division, Bangladesh","নাটোর নতুন ইনডোর স্টেডিয়াম, নাটোর জেলা, রাজশাহী বিভাগ, বাংলাদেশ",Natore,বাংলাদেশ,রাজশাহী বিভাগ,local_admin,boundaries,['stadium'],[],Bangladesh,Rajshahi,Natore,NatoreSadar,NatorePaurashava,dd35f10efe310fd7a061446540bbdbea
5160417473.0,893cf559d8fffff,24.1957042,88.9039247,Masud Telecom Paik Para Bazar মাসুদ টেলি পাইক পাড়া বাজার,,"Masud Telecom Paik Para Bazar, Lalpur, Natore District, Rajshahi Division, Bangladesh","মাসুদ টেলি পাইক পাড়া বাজার, নাটোর জেলা, রাজশাহী বিভাগ, বাংলাদেশ",Lalpur,বাংলাদেশ,রাজশাহী বিভাগ,local_admin,boundaries,['marketplace'],[],Bangladesh,Rajshahi,Natore,Lalpur,Durduria,34e12057409456e8dee81a3fb636a0ec
554702961.0,893cf519ac3ffff,24.50176265858696,89.13789407090196,বেদে পারা রোড,,"Veda Para Road, Singra, Natore District, Rajshahi Division, Bangladesh","বেদে পারা রোড, নাটোর জেলা, রাজশাহী বিভাগ, বাংলাদেশ",Singra,বাংলাদেশ,রাজশাহী বিভাগ,street,,,,Bangladesh,Rajshahi,Natore,Singra,SingraPaurashava,57f0e84245c59cc1bdc7d551ce273095
5160431295.0,893cf559dabffff,24.1941384,88.9112862,রহিমপুর বাজার,,"Rahimpur Bazar, Lalpur, Natore District, Rajshahi Division, Bangladesh","রহিমপুর বাজার, নাটোর জেলা, রাজশাহী বিভাগ, বাংলাদেশ",Lalpur,বাংলাদেশ,রাজশাহী বিভাগ,local_admin,boundaries,['marketplace'],[],Bangladesh,Rajshahi,Natore,Lalpur,Bilmaria,785330d031ede06e06ea589b83130de3
5160454591.0,893cf54a54bffff,24.177609,88.9651151,Kismot Fruits,,"Kismot Fruits, Lalpur, Natore District, Rajshahi Division, Bangladesh","কিসমোট ফল, নাটোর জেলা, রাজশাহী বিভাগ, বাংলাদেশ",Lalpur,বাংলাদেশ,রাজশাহী বিভাগ,local_admin,boundaries,['marketplace'],[],Bangladesh,Rajshahi,Natore,Lalpur,Lalpur,7c73af9e91d37d512ddf0113f916d6e7
5160454755.0,893cf54a54bffff,24.1773846,88.9650668,লালপুর ত্রিমহিনী,,"Lalpur Trimhini, Lalpur, Natore District, Rajshahi Division, Bangladesh","লালপুর ত্রিমহিনী, নাটোর জেলা, রাজশাহী বিভাগ, বাংলাদেশ",Lalpur,বাংলাদেশ,রাজশাহী বিভাগ,street,boundaries,['bus_stop'],[],Bangladesh,Rajshahi,Natore,Lalpur,Lalpur,7c73af9e91d37d512ddf0113f916d6e7
5160455105.0,893cf54a54bffff,24.1774553,88.9648935,রাজ & জিহাদ দই ঘর,,"Raj & Jihad Yogurt House, &, Lalpur, Natore District, Rajshahi Division, Bangladesh","রাজ জিহাদ দই ঘর, নাটোর জেলা, রাজশাহী বিভাগ, বাংলাদেশ",Lalpur,বাংলাদেশ,রাজশাহী বিভাগ,local_admin,boundaries,['restaurant'],[],Bangladesh,Rajshahi,Natore,Lalpur,Lalpur,7c73af9e91d37d512ddf0113f916d6e7
5160508898.0,893cf54a10bffff,24.1708621,88.9900685,Laxmipur Hut লক্ষীপুর হাট,,"Laxmipur Hut, Lalpur, Natore District, Rajshahi Division, Bangladesh","লক্ষীপুর হাট, নাটোর জেলা, রাজশাহী বিভাগ, বাংলাদেশ",Lalpur,বাংলাদেশ,রাজশাহী বিভাগ,local_admin,boundaries,['marketplace'],[],Bangladesh,Rajshahi,Natore,Lalpur,Ishwardi,4f7884e0ced7182626ee389b029992bc
540727844.0,893cf519e6fffff,24.50553327919434,89.13891335495518,দোয়ারপাড় রাস্তা,,"Gateway, Singra, Natore District, Rajshahi Division, Bangladesh","দোয়ারপাড় রাস্তা, নাটোর জেলা, রাজশাহী বিভাগ, বাংলাদেশ",Singra,বাংলাদেশ,রাজশাহী বিভাগ,street,,,,Bangladesh,Rajshahi,Natore,Singra,SingraPaurashava,57f0e84245c59cc1bdc7d551ce273095
280205307.0,893cf54e417ffff,24.2315068,89.11956825,সেতু,['Bridge'],"Bridge, Baraigram, Natore District, Rajshahi Division, Bangladesh","সেতু, নাটোর জেলা, রাজশাহী বিভাগ, বাংলাদেশ",Baraigram,বাংলাদেশ,রাজশাহী বিভাগ,street,,,,Bangladesh,Rajshahi,Natore,Baraigram,Nagar,fb91d0886ea3670df4dac1f142ec368f
280431434.0,893cf519863ffff,24.51445495,89.16009235000001,সেতু,['Bridge'],"Bridge, Singra, Natore District, Rajshahi Division, Bangladesh","সেতু, নাটোর জেলা, রাজশাহী বিভাগ, বাংলাদেশ",Singra,বাংলাদেশ,রাজশাহী বিভাগ,street,,,,Bangladesh,Rajshahi,Natore,Singra,Tajpur,4c71b89fa5cc7cc44d0a377e2b593e1a
280305347.0,893cf5470cbffff,24.31388030075532,89.13084388824852,Rajshahi - Dhaka Highway,,"Rajshahi - Dhaka Highway, Baraigram, Natore District, Rajshahi Division, Bangladesh","রাজশাহী - Dhaka াকা মহাসড়ক, নাটোর জেলা, রাজশাহী বিভাগ, বাংলাদেশ",Baraigram,বাংলাদেশ,রাজশাহী বিভাগ,street,,,,Bangladesh,Rajshahi,Natore,Baraigram,Majgaon,fd2af4647d74c7b6756caef50fcf761f
133733628.0,893cf519ac3ffff,24.4998948,89.1391208,বগুড়া - নাটোর মহাসড়ক,,"Bogra - Natore highway, -, Singra, Natore District, Rajshahi Division, Bangladesh","বগুড়া নাটোর মহাসড়ক, নাটোর জেলা, রাজশাহী বিভাগ, বাংলাদেশ",Singra,বাংলাদেশ,রাজশাহী বিভাগ,street,,,,Bangladesh,Rajshahi,Natore,Singra,SingraPaurashava,57f0e84245c59cc1bdc7d551ce273095
280308688.0,893cf556c17ffff,24.4894267,89.09993255,সেতু,['Bridge'],"Bridge, Singra, Natore District, Rajshahi Division, Bangladesh","সেতু, নাটোর জেলা, রাজশাহী বিভাগ, বাংলাদেশ",Singra,বাংলাদেশ,রাজশাহী বিভাগ,street,,,,Bangladesh,Rajshahi,Natore,Singra,Sherkole,3ad9e5bf27ab86f1d40efb59e893c32a
5219734022.0,893cf5576abffff,24.4186779,88.9952433,,['Natore Rajbari'],"Natore, Natore District, Rajshahi Division, Bangladesh","নাটোর জেলা, রাজশাহী বিভাগ, বাংলাদেশ",Natore,বাংলাদেশ,রাজশাহী বিভাগ,local_admin,boundaries,['guest_house'],[],Bangladesh,Rajshahi,Natore,NatoreSadar,NatorePaurashava,dd35f10efe310fd7a061446540bbdbea
9946678818.0,893cf540a1bffff,24.2433778,89.0964558,,"['прогулки', 'Trip']","Baraigram, Natore District, Rajshahi Division, Bangladesh","নাটোর জেলা, রাজশাহী বিভাগ, বাংলাদেশ",Baraigram,বাংলাদেশ,রাজশাহী বিভাগ,local_admin,boundaries,['memorial'],[],Bangladesh,Rajshahi,Natore,Lalpur,KadamChilan,abd492de33bc21829e0bec0350b40eb9
133749888.0,893cf54ab8fffff,24.1544793,89.04754886,ঈশ্বরদী বিমানবন্দর,['Ishwardi Airport'],"Ishwardi Airport, Lalpur, Natore District, Rajshahi Division, Bangladesh","ঈশ্বরদী বিমানবন্দর, নাটোর জেলা, রাজশাহী বিভাগ, বাংলাদেশ",Lalpur,বাংলাদেশ,রাজশাহী বিভাগ,local_admin,boundaries,['airport'],[],Bangladesh,Rajshahi,Natore,Lalpur,Ishwardi,4f7884e0ced7182626ee389b029992bc
255653964.0,893cf519ac7ffff,24.50254609015641,89.14385098453023,বালুয়া বাসুয়া সড়ক,['Balua Basua Road'],"Balua Basua Road, Singra, Natore District, Rajshahi Division, Bangladesh","বালুয়া বাসুয়া সড়ক, নাটোর জেলা, রাজশাহী বিভাগ, বাংলাদেশ",Singra,বাংলাদেশ,রাজশাহী বিভাগ,street,,,,Bangladesh,Rajshahi,Natore,Singra,SingraPaurashava,57f0e84245c59cc1bdc7d551ce273095
354584219.0,893cf55704bffff,24.41145816,89.00877145,Natore,,"Natore, Natore District, Rajshahi Division, Bangladesh","নাটোর, নাটোর জেলা, রাজশাহী বিভাগ, বাংলাদেশ",Natore,বাংলাদেশ,রাজশাহী বিভাগ,local_admin,boundaries,['substation'],[],Bangladesh,Rajshahi,Natore,NatoreSadar,BaraHarishpur,ce0ab69a2eb33f321ba6c8384e6c4692
280431424.0,893cf518a3bffff,24.54984187511149,89.19101218288823,বগুড়া - নাটোর মহাসড়ক,"['Bogra - Natore Hwy', 'Bogura - Natore Hwy']","Bogra - Natore highway, -, Bogura - Natore Hwy, Singra, Natore District, Rajshahi Division, Bangladesh","বগুড়া নাটোর মহাসড়ক, নাটোর জেলা, রাজশাহী বিভাগ, বাংলাদেশ",Singra,বাংলাদেশ,রাজশাহী বিভাগ,street,,,,Bangladesh,Rajshahi,Natore,Singra,Chaugram,c0b9ba2903a37df0208dec7a473370cb
691611325.0,893cf519ad7ffff,24.50433917956289,89.14112079218285,বাজার রোড,,"Market road, Singra, Natore District, Rajshahi Division, Bangladesh","বাজার রোড, নাটোর জেলা, রাজশাহী বিভাগ, বাংলাদেশ",Singra,বাংলাদেশ,রাজশাহী বিভাগ,street,,,,Bangladesh,Rajshahi,Natore,Singra,SingraPaurashava,57f0e84245c59cc1bdc7d551ce273095
536984084.0,893cf518123ffff,24.581815857371343,89.15645969207925,Soair Road,,"Soair Road, Singra, Natore District, Rajshahi Division, Bangladesh","সোয়ার রোড, নাটোর জেলা, রাজশাহী বিভাগ, বাংলাদেশ",Singra,বাংলাদেশ,রাজশাহী বিভাগ,street,,,,Bangladesh,Rajshahi,Natore,Singra,Chaugram,c0b9ba2903a37df0208dec7a473370cb
280305355.0,893cf542b77ffff,24.299563046019863,89.10036947211506,Rajshahi - Dhaka Highway,,"Rajshahi - Dhaka Highway, Baraigram, Natore District, Rajshahi Division, Bangladesh","রাজশাহী - Dhaka াকা মহাসড়ক, নাটোর জেলা, রাজশাহী বিভাগ, বাংলাদেশ",Baraigram,বাংলাদেশ,রাজশাহী বিভাগ,street,,,,Bangladesh,Rajshahi,Natore,Baraigram,BanparaPaurashava,6b32e551f343804b323cd384f3e06f6e
401781404.0,893cf5572b3ffff,24.41016809,89.01037546,Natore New Bus Terminal,,"Natore New Bus Terminal, Natore, Natore District, Rajshahi Division, Bangladesh","নাটোর নতুন বাস টার্মিনাল, নাটোর জেলা, রাজশাহী বিভাগ, বাংলাদেশ",Natore,বাংলাদেশ,রাজশাহী বিভাগ,local_admin,boundaries,['bus_station'],[],Bangladesh,Rajshahi,Natore,NatoreSadar,BaraHarishpur,ce0ab69a2eb33f321ba6c8384e6c4692
567115468.0,893cf51985bffff,24.512887711334848,89.1466999432794,হাস্পাতাল রোড,,"Hassipatal Road, Singra, Natore District, Rajshahi Division, Bangladesh","হাস্পাতাল রোড, নাটোর জেলা, রাজশাহী বিভাগ, বাংলাদেশ",Singra,বাংলাদেশ,রাজশাহী বিভাগ,street,,,,Bangladesh,Rajshahi,Natore,Singra,SingraPaurashava,57f0e84245c59cc1bdc7d551ce273095
536977954.0,893cf5188c7ffff,24.57546842503105,89.18503196392825,Soair Road,,"Soair Road, Singra, Natore District, Rajshahi Division, Bangladesh","সোয়ার রোড, নাটোর জেলা, রাজশাহী বিভাগ, বাংলাদেশ",Singra,বাংলাদেশ,রাজশাহী বিভাগ,street,,,,Bangladesh,Rajshahi,Natore,Singra,RamanandaKhajura,4b03a22e051f41db9266c2940b620dd1
518359892.0,893cf540cd7ffff,24.28384913,89.08062085,,,"Baraigram, Natore District, Rajshahi Division, Bangladesh","নাটোর জেলা, রাজশাহী বিভাগ, বাংলাদেশ",Baraigram,বাংলাদেশ,রাজশাহী বিভাগ,local_admin,boundaries,['park'],[],Bangladesh,Rajshahi,Natore,Baraigram,BanparaPaurashava,6b32e551f343804b323cd384f3e06f6e
