osm_id,h3level9,lat,lon,name,alt_names,name_en,name_bn,local_admin_name,admin0_name,admin2_name,addr_level,poi_addr_match,poi_class,poi_keywords,country,division,district,thana,union,region_hash
2410128201.0,893ce23b3d7ffff,24.8834747,90.7334478,Boro Bazar Mosque,,"Boro Bazar Mosque, Netrokona District, Mymensingh Division, Bangladesh","বোরো বাজার মসজিদ, নেত্রকোনা জেলা, ময়মনসিংহ বিভাগ, বাংলাদেশ",,বাংলাদেশ,ময়মনসিংহ বিভাগ,admin2,boundaries,['place_of_worship_muslim'],[],Bangladesh,Mymensingh,Netrakona,NetrokonaSadar,NetrokonaPaurashava,2289aa39fd9174d3437b17088bf1f0c7
3558445433.0,893ce23b35bffff,24.8717045,90.7338985,ASA NGO,,"ASA NGO, Netrokona District, Mymensingh Division, Bangladesh","এএসএ এনজিও, নেত্রকোনা জেলা, ময়মনসিংহ বিভাগ, বাংলাদেশ",,বাংলাদেশ,ময়মনসিংহ বিভাগ,admin2,boundaries,['ngo'],[],Bangladesh,Mymensingh,Netrakona,NetrokonaSadar,NetrokonaPaurashava,2289aa39fd9174d3437b17088bf1f0c7
3558445434.0,893ce23b35bffff,24.8710544,90.7333343,"Civil Surgeon Office, Netrokona",,"Civil Surgeon Office Netrokona, Netrokona District, Mymensingh Division, Bangladesh","সিভিল সার্জন অফিস নেত্রোকোনা, নেত্রকোনা জেলা, ময়মনসিংহ বিভাগ, বাংলাদেশ",,বাংলাদেশ,ময়মনসিংহ বিভাগ,admin2,boundaries,['government'],[],Bangladesh,Mymensingh,Netrakona,NetrokonaSadar,NetrokonaPaurashava,2289aa39fd9174d3437b17088bf1f0c7
3558445435.0,893ce23b35bffff,24.8713797,90.7338547,Diagonostic Center,,"Diagonostic Center, Netrokona District, Mymensingh Division, Bangladesh","ডায়াগনস্টিক সেন্টার, নেত্রকোনা জেলা, ময়মনসিংহ বিভাগ, বাংলাদেশ",,বাংলাদেশ,ময়মনসিংহ বিভাগ,admin2,boundaries,['clinic'],[],Bangladesh,Mymensingh,Netrakona,NetrokonaSadar,NetrokonaPaurashava,2289aa39fd9174d3437b17088bf1f0c7
3558445436.0,893ce23b35bffff,24.8713837,90.7328864,Netrokona Nursing Institute,,"Netrokona Nursing Institute, Netrokona District, Mymensingh Division, Bangladesh","নেট্রোকোনা নার্সিং ইনস্টিটিউট, নেত্রকোনা জেলা, ময়মনসিংহ বিভাগ, বাংলাদেশ",,বাংলাদেশ,ময়মনসিংহ বিভাগ,admin2,boundaries,['college'],[],Bangladesh,Mymensingh,Netrakona,NetrokonaSadar,NetrokonaPaurashava,2289aa39fd9174d3437b17088bf1f0c7
3558445437.0,893ce23b35bffff,24.8717249,90.7321918,Netrokona Sadar Hospital,,"Netrokona Sadar Hospital, Netrokona District, Mymensingh Division, Bangladesh","নেত্রোকোনা সদর হাসপাতাল, নেত্রকোনা জেলা, ময়মনসিংহ বিভাগ, বাংলাদেশ",,বাংলাদেশ,ময়মনসিংহ বিভাগ,admin2,boundaries,['hospital'],[],Bangladesh,Mymensingh,Netrakona,NetrokonaSadar,NetrokonaPaurashava,2289aa39fd9174d3437b17088bf1f0c7
3558445438.0,893ce23b35bffff,24.8708574,90.7329536,Sub Tax Commissioner Office,,"Sub Tax Commissioner Office, Netrokona District, Mymensingh Division, Bangladesh","সাব ট্যাক্স কমিশনার অফিস, নেত্রকোনা জেলা, ময়মনসিংহ বিভাগ, বাংলাদেশ",,বাংলাদেশ,ময়মনসিংহ বিভাগ,admin2,boundaries,['government'],[],Bangladesh,Mymensingh,Netrakona,NetrokonaSadar,NetrokonaPaurashava,2289aa39fd9174d3437b17088bf1f0c7
3558445439.0,893ce23b34bffff,24.8708332,90.7341675,Tori Madokasokto Niramoy Kendro,,"Tori Madokasokto Niramoy Kendro, Netrokona District, Mymensingh Division, Bangladesh","তোরি মাদোকাসোক্টো নিরাময় কেন্ড্রো, নেত্রকোনা জেলা, ময়মনসিংহ বিভাগ, বাংলাদেশ",,বাংলাদেশ,ময়মনসিংহ বিভাগ,admin2,boundaries,['clinic'],[],Bangladesh,Mymensingh,Netrakona,NetrokonaSadar,NetrokonaPaurashava,2289aa39fd9174d3437b17088bf1f0c7
3558487502.0,893ce23b347ffff,24.8739995,90.7392022,Ahasan Society,,"Ahasan Society, Netrokona District, Mymensingh Division, Bangladesh","আহাসন সোসাইটি, নেত্রকোনা জেলা, ময়মনসিংহ বিভাগ, বাংলাদেশ",,বাংলাদেশ,ময়মনসিংহ বিভাগ,admin2,boundaries,['company'],[],Bangladesh,Mymensingh,Netrakona,NetrokonaSadar,NetrokonaPaurashava,2289aa39fd9174d3437b17088bf1f0c7
3558487503.0,893ce23b34bffff,24.8708629,90.7344031,Anondo Niketon Kindergarten,,"Anondo Niketon Kindergarten, Netrokona District, Mymensingh Division, Bangladesh","অননডো নিকেটন কিন্ডারগার্টেন, নেত্রকোনা জেলা, ময়মনসিংহ বিভাগ, বাংলাদেশ",,বাংলাদেশ,ময়মনসিংহ বিভাগ,admin2,boundaries,['kindergarten'],[],Bangladesh,Mymensingh,Netrakona,NetrokonaSadar,NetrokonaPaurashava,2289aa39fd9174d3437b17088bf1f0c7
3558487504.0,893ce23b34fffff,24.8704263,90.7378259,Baitul Jannat Jame Mosjid,,"Baitul Jannat Jame Mosjid, Netrokona District, Mymensingh Division, Bangladesh","বেতুল জান্নাত জামে মোসজিড, নেত্রকোনা জেলা, ময়মনসিংহ বিভাগ, বাংলাদেশ",,বাংলাদেশ,ময়মনসিংহ বিভাগ,admin2,boundaries,['place_of_worship_muslim'],[],Bangladesh,Mymensingh,Netrakona,NetrokonaSadar,NetrokonaPaurashava,2289aa39fd9174d3437b17088bf1f0c7
3558487505.0,893ce23b3cfffff,24.8767654,90.7335533,Katli Poschim Para Jame Mosjid,,"Katli Poschim Para Jame Mosjid, Netrokona District, Mymensingh Division, Bangladesh","ক্যাটলি পোসচিম প্যারা জামে মোসজিড, নেত্রকোনা জেলা, ময়মনসিংহ বিভাগ, বাংলাদেশ",,বাংলাদেশ,ময়মনসিংহ বিভাগ,admin2,boundaries,['place_of_worship_muslim'],[],Bangladesh,Mymensingh,Netrakona,NetrokonaSadar,NetrokonaPaurashava,2289aa39fd9174d3437b17088bf1f0c7
3558487506.0,893ce23b34fffff,24.8720096,90.7388951,Nurella Jame Mosjid,,"Nurella Jame Mosjid, Netrokona District, Mymensingh Division, Bangladesh","নুরেলা জামে মোসজিড, নেত্রকোনা জেলা, ময়মনসিংহ বিভাগ, বাংলাদেশ",,বাংলাদেশ,ময়মনসিংহ বিভাগ,admin2,boundaries,['place_of_worship_muslim'],[],Bangladesh,Mymensingh,Netrakona,NetrokonaSadar,NetrokonaPaurashava,2289aa39fd9174d3437b17088bf1f0c7
3558487507.0,893ce23b34fffff,24.8704753,90.7370186,Poriborton Madokasokto Ponurbason,,"Poriborton Madokasokto Ponurbason, Netrokona District, Mymensingh Division, Bangladesh","পোরিবর্টন মাদোকাসোক্টো পনুরবসন, নেত্রকোনা জেলা, ময়মনসিংহ বিভাগ, বাংলাদেশ",,বাংলাদেশ,ময়মনসিংহ বিভাগ,admin2,boundaries,['ngo'],[],Bangladesh,Mymensingh,Netrakona,NetrokonaSadar,NetrokonaPaurashava,2289aa39fd9174d3437b17088bf1f0c7
3558487508.0,893ce23b34bffff,24.8702566,90.7362431,Resource Medical Assistant Training School,,"Resource Medical Assistant Training School, Netrokona District, Mymensingh Division, Bangladesh","রিসোর্স মেডিকেল সহকারী প্রশিক্ষণ স্কুল, নেত্রকোনা জেলা, ময়মনসিংহ বিভাগ, বাংলাদেশ",,বাংলাদেশ,ময়মনসিংহ বিভাগ,admin2,boundaries,['school'],[],Bangladesh,Mymensingh,Netrakona,NetrokonaSadar,NetrokonaPaurashava,2289aa39fd9174d3437b17088bf1f0c7
3558487509.0,893ce23b34bffff,24.8698169,90.7362838,Rowsonara Mohiuddin Chowdhuri Hafijia Madrasa,,"Rowsonara Mohiuddin Chowdhuri Hafijia Madrasa, Netrokona District, Mymensingh Division, Bangladesh","রোওসোনার মহিউদ্দিন চৌধুরি হাফিজিয়া মাদ্রাস, নেত্রকোনা জেলা, ময়মনসিংহ বিভাগ, বাংলাদেশ",,বাংলাদেশ,ময়মনসিংহ বিভাগ,admin2,boundaries,['school'],[],Bangladesh,Mymensingh,Netrakona,NetrokonaSadar,NetrokonaPaurashava,2289aa39fd9174d3437b17088bf1f0c7
3559007759.0,893ce239497ffff,24.869447,90.7315758,Apollo Diagonostic Center,,"Apollo Diagonostic Center, Netrokona District, Mymensingh Division, Bangladesh","অ্যাপোলো ডায়াগনস্টিক সেন্টার, নেত্রকোনা জেলা, ময়মনসিংহ বিভাগ, বাংলাদেশ",,বাংলাদেশ,ময়মনসিংহ বিভাগ,admin2,boundaries,['clinic'],[],Bangladesh,Mymensingh,Netrakona,NetrokonaSadar,NetrokonaPaurashava,2289aa39fd9174d3437b17088bf1f0c7
3559007762.0,893ce23b22fffff,24.8713485,90.730127,Child Heaven Kindergarten,,"Child Heaven Kindergarten, Netrokona District, Mymensingh Division, Bangladesh","শিশু স্বর্গ কিন্ডারগার্টেন, নেত্রকোনা জেলা, ময়মনসিংহ বিভাগ, বাংলাদেশ",,বাংলাদেশ,ময়মনসিংহ বিভাগ,admin2,boundaries,['kindergarten'],[],Bangladesh,Mymensingh,Netrakona,NetrokonaSadar,NetrokonaPaurashava,2289aa39fd9174d3437b17088bf1f0c7
3559007763.0,893ce23b227ffff,24.8729169,90.7285877,Circuit House Netrokona,,"Circuit House Netrokona, Netrokona District, Mymensingh Division, Bangladesh","সার্কিট হাউস নেট্রোকোনা, নেত্রকোনা জেলা, ময়মনসিংহ বিভাগ, বাংলাদেশ",,বাংলাদেশ,ময়মনসিংহ বিভাগ,admin2,boundaries,['government'],[],Bangladesh,Mymensingh,Netrakona,NetrokonaSadar,NetrokonaPaurashava,2289aa39fd9174d3437b17088bf1f0c7
3559007764.0,893ce23b22fffff,24.871259,90.7276578,"DC Office Mosque, Netrokona Sadar",,"DC Office Mosque Netrokona Sadar, Netrokona District, Mymensingh Division, Bangladesh","ডিসি অফিসের মসজিদ নেত্রোকোনা সদর, নেত্রকোনা জেলা, ময়মনসিংহ বিভাগ, বাংলাদেশ",,বাংলাদেশ,ময়মনসিংহ বিভাগ,admin2,boundaries,['place_of_worship_muslim'],[],Bangladesh,Mymensingh,Netrakona,NetrokonaSadar,NetrokonaPaurashava,2289aa39fd9174d3437b17088bf1f0c7
3559007768.0,893ce23b22fffff,24.8716645,90.728365,Judge Court Netrokona,,"Judge Court Netrokona, Netrokona District, Mymensingh Division, Bangladesh","বিচারক আদালত নেত্রোকোনা, নেত্রকোনা জেলা, ময়মনসিংহ বিভাগ, বাংলাদেশ",,বাংলাদেশ,ময়মনসিংহ বিভাগ,admin2,boundaries,['courthouse'],[],Bangladesh,Mymensingh,Netrakona,NetrokonaSadar,NetrokonaPaurashava,2289aa39fd9174d3437b17088bf1f0c7
3559007771.0,893ce23b35bffff,24.8712454,90.7309338,Nabila Diagonostic Center,,"Nabila Diagonostic Center, Netrokona District, Mymensingh Division, Bangladesh","নাবিলা ডায়াগনস্টিক সেন্টার, নেত্রকোনা জেলা, ময়মনসিংহ বিভাগ, বাংলাদেশ",,বাংলাদেশ,ময়মনসিংহ বিভাগ,admin2,boundaries,['clinic'],[],Bangladesh,Mymensingh,Netrakona,NetrokonaSadar,NetrokonaPaurashava,2289aa39fd9174d3437b17088bf1f0c7
3559007772.0,893ce23b22fffff,24.8715208,90.7298704,Netrakona Polytecnic and Textile Institute,,"Netrakona Polytecnic and Textile Institute, Netrokona District, Mymensingh Division, Bangladesh","নেট্রোকোনা পলিটেকনিক এবং টেক্সটাইল ইনস্টিটিউট, নেত্রকোনা জেলা, ময়মনসিংহ বিভাগ, বাংলাদেশ",,বাংলাদেশ,ময়মনসিংহ বিভাগ,admin2,boundaries,['college'],[],Bangladesh,Mymensingh,Netrakona,NetrokonaSadar,NetrokonaPaurashava,2289aa39fd9174d3437b17088bf1f0c7
3559007773.0,893ce23b35bffff,24.8713032,90.7304793,Nova Diagonostic Center,,"Nova Diagonostic Center, Netrokona District, Mymensingh Division, Bangladesh","নোভা ডায়াগনস্টিক সেন্টার, নেত্রকোনা জেলা, ময়মনসিংহ বিভাগ, বাংলাদেশ",,বাংলাদেশ,ময়মনসিংহ বিভাগ,admin2,boundaries,['clinic'],[],Bangladesh,Mymensingh,Netrakona,NetrokonaSadar,NetrokonaPaurashava,2289aa39fd9174d3437b17088bf1f0c7
3559112805.0,893ce23b35bffff,24.8710003,90.7318334,Al Raji Diagonostic center,,"Al Raji Diagonostic center, Netrokona District, Mymensingh Division, Bangladesh","আল রাজি ডায়াগনস্টিক সেন্টার, নেত্রকোনা জেলা, ময়মনসিংহ বিভাগ, বাংলাদেশ",,বাংলাদেশ,ময়মনসিংহ বিভাগ,admin2,boundaries,['clinic'],[],Bangladesh,Mymensingh,Netrakona,NetrokonaSadar,NetrokonaPaurashava,2289aa39fd9174d3437b17088bf1f0c7
3559115596.0,893ce23b35bffff,24.8708431,90.7318495,Fatema Diagonostic Center,,"Fatema Diagonostic Center, Netrokona District, Mymensingh Division, Bangladesh","ফাতিমা ডায়াগনস্টিক সেন্টার, নেত্রকোনা জেলা, ময়মনসিংহ বিভাগ, বাংলাদেশ",,বাংলাদেশ,ময়মনসিংহ বিভাগ,admin2,boundaries,['clinic'],[],Bangladesh,Mymensingh,Netrakona,NetrokonaSadar,NetrokonaPaurashava,2289aa39fd9174d3437b17088bf1f0c7
3561589001.0,893ce23b3cbffff,24.8764323,90.7303479,Netrokona Rifle Club,,"Netrokona Rifle Club, Netrokona District, Mymensingh Division, Bangladesh","নেট্রোকোনা রাইফেল ক্লাব, নেত্রকোনা জেলা, ময়মনসিংহ বিভাগ, বাংলাদেশ",,বাংলাদেশ,ময়মনসিংহ বিভাগ,admin2,boundaries,['community_centre'],[],Bangladesh,Mymensingh,Netrakona,NetrokonaSadar,NetrokonaPaurashava,2289aa39fd9174d3437b17088bf1f0c7
3561589002.0,893ce23b3cbffff,24.8758169,90.7303519,Netrokona Shilpokola Academy Madh,,"Netrokona Shilpokola Academy Madh, Netrokona District, Mymensingh Division, Bangladesh","নেট্রোকোনা শিল্পোকোলা একাডেমি মাধ, নেত্রকোনা জেলা, ময়মনসিংহ বিভাগ, বাংলাদেশ",,বাংলাদেশ,ময়মনসিংহ বিভাগ,admin2,boundaries,['sports_centre'],[],Bangladesh,Mymensingh,Netrakona,NetrokonaSadar,NetrokonaPaurashava,2289aa39fd9174d3437b17088bf1f0c7
3561589005.0,893ce23b3cbffff,24.8767718,90.7300891,The Holy Child Kinder Garten,,"The Holy Child Kinder Garten, Netrokona District, Mymensingh Division, Bangladesh","পবিত্র শিশু কিন্ডার গার্টেন, নেত্রকোনা জেলা, ময়মনসিংহ বিভাগ, বাংলাদেশ",,বাংলাদেশ,ময়মনসিংহ বিভাগ,admin2,boundaries,['kindergarten'],[],Bangladesh,Mymensingh,Netrakona,NetrokonaSadar,NetrokonaPaurashava,2289aa39fd9174d3437b17088bf1f0c7
3561589013.0,893ce23b3cbffff,24.8780774,90.7313773,,,"Netrokona District, Mymensingh Division, Bangladesh","নেত্রকোনা জেলা, ময়মনসিংহ বিভাগ, বাংলাদেশ",,বাংলাদেশ,ময়মনসিংহ বিভাগ,admin2,boundaries,['town_hall'],[],Bangladesh,Mymensingh,Netrakona,NetrokonaSadar,NetrokonaPaurashava,2289aa39fd9174d3437b17088bf1f0c7
3561656512.0,893ce23b3c3ffff,24.8794752,90.7312357,City Digital Diagonostic Center,,"City Digital Diagonostic Center, Netrokona District, Mymensingh Division, Bangladesh","সিটি ডিজিটাল ডায়াগনস্টিক সেন্টার, নেত্রকোনা জেলা, ময়মনসিংহ বিভাগ, বাংলাদেশ",,বাংলাদেশ,ময়মনসিংহ বিভাগ,admin2,boundaries,['clinic'],[],Bangladesh,Mymensingh,Netrakona,NetrokonaSadar,NetrokonaPaurashava,2289aa39fd9174d3437b17088bf1f0c7
3561656513.0,893ce23b3cbffff,24.8786202,90.7307965,D.M Digilab,,"D.M Digilab, Netrokona District, Mymensingh Division, Bangladesh","ডি এম ডিজিলাব, নেত্রকোনা জেলা, ময়মনসিংহ বিভাগ, বাংলাদেশ",,বাংলাদেশ,ময়মনসিংহ বিভাগ,admin2,boundaries,['clinic'],[],Bangladesh,Mymensingh,Netrakona,NetrokonaSadar,NetrokonaPaurashava,2289aa39fd9174d3437b17088bf1f0c7
3561656514.0,893ce23b3cbffff,24.8783265,90.7310074,"Dakbanglo Market, Netrokona Sadar",,"Dakbanglo Market Netrokona Sadar, Netrokona District, Mymensingh Division, Bangladesh","ডাকবাংলো মার্কেট নেট্রোকোনা সদর, নেত্রকোনা জেলা, ময়মনসিংহ বিভাগ, বাংলাদেশ",,বাংলাদেশ,ময়মনসিংহ বিভাগ,admin2,boundaries,['marketplace'],[],Bangladesh,Mymensingh,Netrakona,NetrokonaSadar,NetrokonaPaurashava,2289aa39fd9174d3437b17088bf1f0c7
3561656517.0,893ce23b3cbffff,24.8784388,90.7306734,Holy Child Academy,,"Holy Child Academy, Netrokona District, Mymensingh Division, Bangladesh","পবিত্র শিশু একাডেমি, নেত্রকোনা জেলা, ময়মনসিংহ বিভাগ, বাংলাদেশ",,বাংলাদেশ,ময়মনসিংহ বিভাগ,admin2,boundaries,['kindergarten'],[],Bangladesh,Mymensingh,Netrakona,NetrokonaSadar,NetrokonaPaurashava,2289aa39fd9174d3437b17088bf1f0c7
3561656518.0,893ce23b3c3ffff,24.8813021,90.7319218,বাংলাদেশ কৃষি ব্যাংক,['Krishi Bank'],"Bangladesh Agricultural Bank, Netrokona District, Mymensingh Division, Bangladesh","বাংলাদেশ কৃষি ব্যাংক, নেত্রকোনা জেলা, ময়মনসিংহ বিভাগ, বাংলাদেশ",,বাংলাদেশ,ময়মনসিংহ বিভাগ,admin2,boundaries,['bank'],[],Bangladesh,Mymensingh,Netrakona,NetrokonaSadar,NetrokonaPaurashava,2289aa39fd9174d3437b17088bf1f0c7
3561656520.0,893ce23b3c3ffff,24.8796848,90.7312161,Model Diagonostic Center,,"Model Diagonostic Center, Netrokona District, Mymensingh Division, Bangladesh","মডেল ডায়াগনস্টিক সেন্টার, নেত্রকোনা জেলা, ময়মনসিংহ বিভাগ, বাংলাদেশ",,বাংলাদেশ,ময়মনসিংহ বিভাগ,admin2,boundaries,['clinic'],[],Bangladesh,Mymensingh,Netrakona,NetrokonaSadar,NetrokonaPaurashava,2289aa39fd9174d3437b17088bf1f0c7
3561656521.0,893ce23b3c3ffff,24.8810796,90.7320735,National Bank Ltd\,,"National Bank Ltd\, Netrokona District, Mymensingh Division, Bangladesh","ন্যাশনাল ব্যাংক লিমিটেড \, নেত্রকোনা জেলা, ময়মনসিংহ বিভাগ, বাংলাদেশ",,বাংলাদেশ,ময়মনসিংহ বিভাগ,admin2,boundaries,['bank'],[],Bangladesh,Mymensingh,Netrakona,NetrokonaSadar,NetrokonaPaurashava,2289aa39fd9174d3437b17088bf1f0c7
3561656523.0,893ce23b3c3ffff,24.8804543,90.7316531,Netrokona Govt Girl's High School,,"Netrokona Govt Girl's High School, Netrokona District, Mymensingh Division, Bangladesh","নেট্রোকোনা সরকারের উচ্চ বিদ্যালয়, নেত্রকোনা জেলা, ময়মনসিংহ বিভাগ, বাংলাদেশ",,বাংলাদেশ,ময়মনসিংহ বিভাগ,admin2,boundaries,['school'],[],Bangladesh,Mymensingh,Netrakona,NetrokonaSadar,NetrokonaPaurashava,2289aa39fd9174d3437b17088bf1f0c7
3561656524.0,893ce23b3c3ffff,24.8793661,90.7314299,New Swadesh Hospital and Diagonostic Center,,"New Swadesh Hospital and Diagonostic Center, Netrokona District, Mymensingh Division, Bangladesh","নতুন স্বদেশ হাসপাতাল এবং ডায়াগনস্টিক সেন্টার, নেত্রকোনা জেলা, ময়মনসিংহ বিভাগ, বাংলাদেশ",,বাংলাদেশ,ময়মনসিংহ বিভাগ,admin2,boundaries,['hospital'],[],Bangladesh,Mymensingh,Netrakona,NetrokonaSadar,NetrokonaPaurashava,2289aa39fd9174d3437b17088bf1f0c7
3561656525.0,893ce23b3c3ffff,24.880044,90.7314073,Nirapod Diagonostic Center,,"Nirapod Diagonostic Center, Netrokona District, Mymensingh Division, Bangladesh","নিরপড ডায়াগনস্টিক সেন্টার, নেত্রকোনা জেলা, ময়মনসিংহ বিভাগ, বাংলাদেশ",,বাংলাদেশ,ময়মনসিংহ বিভাগ,admin2,boundaries,['clinic'],[],Bangladesh,Mymensingh,Netrakona,NetrokonaSadar,NetrokonaPaurashava,2289aa39fd9174d3437b17088bf1f0c7
3561656526.0,893ce23b3cbffff,24.87864,90.7308304,Nurjahan Digilab,,"Nurjahan Digilab, Netrokona District, Mymensingh Division, Bangladesh","নূরজাহান ডিজিলাব, নেত্রকোনা জেলা, ময়মনসিংহ বিভাগ, বাংলাদেশ",,বাংলাদেশ,ময়মনসিংহ বিভাগ,admin2,boundaries,['clinic'],[],Bangladesh,Mymensingh,Netrakona,NetrokonaSadar,NetrokonaPaurashava,2289aa39fd9174d3437b17088bf1f0c7
3561656527.0,893ce23b3c3ffff,24.8812612,90.7319127,রূপালী ব্যাংক,"['রূপালী ব্যাংক', 'Rupali Bank']","Silver Bank, Netrokona District, Mymensingh Division, Bangladesh","রূপালী ব্যাংক, নেত্রকোনা জেলা, ময়মনসিংহ বিভাগ, বাংলাদেশ",,বাংলাদেশ,ময়মনসিংহ বিভাগ,admin2,boundaries,['bank'],[],Bangladesh,Mymensingh,Netrakona,NetrokonaSadar,NetrokonaPaurashava,2289aa39fd9174d3437b17088bf1f0c7
3561656528.0,893ce23b3c3ffff,24.8797302,90.7311163,সোনালী ব্যাংক,['Sonali Bank'],"Sonali Bank, Netrokona District, Mymensingh Division, Bangladesh","সোনালী ব্যাংক, নেত্রকোনা জেলা, ময়মনসিংহ বিভাগ, বাংলাদেশ",,বাংলাদেশ,ময়মনসিংহ বিভাগ,admin2,boundaries,['bank'],[],Bangladesh,Mymensingh,Netrakona,NetrokonaSadar,NetrokonaPaurashava,2289aa39fd9174d3437b17088bf1f0c7
3561656529.0,893ce23b3c3ffff,24.878909,90.7313323,Zilla Library,,"Zilla Library, Netrokona District, Mymensingh Division, Bangladesh","জিলা লাইব্রেরি, নেত্রকোনা জেলা, ময়মনসিংহ বিভাগ, বাংলাদেশ",,বাংলাদেশ,ময়মনসিংহ বিভাগ,admin2,boundaries,['library'],[],Bangladesh,Mymensingh,Netrakona,NetrokonaSadar,NetrokonaPaurashava,2289aa39fd9174d3437b17088bf1f0c7
3561814428.0,893ce23b3c3ffff,24.8796536,90.7315693,Maa O Shishu Clinic,,"Maa O Shishu Clinic, Netrokona District, Mymensingh Division, Bangladesh","মা ও শিশু ক্লিনিক, নেত্রকোনা জেলা, ময়মনসিংহ বিভাগ, বাংলাদেশ",,বাংলাদেশ,ময়মনসিংহ বিভাগ,admin2,boundaries,['clinic'],[],Bangladesh,Mymensingh,Netrakona,NetrokonaSadar,NetrokonaPaurashava,2289aa39fd9174d3437b17088bf1f0c7
3562915793.0,893ce23b22fffff,24.8724,90.7282748,Netrokona Sadar Police Station,,"Netrokona Sadar Police Station, Netrokona District, Mymensingh Division, Bangladesh","নেত্রোকোনা সদর থানা, নেত্রকোনা জেলা, ময়মনসিংহ বিভাগ, বাংলাদেশ",,বাংলাদেশ,ময়মনসিংহ বিভাগ,admin2,boundaries,['police'],[],Bangladesh,Mymensingh,Netrakona,NetrokonaSadar,NetrokonaPaurashava,2289aa39fd9174d3437b17088bf1f0c7
3858996114.0,893ce23b047ffff,24.887502,90.7210495,College Masjid,,"College Masjid, Netrokona District, Mymensingh Division, Bangladesh","কলেজ মসজিদ, নেত্রকোনা জেলা, ময়মনসিংহ বিভাগ, বাংলাদেশ",,বাংলাদেশ,ময়মনসিংহ বিভাগ,admin2,boundaries,['place_of_worship_muslim'],[],Bangladesh,Mymensingh,Netrakona,NetrokonaSadar,NetrokonaPaurashava,2289aa39fd9174d3437b17088bf1f0c7
3859012457.0,893ce23b043ffff,24.8882388,90.7170569,Mondol Market,,"Mondol Market, Netrokona District, Mymensingh Division, Bangladesh","মন্ডল বাজার, নেত্রকোনা জেলা, ময়মনসিংহ বিভাগ, বাংলাদেশ",,বাংলাদেশ,ময়মনসিংহ বিভাগ,admin2,boundaries,['marketplace'],[],Bangladesh,Mymensingh,Netrakona,NetrokonaSadar,NetrokonaPaurashava,2289aa39fd9174d3437b17088bf1f0c7
3859017601.0,893ce23b39bffff,24.8853564,90.7321761,Netrakona Post Office,,"Netrakona Post Office, Netrokona District, Mymensingh Division, Bangladesh","নেত্রাকোনা পোস্ট অফিস, নেত্রকোনা জেলা, ময়মনসিংহ বিভাগ, বাংলাদেশ",,বাংলাদেশ,ময়মনসিংহ বিভাগ,admin2,boundaries,['post_office'],[],Bangladesh,Mymensingh,Netrakona,NetrokonaSadar,NetrokonaPaurashava,2289aa39fd9174d3437b17088bf1f0c7
3859017763.0,893ce23b39bffff,24.8850098,90.7331659,ব্র্যাক ব্যাংক লিমিটেড,"['ব্র্যাক ব্যাংক লিমিটেড', 'BRAC Bank Limited']","BRAC Bank Limited, Netrokona District, Mymensingh Division, Bangladesh","ব্র্যাক ব্যাংক লিমিটেড, নেত্রকোনা জেলা, ময়মনসিংহ বিভাগ, বাংলাদেশ",,বাংলাদেশ,ময়মনসিংহ বিভাগ,admin2,boundaries,['bank'],[],Bangladesh,Mymensingh,Netrakona,NetrokonaSadar,NetrokonaPaurashava,2289aa39fd9174d3437b17088bf1f0c7
4607445247.0,893ce2a89c3ffff,25.1575673,90.7874905,,,"Netrokona District, Mymensingh Division, Bangladesh","নেত্রকোনা জেলা, ময়মনসিংহ বিভাগ, বাংলাদেশ",,বাংলাদেশ,ময়মনসিংহ বিভাগ,admin2,boundaries,['ford'],[],Bangladesh,Mymensingh,Netrakona,Kalmakanda,Lengura,414fb773253350642cca931b6070443d
4622072596.0,893ce204e8fffff,24.9957002,90.7042152,,,"Durgapur Subdistrict, Netrokona District, Mymensingh Division, Bangladesh","দুর্গাপুর উপজেলা, নেত্রকোনা জেলা, ময়মনসিংহ বিভাগ, বাংলাদেশ",দুর্গাপুর উপজেলা,বাংলাদেশ,ময়মনসিংহ বিভাগ,local_admin,boundaries,['ferry_terminal'],[],Bangladesh,Mymensingh,Netrakona,Durgapur,Kakairgara,cc3dd0d6fedec7407072766a04841f3e
4622072600.0,893ce204e17ffff,24.9945119,90.7040065,,,"Durgapur Subdistrict, Netrokona District, Mymensingh Division, Bangladesh","দুর্গাপুর উপজেলা, নেত্রকোনা জেলা, ময়মনসিংহ বিভাগ, বাংলাদেশ",দুর্গাপুর উপজেলা,বাংলাদেশ,ময়মনসিংহ বিভাগ,local_admin,boundaries,['ferry_terminal'],[],Bangladesh,Mymensingh,Netrakona,NetrokonaSadar,KaliaraGabragat,f12e4aab3793f676003e250c9e148d10
5224129044.0,893ce20cd23ffff,24.8668802,90.7013051,Sakua Bazar,,"Sakua Bazar, Netrokona District, Mymensingh Division, Bangladesh","সাকুয়া বাজার, নেত্রকোনা জেলা, ময়মনসিংহ বিভাগ, বাংলাদেশ",,বাংলাদেশ,ময়মনসিংহ বিভাগ,admin2,boundaries,['variety_store'],[],Bangladesh,Mymensingh,Netrakona,NetrokonaSadar,Challisha,6a4535d63ab74f7c46e0311777006589
5224129365.0,893ce23b253ffff,24.8689081,90.7072087,BGB Canteen,,"BGB Canteen, Netrokona District, Mymensingh Division, Bangladesh","বিজিবি ক্যান্টিন, নেত্রকোনা জেলা, ময়মনসিংহ বিভাগ, বাংলাদেশ",,বাংলাদেশ,ময়মনসিংহ বিভাগ,admin2,boundaries,['restaurant'],[],Bangladesh,Mymensingh,Netrakona,NetrokonaSadar,Challisha,6a4535d63ab74f7c46e0311777006589
5224136246.0,893ce23b253ffff,24.8694407,90.7084745,Dhaka Bus Stop,,"Dhaka Bus Stop, Netrokona District, Mymensingh Division, Bangladesh","Dhaka াকা বাস স্টপ, নেত্রকোনা জেলা, ময়মনসিংহ বিভাগ, বাংলাদেশ",,বাংলাদেশ,ময়মনসিংহ বিভাগ,street,boundaries,['bus_stop'],[],Bangladesh,Mymensingh,Netrakona,NetrokonaSadar,Challisha,6a4535d63ab74f7c46e0311777006589
5224140547.0,893ce23b207ffff,24.8738085,90.7192668,ধানসিড়ি হোটেল এন্ড রেস্টুরেন্ট,,"Dhanasiri Hotel & Restaurant, Netrokona District, Mymensingh Division, Bangladesh","ধানসিড়ি হোটেল এন্ড রেস্টুরেন্ট, নেত্রকোনা জেলা, ময়মনসিংহ বিভাগ, বাংলাদেশ",,বাংলাদেশ,ময়মনসিংহ বিভাগ,admin2,boundaries,['restaurant'],[],Bangladesh,Mymensingh,Netrakona,NetrokonaSadar,NetrokonaPaurashava,2289aa39fd9174d3437b17088bf1f0c7
5224144725.0,893ce23b207ffff,24.8751427,90.7202253,Annondo Bazaar আনন্দ বাজার,,"Annondo Bazaar, Netrokona District, Mymensingh Division, Bangladesh","আনন্দ বাজার, নেত্রকোনা জেলা, ময়মনসিংহ বিভাগ, বাংলাদেশ",,বাংলাদেশ,ময়মনসিংহ বিভাগ,admin2,boundaries,['variety_store'],[],Bangladesh,Mymensingh,Netrakona,NetrokonaSadar,NetrokonaPaurashava,2289aa39fd9174d3437b17088bf1f0c7
5224146832.0,893ce23b227ffff,24.8735296,90.7286124,জ'‌য়‌ের বাজার,,"Jae's market, Netrokona District, Mymensingh Division, Bangladesh","জ'‌য়‌ের বাজার, নেত্রকোনা জেলা, ময়মনসিংহ বিভাগ, বাংলাদেশ",,বাংলাদেশ,ময়মনসিংহ বিভাগ,admin2,boundaries,['marketplace'],[],Bangladesh,Mymensingh,Netrakona,NetrokonaSadar,NetrokonaPaurashava,2289aa39fd9174d3437b17088bf1f0c7
5224152002.0,893ce23b227ffff,24.8725937,90.7291891,mitali electronic and sp sound system মিতালী ইলেকট্রনিক ও পুলিশ সুপার সাউন্ড সিস্টেম,,"mitali electronic and sp sound system, Netrokona District, Mymensingh Division, Bangladesh","মিতালী ইলেকট্রনিক ও পুলিশ সুপার সাউন্ড সিস্টেম, নেত্রকোনা জেলা, ময়মনসিংহ বিভাগ, বাংলাদেশ",,বাংলাদেশ,ময়মনসিংহ বিভাগ,admin2,boundaries,['electronics'],[],Bangladesh,Mymensingh,Netrakona,NetrokonaSadar,NetrokonaPaurashava,2289aa39fd9174d3437b17088bf1f0c7
5224154410.0,893ce23b22fffff,24.872016,90.7291377,Khan Restaurant খান রেঁস্তোরা,,"Khan Restaurant, Netrokona District, Mymensingh Division, Bangladesh","খান রেঁস্তোরা, নেত্রকোনা জেলা, ময়মনসিংহ বিভাগ, বাংলাদেশ",,বাংলাদেশ,ময়মনসিংহ বিভাগ,admin2,boundaries,['restaurant'],[],Bangladesh,Mymensingh,Netrakona,NetrokonaSadar,NetrokonaPaurashava,2289aa39fd9174d3437b17088bf1f0c7
5224154552.0,893ce23b22fffff,24.871999,90.7290211,Khan Chainice & Fast Food,,"Khan Chainice & Fast Food, Netrokona District, Mymensingh Division, Bangladesh","খান চেইনিস এবং ফাস্ট ফুড, নেত্রকোনা জেলা, ময়মনসিংহ বিভাগ, বাংলাদেশ",,বাংলাদেশ,ময়মনসিংহ বিভাগ,admin2,boundaries,['fast_food'],[],Bangladesh,Mymensingh,Netrakona,NetrokonaSadar,NetrokonaPaurashava,2289aa39fd9174d3437b17088bf1f0c7
5224158698.0,893ce23b22fffff,24.8702704,90.7289077,শুভ এন্ড স‌ৌরভ ক‌ফ‌ি হাউজ,,"Happy and Sauerov Kafi House, Netrokona District, Mymensingh Division, Bangladesh","শুভ এন্ড স‌ৌরভ ক‌ফ‌ি হাউজ, নেত্রকোনা জেলা, ময়মনসিংহ বিভাগ, বাংলাদেশ",,বাংলাদেশ,ময়মনসিংহ বিভাগ,admin2,boundaries,['cafe'],[],Bangladesh,Mymensingh,Netrakona,NetrokonaSadar,NetrokonaPaurashava,2289aa39fd9174d3437b17088bf1f0c7
5224160484.0,893ce23b227ffff,24.8753425,90.7295281,Datta Market দত্ত বাজার,,"Datta Market, Netrokona District, Mymensingh Division, Bangladesh","দত্ত বাজার, নেত্রকোনা জেলা, ময়মনসিংহ বিভাগ, বাংলাদেশ",,বাংলাদেশ,ময়মনসিংহ বিভাগ,admin2,boundaries,['marketplace'],[],Bangladesh,Mymensingh,Netrakona,NetrokonaSadar,NetrokonaPaurashava,2289aa39fd9174d3437b17088bf1f0c7
5224163391.0,893ce23b3cbffff,24.8776714,90.7304405,,,"Netrokona District, Mymensingh Division, Bangladesh","নেত্রকোনা জেলা, ময়মনসিংহ বিভাগ, বাংলাদেশ",,বাংলাদেশ,ময়মনসিংহ বিভাগ,admin2,boundaries,['atm'],[],Bangladesh,Mymensingh,Netrakona,NetrokonaSadar,NetrokonaPaurashava,2289aa39fd9174d3437b17088bf1f0c7
5224169003.0,893ce23b3d7ffff,24.8824872,90.7325784,Sylhet Backery সিলেট বেকারি,,"Sylhet Backery, Netrokona District, Mymensingh Division, Bangladesh","সিলেট বেকারি, নেত্রকোনা জেলা, ময়মনসিংহ বিভাগ, বাংলাদেশ",,বাংলাদেশ,ময়মনসিংহ বিভাগ,admin2,boundaries,['tea'],[],Bangladesh,Mymensingh,Netrakona,NetrokonaSadar,NetrokonaPaurashava,2289aa39fd9174d3437b17088bf1f0c7
5224180548.0,893ce23b3d7ffff,24.8830576,90.7333814,Badhan Cloth Story বাধন কাপড় গল্প,,"Badhan Cloth Story, Netrokona District, Mymensingh Division, Bangladesh","বাধন কাপড় গল্প, নেত্রকোনা জেলা, ময়মনসিংহ বিভাগ, বাংলাদেশ",,বাংলাদেশ,ময়মনসিংহ বিভাগ,admin2,boundaries,['clothes'],[],Bangladesh,Mymensingh,Netrakona,NetrokonaSadar,NetrokonaPaurashava,2289aa39fd9174d3437b17088bf1f0c7
5224181333.0,893ce23b3d7ffff,24.8837981,90.7336808,Botgach Tola Kali Mondir বটগাছতলা কালী মন্দির,,"Botgach Tola Kali Mondir, Netrokona District, Mymensingh Division, Bangladesh","বটগাছতলা কালী মন্দির, নেত্রকোনা জেলা, ময়মনসিংহ বিভাগ, বাংলাদেশ",,বাংলাদেশ,ময়মনসিংহ বিভাগ,admin2,boundaries,['place_of_worship'],[],Bangladesh,Mymensingh,Netrakona,NetrokonaSadar,NetrokonaPaurashava,2289aa39fd9174d3437b17088bf1f0c7
5224187488.0,893ce23b39bffff,24.8849399,90.7331686,,,"Netrokona District, Mymensingh Division, Bangladesh","নেত্রকোনা জেলা, ময়মনসিংহ বিভাগ, বাংলাদেশ",,বাংলাদেশ,ময়মনসিংহ বিভাগ,admin2,boundaries,['atm'],[],Bangladesh,Mymensingh,Netrakona,NetrokonaSadar,NetrokonaPaurashava,2289aa39fd9174d3437b17088bf1f0c7
5224187552.0,893ce23b39bffff,24.8849253,90.733017,,,"Netrokona District, Mymensingh Division, Bangladesh","নেত্রকোনা জেলা, ময়মনসিংহ বিভাগ, বাংলাদেশ",,বাংলাদেশ,ময়মনসিংহ বিভাগ,admin2,boundaries,['atm'],[],Bangladesh,Mymensingh,Netrakona,NetrokonaSadar,NetrokonaPaurashava,2289aa39fd9174d3437b17088bf1f0c7
5224187622.0,893ce23b39bffff,24.8850044,90.7330935,"Symphony Customer Care, Netrokona সিম্ফনি কাস্টমার কেয়ার, নেত্রকোনা",,"Symphony Customer Care Netrokona, Netrokona District, Mymensingh Division, Bangladesh","সিম্ফনি কাস্টমার কেয়ার নেত্রকোনা, নেত্রকোনা জেলা, ময়মনসিংহ বিভাগ, বাংলাদেশ",,বাংলাদেশ,ময়মনসিংহ বিভাগ,admin2,boundaries,['mobile_phone'],[],Bangladesh,Mymensingh,Netrakona,NetrokonaSadar,NetrokonaPaurashava,2289aa39fd9174d3437b17088bf1f0c7
5224192750.0,893ce23b383ffff,24.8862696,90.7355108,Netrokona Truck Station,,"Netrokona Truck Station, Netrokona District, Mymensingh Division, Bangladesh","নেট্রোকোনা ট্রাক স্টেশন, নেত্রকোনা জেলা, ময়মনসিংহ বিভাগ, বাংলাদেশ",,বাংলাদেশ,ময়মনসিংহ বিভাগ,street,boundaries,['bus_stop'],[],Bangladesh,Mymensingh,Netrakona,NetrokonaSadar,NetrokonaPaurashava,2289aa39fd9174d3437b17088bf1f0c7
5224198195.0,893ce23b143ffff,24.8942961,90.7408039,বারহাট্টা বাসষ্ট্যান্ড,,"Barhatta, Netrokona District, Mymensingh Division, Bangladesh","বারহাট্টা বাসষ্ট্যান্ড, নেত্রকোনা জেলা, ময়মনসিংহ বিভাগ, বাংলাদেশ",,বাংলাদেশ,ময়মনসিংহ বিভাগ,street,boundaries,['bus_stop'],[],Bangladesh,Mymensingh,Netrakona,NetrokonaSadar,Medni,9af8d892116e9c69f99ca2211781ed65
5224198195.0,893ce23b143ffff,24.8942961,90.7408039,বারহাট্টা বাসষ্ট্যান্ড,,"Barhatta, Netrokona District, Mymensingh Division, Bangladesh","বারহাট্টা বাসষ্ট্যান্ড, নেত্রকোনা জেলা, ময়মনসিংহ বিভাগ, বাংলাদেশ",,বাংলাদেশ,ময়মনসিংহ বিভাগ,street,boundaries,['bus_stop'],[],Bangladesh,Mymensingh,Netrakona,NetrokonaSadar,NetrokonaPaurashava,2289aa39fd9174d3437b17088bf1f0c7
5224198435.0,893ce23b143ffff,24.8938863,90.7402954,Rajur Bazar রাজুর বাজার,,"Rajur Bazar, Netrokona District, Mymensingh Division, Bangladesh","রাজুর বাজার, নেত্রকোনা জেলা, ময়মনসিংহ বিভাগ, বাংলাদেশ",,বাংলাদেশ,ময়মনসিংহ বিভাগ,admin2,boundaries,['marketplace'],[],Bangladesh,Mymensingh,Netrakona,NetrokonaSadar,Medni,9af8d892116e9c69f99ca2211781ed65
5224198435.0,893ce23b143ffff,24.8938863,90.7402954,Rajur Bazar রাজুর বাজার,,"Rajur Bazar, Netrokona District, Mymensingh Division, Bangladesh","রাজুর বাজার, নেত্রকোনা জেলা, ময়মনসিংহ বিভাগ, বাংলাদেশ",,বাংলাদেশ,ময়মনসিংহ বিভাগ,admin2,boundaries,['marketplace'],[],Bangladesh,Mymensingh,Netrakona,NetrokonaSadar,NetrokonaPaurashava,2289aa39fd9174d3437b17088bf1f0c7
5224199746.0,893ce23b123ffff,24.9016139,90.7562777,Hotel Kobir In:,,"Hotel Kobir In:, Netrokona District, Mymensingh Division, Bangladesh","হোটেল কোবির ইন :, নেত্রকোনা জেলা, ময়মনসিংহ বিভাগ, বাংলাদেশ",,বাংলাদেশ,ময়মনসিংহ বিভাগ,admin2,boundaries,['restaurant'],[],Bangladesh,Mymensingh,Netrakona,NetrokonaSadar,Medni,9af8d892116e9c69f99ca2211781ed65
5511792193.0,893ce23b3c3ffff,24.8805723,90.7324488,Sahid Minner,,"Sahid Minner, Netrokona District, Mymensingh Division, Bangladesh","সাহিদ মিনার, নেত্রকোনা জেলা, ময়মনসিংহ বিভাগ, বাংলাদেশ",,বাংলাদেশ,ময়মনসিংহ বিভাগ,admin2,boundaries,['monument'],[],Bangladesh,Mymensingh,Netrakona,NetrokonaSadar,NetrokonaPaurashava,2289aa39fd9174d3437b17088bf1f0c7
5732500348.0,893ce23b22fffff,24.8709692,90.7280333,DC Office,,"DC Office, Netrokona District, Mymensingh Division, Bangladesh","ডিসি অফিস, নেত্রকোনা জেলা, ময়মনসিংহ বিভাগ, বাংলাদেশ",,বাংলাদেশ,ময়মনসিংহ বিভাগ,admin2,boundaries,['government'],[],Bangladesh,Mymensingh,Netrakona,NetrokonaSadar,NetrokonaPaurashava,2289aa39fd9174d3437b17088bf1f0c7
5732500679.0,893ce23b267ffff,24.8668721,90.7245656,,,"Netrokona District, Mymensingh Division, Bangladesh","নেত্রকোনা জেলা, ময়মনসিংহ বিভাগ, বাংলাদেশ",,বাংলাদেশ,ময়মনসিংহ বিভাগ,admin2,boundaries,['gate'],[],Bangladesh,Mymensingh,Netrakona,NetrokonaSadar,NetrokonaPaurashava,2289aa39fd9174d3437b17088bf1f0c7
5734529843.0,893ce23b207ffff,24.8737652,90.7183492,Netrokona District Bus Station,,"Netrokona District Bus Station, Netrokona District, Mymensingh Division, Bangladesh","নেট্রোকোনা জেলা বাস স্টেশন, নেত্রকোনা জেলা, ময়মনসিংহ বিভাগ, বাংলাদেশ",,বাংলাদেশ,ময়মনসিংহ বিভাগ,admin2,boundaries,['bus_station'],[],Bangladesh,Mymensingh,Netrakona,NetrokonaSadar,NetrokonaPaurashava,2289aa39fd9174d3437b17088bf1f0c7
5734782898.0,893ce23b143ffff,24.8934486,90.742127,,,"Netrokona District, Mymensingh Division, Bangladesh","নেত্রকোনা জেলা, ময়মনসিংহ বিভাগ, বাংলাদেশ",,বাংলাদেশ,ময়মনসিংহ বিভাগ,admin2,boundaries,['bus_station'],[],Bangladesh,Mymensingh,Netrakona,NetrokonaSadar,Medni,9af8d892116e9c69f99ca2211781ed65
5734782898.0,893ce23b143ffff,24.8934486,90.742127,,,"Netrokona District, Mymensingh Division, Bangladesh","নেত্রকোনা জেলা, ময়মনসিংহ বিভাগ, বাংলাদেশ",,বাংলাদেশ,ময়মনসিংহ বিভাগ,admin2,boundaries,['bus_station'],[],Bangladesh,Mymensingh,Netrakona,NetrokonaSadar,NetrokonaPaurashava,2289aa39fd9174d3437b17088bf1f0c7
5739429210.0,893ce23b253ffff,24.868829,90.7075547,BGB Camp,,"BGB Camp, Netrokona District, Mymensingh Division, Bangladesh","বিজিবি ক্যাম্প, নেত্রকোনা জেলা, ময়মনসিংহ বিভাগ, বাংলাদেশ",,বাংলাদেশ,ময়মনসিংহ বিভাগ,admin2,boundaries,['police'],[],Bangladesh,Mymensingh,Netrakona,NetrokonaSadar,Challisha,6a4535d63ab74f7c46e0311777006589
5739432999.0,893ce20cd27ffff,24.8680696,90.7054981,,,"Netrokona District, Mymensingh Division, Bangladesh","নেত্রকোনা জেলা, ময়মনসিংহ বিভাগ, বাংলাদেশ",,বাংলাদেশ,ময়মনসিংহ বিভাগ,admin2,boundaries,['gate'],[],Bangladesh,Mymensingh,Netrakona,NetrokonaSadar,Challisha,6a4535d63ab74f7c46e0311777006589
5739433181.0,893ce23b3cbffff,24.8759711,90.7308443,Netrokona Government Women College,,"Netrokona Government Women College, Netrokona District, Mymensingh Division, Bangladesh","নেট্রোকোনা সরকারী মহিলা কলেজ, নেত্রকোনা জেলা, ময়মনসিংহ বিভাগ, বাংলাদেশ",,বাংলাদেশ,ময়মনসিংহ বিভাগ,admin2,boundaries,['college'],[],Bangladesh,Mymensingh,Netrakona,NetrokonaSadar,NetrokonaPaurashava,2289aa39fd9174d3437b17088bf1f0c7
5739434998.0,893ce23b043ffff,24.8877917,90.718309,Netrokona Technical College,,"Netrokona Technical College, Netrokona District, Mymensingh Division, Bangladesh","নেট্রোকোনা টেকনিক্যাল কলেজ, নেত্রকোনা জেলা, ময়মনসিংহ বিভাগ, বাংলাদেশ",,বাংলাদেশ,ময়মনসিংহ বিভাগ,admin2,boundaries,['college'],[],Bangladesh,Mymensingh,Netrakona,NetrokonaSadar,NetrokonaPaurashava,2289aa39fd9174d3437b17088bf1f0c7
5739435060.0,893ce23b07bffff,24.887372,90.7217409,Netrokona Govt. College,,"Netrokona Govt. College, ","নেট্রোকোনা সরকারকলেজ, ",,বাংলাদেশ,ময়মনসিংহ বিভাগ,housenumber,sameSource,['university'],[],Bangladesh,Mymensingh,Netrakona,NetrokonaSadar,NetrokonaPaurashava,2289aa39fd9174d3437b17088bf1f0c7
5739435098.0,893ce23b047ffff,24.8892127,90.7220212,,,"Netrokona District, Mymensingh Division, Bangladesh","নেত্রকোনা জেলা, ময়মনসিংহ বিভাগ, বাংলাদেশ",,বাংলাদেশ,ময়মনসিংহ বিভাগ,admin2,boundaries,['communication_tower'],[],Bangladesh,Mymensingh,Netrakona,NetrokonaSadar,NetrokonaPaurashava,2289aa39fd9174d3437b17088bf1f0c7
5739438353.0,893ce23b39bffff,24.8851068,90.7339865,Sri Narshingah Dev Mandir,,"Sri Narshingah Dev Mandir, Netrokona District, Mymensingh Division, Bangladesh","শ্রী নার্শিংহ দেব মন্দির, নেত্রকোনা জেলা, ময়মনসিংহ বিভাগ, বাংলাদেশ",,বাংলাদেশ,ময়মনসিংহ বিভাগ,admin2,boundaries,['place_of_worship'],[],Bangladesh,Mymensingh,Netrakona,NetrokonaSadar,NetrokonaPaurashava,2289aa39fd9174d3437b17088bf1f0c7
5741792686.0,893ce23b3c7ffff,24.8807501,90.7331671,Jamuna Bank Limited,['যমুনা ব্যাংক লিমিটেড'],"Jamuna Bank Limited, Netrokona District, Mymensingh Division, Bangladesh","জামুনা ব্যাংক লিমিটেড, নেত্রকোনা জেলা, ময়মনসিংহ বিভাগ, বাংলাদেশ",,বাংলাদেশ,ময়মনসিংহ বিভাগ,admin2,boundaries,['bank'],[],Bangladesh,Mymensingh,Netrakona,NetrokonaSadar,NetrokonaPaurashava,2289aa39fd9174d3437b17088bf1f0c7
5742802599.0,893ce23b22fffff,24.8709811,90.7293198,Netrokona Upazila Parishad,,"Netrokona Upazila Parishad, Netrokona District, Mymensingh Division, Bangladesh","নেত্রোকোনা উপজিলা পরিশাদ, নেত্রকোনা জেলা, ময়মনসিংহ বিভাগ, বাংলাদেশ",,বাংলাদেশ,ময়মনসিংহ বিভাগ,admin2,boundaries,['government'],[],Bangladesh,Mymensingh,Netrakona,NetrokonaSadar,NetrokonaPaurashava,2289aa39fd9174d3437b17088bf1f0c7
5742811430.0,893ce239447ffff,24.852966,90.7328534,,,"Netrokona District, Mymensingh Division, Bangladesh","নেত্রকোনা জেলা, ময়মনসিংহ বিভাগ, বাংলাদেশ",,বাংলাদেশ,ময়মনসিংহ বিভাগ,admin2,boundaries,['gate'],[],Bangladesh,Mymensingh,Netrakona,NetrokonaSadar,Kailati,43f37686c8788e9289195c06821c0989
5742868893.0,893ce20c937ffff,24.8529372,90.720908,Mobile Tower,,"Mobile Tower, Netrokona District, Mymensingh Division, Bangladesh","মোবাইল টাওয়ার, নেত্রকোনা জেলা, ময়মনসিংহ বিভাগ, বাংলাদেশ",,বাংলাদেশ,ময়মনসিংহ বিভাগ,admin2,boundaries,['communication_tower'],[],Bangladesh,Mymensingh,Netrakona,NetrokonaSadar,Kailati,43f37686c8788e9289195c06821c0989
5742925967.0,893ce239413ffff,24.8593209,90.731822,Modon Bus Station,,"Modon Bus Station, Netrokona District, Mymensingh Division, Bangladesh","মোডন বাস স্টেশন, নেত্রকোনা জেলা, ময়মনসিংহ বিভাগ, বাংলাদেশ",,বাংলাদেশ,ময়মনসিংহ বিভাগ,admin2,boundaries,['bus_station'],[],Bangladesh,Mymensingh,Netrakona,NetrokonaSadar,Kailati,43f37686c8788e9289195c06821c0989
5742925968.0,893ce23941bffff,24.8584947,90.7321452,Kendua Bus Station,,"Kendua Bus Station, Netrokona District, Mymensingh Division, Bangladesh","কেন্দুয়া বাস স্টেশন, নেত্রকোনা জেলা, ময়মনসিংহ বিভাগ, বাংলাদেশ",,বাংলাদেশ,ময়মনসিংহ বিভাগ,admin2,boundaries,['bus_station'],[],Bangladesh,Mymensingh,Netrakona,NetrokonaSadar,Kailati,43f37686c8788e9289195c06821c0989
5743010682.0,893ce239493ffff,24.8671133,90.7270718,,,"Netrokona District, Mymensingh Division, Bangladesh","নেত্রকোনা জেলা, ময়মনসিংহ বিভাগ, বাংলাদেশ",,বাংলাদেশ,ময়মনসিংহ বিভাগ,admin2,boundaries,['gate'],[],Bangladesh,Mymensingh,Netrakona,NetrokonaSadar,NetrokonaPaurashava,2289aa39fd9174d3437b17088bf1f0c7
5743011174.0,893ce23b267ffff,24.867291,90.7254624,Netrokona Police Lines,,"Netrokona Police Lines, Netrokona District, Mymensingh Division, Bangladesh","নেট্রোকোনা পুলিশ লাইন, নেত্রকোনা জেলা, ময়মনসিংহ বিভাগ, বাংলাদেশ",,বাংলাদেশ,ময়মনসিংহ বিভাগ,admin2,boundaries,['police'],[],Bangladesh,Mymensingh,Netrakona,NetrokonaSadar,NetrokonaPaurashava,2289aa39fd9174d3437b17088bf1f0c7
5743029810.0,893ce23b22fffff,24.870317,90.7289788,Polli Sonchoy Bank,,"Polli Sonchoy Bank, Netrokona District, Mymensingh Division, Bangladesh","পোলি সোনচয় ব্যাংক, নেত্রকোনা জেলা, ময়মনসিংহ বিভাগ, বাংলাদেশ",,বাংলাদেশ,ময়মনসিংহ বিভাগ,admin2,boundaries,['bank'],[],Bangladesh,Mymensingh,Netrakona,NetrokonaSadar,NetrokonaPaurashava,2289aa39fd9174d3437b17088bf1f0c7
5765646953.0,893ce276123ffff,24.7993514,90.7491115,Shah Sultan Rh Degree College,,"Shah Sultan Rh Degree College, Netrokona District, Mymensingh Division, Bangladesh","শাহ সুলতান আরএইচ ডিগ্রি কলেজ, নেত্রকোনা জেলা, ময়মনসিংহ বিভাগ, বাংলাদেশ",,বাংলাদেশ,ময়মনসিংহ বিভাগ,admin2,boundaries,['college'],[],Bangladesh,Mymensingh,Netrakona,NetrokonaSadar,Madanpur,13ccb7edb5401f3b7c2802f0fdee76e6
5765647187.0,893ce276137ffff,24.8024388,90.7500509,Sonali Bank Limited,,"Sonali Bank Limited, Netrokona District, Mymensingh Division, Bangladesh","সোনালি ব্যাংক লিমিটেড, নেত্রকোনা জেলা, ময়মনসিংহ বিভাগ, বাংলাদেশ",,বাংলাদেশ,ময়মনসিংহ বিভাগ,admin2,boundaries,['bank'],[],Bangladesh,Mymensingh,Netrakona,NetrokonaSadar,Madanpur,13ccb7edb5401f3b7c2802f0fdee76e6
5765647532.0,893ce276cdbffff,24.8044317,90.7501622,Madanpur Bazar,,"Madanpur Bazar, Netrokona District, Mymensingh Division, Bangladesh","মদনপুর বাজার, নেত্রকোনা জেলা, ময়মনসিংহ বিভাগ, বাংলাদেশ",,বাংলাদেশ,ময়মনসিংহ বিভাগ,admin2,boundaries,['marketplace'],[],Bangladesh,Mymensingh,Netrakona,NetrokonaSadar,Lakshmiganj,9310960f80b25382b4c0b2d58bd4012d
5765647533.0,893ce276cdbffff,24.8048553,90.7506645,Shah Sultan High School,,"Shah Sultan High School, Netrokona District, Mymensingh Division, Bangladesh","শাহ সুলতান উচ্চ বিদ্যালয়, নেত্রকোনা জেলা, ময়মনসিংহ বিভাগ, বাংলাদেশ",,বাংলাদেশ,ময়মনসিংহ বিভাগ,admin2,boundaries,['school'],[],Bangladesh,Mymensingh,Netrakona,NetrokonaSadar,Lakshmiganj,9310960f80b25382b4c0b2d58bd4012d
5765647534.0,893ce276cdbffff,24.8049223,90.7519653,Madanpur Dak Bungalow,,"Madanpur Dak Bungalow, Netrokona District, Mymensingh Division, Bangladesh","মদনপুর ডাক বাংলো, নেত্রকোনা জেলা, ময়মনসিংহ বিভাগ, বাংলাদেশ",,বাংলাদেশ,ময়মনসিংহ বিভাগ,admin2,boundaries,['guest_house'],[],Bangladesh,Mymensingh,Netrakona,NetrokonaSadar,Lakshmiganj,9310960f80b25382b4c0b2d58bd4012d
5765647755.0,893ce276cdbffff,24.8044134,90.7524481,Hazrat Shah Sultan Kamar Uddin Rumi (RA) Mazar Sharif,,"Hazrat Shah Sultan Kamar Uddin Rumi RA Mazar Sharif, Netrokona District, Mymensingh Division, Bangladesh","হযরত শাহ সুলতান কামার উদদিন রুমী রা মাজার শরীফ, নেত্রকোনা জেলা, ময়মনসিংহ বিভাগ, বাংলাদেশ",,বাংলাদেশ,ময়মনসিংহ বিভাগ,admin2,boundaries,['place_of_worship_muslim'],[],Bangladesh,Mymensingh,Netrakona,NetrokonaSadar,Lakshmiganj,9310960f80b25382b4c0b2d58bd4012d
5765647756.0,893ce276cdbffff,24.8043781,90.7520686,Shah Sultan (R) Jame Mosque,,"Shah Sultan R Jame Mosque, Netrokona District, Mymensingh Division, Bangladesh","শাহ সুলতান আর জামে মসজিদ, নেত্রকোনা জেলা, ময়মনসিংহ বিভাগ, বাংলাদেশ",,বাংলাদেশ,ময়মনসিংহ বিভাগ,admin2,boundaries,['place_of_worship_muslim'],[],Bangladesh,Mymensingh,Netrakona,NetrokonaSadar,Lakshmiganj,9310960f80b25382b4c0b2d58bd4012d
5776429527.0,893ce23b253ffff,24.8683842,90.7083862,,,"Netrokona District, Mymensingh Division, Bangladesh","নেত্রকোনা জেলা, ময়মনসিংহ বিভাগ, বাংলাদেশ",,বাংলাদেশ,ময়মনসিংহ বিভাগ,admin2,boundaries,['helipad'],[],Bangladesh,Mymensingh,Netrakona,NetrokonaSadar,Challisha,6a4535d63ab74f7c46e0311777006589
5781669895.0,893ce23b07bffff,24.8870788,90.7229237,Buliding,,"Buliding, Netrokona District, Mymensingh Division, Bangladesh","বিল্ডিং, নেত্রকোনা জেলা, ময়মনসিংহ বিভাগ, বাংলাদেশ",,বাংলাদেশ,ময়মনসিংহ বিভাগ,admin2,boundaries,['communication_tower'],[],Bangladesh,Mymensingh,Netrakona,NetrokonaSadar,NetrokonaPaurashava,2289aa39fd9174d3437b17088bf1f0c7
5783958141.0,893ce23b067ffff,24.8873513,90.7312439,নেত্রকোনা কোর্ট,"['নেত্রকোনা কোর্ট রেলওয়ে স্টেশন; নেত্রকোনা আদালত', 'Netrokona Court Railway Station']","Netrokona Court, Netrokona District, Mymensingh Division, Bangladesh","নেত্রকোনা কোর্ট, নেত্রকোনা জেলা, ময়মনসিংহ বিভাগ, বাংলাদেশ",,বাংলাদেশ,ময়মনসিংহ বিভাগ,admin2,boundaries,['railway_station'],[],Bangladesh,Mymensingh,Netrakona,NetrokonaSadar,NetrokonaPaurashava,2289aa39fd9174d3437b17088bf1f0c7
5785926920.0,893ce23b39bffff,24.886799,90.7336043,,,"Netrokona District, Mymensingh Division, Bangladesh","নেত্রকোনা জেলা, ময়মনসিংহ বিভাগ, বাংলাদেশ",,বাংলাদেশ,ময়মনসিংহ বিভাগ,admin2,boundaries,['bus_station'],[],Bangladesh,Mymensingh,Netrakona,NetrokonaSadar,NetrokonaPaurashava,2289aa39fd9174d3437b17088bf1f0c7
5786738915.0,893ce2386d3ffff,24.8893253,90.7542098,,,"Netrokona District, Mymensingh Division, Bangladesh","নেত্রকোনা জেলা, ময়মনসিংহ বিভাগ, বাংলাদেশ",,বাংলাদেশ,ময়মনসিংহ বিভাগ,admin2,boundaries,['gate'],[],Bangladesh,Mymensingh,Netrakona,NetrokonaSadar,Medni,9af8d892116e9c69f99ca2211781ed65
5786837775.0,893ce23b313ffff,24.8816388,90.7377275,Chandranath High School,,"Chandranath High School, Netrokona District, Mymensingh Division, Bangladesh","চন্দ্রনাথ উচ্চ বিদ্যালয়, নেত্রকোনা জেলা, ময়মনসিংহ বিভাগ, বাংলাদেশ",,বাংলাদেশ,ময়মনসিংহ বিভাগ,admin2,boundaries,['school'],[],Bangladesh,Mymensingh,Netrakona,NetrokonaSadar,NetrokonaPaurashava,2289aa39fd9174d3437b17088bf1f0c7
5791322362.0,893ce23b337ffff,24.8822065,90.7518994,,,"Netrokona District, Mymensingh Division, Bangladesh","নেত্রকোনা জেলা, ময়মনসিংহ বিভাগ, বাংলাদেশ",,বাংলাদেশ,ময়মনসিংহ বিভাগ,admin2,boundaries,['gate'],[],Bangladesh,Mymensingh,Netrakona,NetrokonaSadar,SingharBangla,ef2f80cbf9dce25206682c077e87af1e
5791813830.0,893ce23b07bffff,24.88649,90.7232349,,,,,,বাংলাদেশ,ময়মনসিংহ বিভাগ,housenumber,contains,['gate'],[],Bangladesh,Mymensingh,Netrakona,NetrokonaSadar,NetrokonaPaurashava,2289aa39fd9174d3437b17088bf1f0c7
5791813831.0,893ce23b07bffff,24.8860873,90.7232738,,,,,,বাংলাদেশ,ময়মনসিংহ বিভাগ,housenumber,contains,['gate'],[],Bangladesh,Mymensingh,Netrakona,NetrokonaSadar,NetrokonaPaurashava,2289aa39fd9174d3437b17088bf1f0c7
5791813832.0,893ce23b07bffff,24.8860052,90.7232644,,,,,,বাংলাদেশ,ময়মনসিংহ বিভাগ,housenumber,contains,['gate'],[],Bangladesh,Mymensingh,Netrakona,NetrokonaSadar,NetrokonaPaurashava,2289aa39fd9174d3437b17088bf1f0c7
5791906129.0,893ce23b3cbffff,24.8779652,90.731608,Netrokona Press Club,,"Netrokona Press Club, Netrokona District, Mymensingh Division, Bangladesh","নেট্রোকোনা প্রেস ক্লাব, নেত্রকোনা জেলা, ময়মনসিংহ বিভাগ, বাংলাদেশ",,বাংলাদেশ,ময়মনসিংহ বিভাগ,admin2,boundaries,['newspaper'],[],Bangladesh,Mymensingh,Netrakona,NetrokonaSadar,NetrokonaPaurashava,2289aa39fd9174d3437b17088bf1f0c7
5791906132.0,893ce23b3cbffff,24.8782791,90.7309784,sororito restarant,,"sororito restarant, Netrokona District, Mymensingh Division, Bangladesh","সোফ্রিটো রেস্তোঁরা, নেত্রকোনা জেলা, ময়মনসিংহ বিভাগ, বাংলাদেশ",,বাংলাদেশ,ময়মনসিংহ বিভাগ,admin2,boundaries,['restaurant'],[],Bangladesh,Mymensingh,Netrakona,NetrokonaSadar,NetrokonaPaurashava,2289aa39fd9174d3437b17088bf1f0c7
5791929254.0,893ce23b3c3ffff,24.8812015,90.7323457,Fish Market,,"Fish Market, Netrokona District, Mymensingh Division, Bangladesh","মাছের বাজার, নেত্রকোনা জেলা, ময়মনসিংহ বিভাগ, বাংলাদেশ",,বাংলাদেশ,ময়মনসিংহ বিভাগ,admin2,boundaries,['marketplace'],[],Bangladesh,Mymensingh,Netrakona,NetrokonaSadar,NetrokonaPaurashava,2289aa39fd9174d3437b17088bf1f0c7
5791977100.0,893ce23b3c7ffff,24.8816401,90.7332281,কর্মসংস্থান ব্যাংক,['Kormosongsthan Bank'],"The employment bank, Netrokona District, Mymensingh Division, Bangladesh","কর্মসংস্থান ব্যাংক, নেত্রকোনা জেলা, ময়মনসিংহ বিভাগ, বাংলাদেশ",,বাংলাদেশ,ময়মনসিংহ বিভাগ,admin2,boundaries,['bank'],[],Bangladesh,Mymensingh,Netrakona,NetrokonaSadar,NetrokonaPaurashava,2289aa39fd9174d3437b17088bf1f0c7
5795480121.0,893ce23b38bffff,24.8853799,90.7348394,Mukti Mistanya Vandar,,"Mukti Mistanya Vandar, Netrokona District, Mymensingh Division, Bangladesh","মুক্তি মিস্তন্যা ভান্দার, নেত্রকোনা জেলা, ময়মনসিংহ বিভাগ, বাংলাদেশ",,বাংলাদেশ,ময়মনসিংহ বিভাগ,admin2,boundaries,['confectionery'],[],Bangladesh,Mymensingh,Netrakona,NetrokonaSadar,NetrokonaPaurashava,2289aa39fd9174d3437b17088bf1f0c7
5795608755.0,893ce23b3c3ffff,24.8792609,90.7305144,নেত্রকোনা কো-অপারেটিভ ব্যাংক,['Netrakona Co-operative Bank'],"Netrokona Co-operative Bank, Netrokona District, Mymensingh Division, Bangladesh","নেত্রকোনা কো-অপারেটিভ ব্যাংক, নেত্রকোনা জেলা, ময়মনসিংহ বিভাগ, বাংলাদেশ",,বাংলাদেশ,ময়মনসিংহ বিভাগ,admin2,boundaries,['bank'],[],Bangladesh,Mymensingh,Netrakona,NetrokonaSadar,NetrokonaPaurashava,2289aa39fd9174d3437b17088bf1f0c7
5795608756.0,893ce23b3c3ffff,24.8792792,90.730391,Nagra Co-operative Bank,['Nagra Co-operative Bank'],"Nagra Co-operative Bank, Netrokona District, Mymensingh Division, Bangladesh","নাগরা সমবায় ব্যাংক, নেত্রকোনা জেলা, ময়মনসিংহ বিভাগ, বাংলাদেশ",,বাংলাদেশ,ময়মনসিংহ বিভাগ,admin2,boundaries,['bank'],[],Bangladesh,Mymensingh,Netrakona,NetrokonaSadar,NetrokonaPaurashava,2289aa39fd9174d3437b17088bf1f0c7
5795609347.0,893ce23b3c3ffff,24.8805481,90.7321385,Dotto High School,,"Dotto High School, Netrokona District, Mymensingh Division, Bangladesh","ডটো হাই স্কুল, নেত্রকোনা জেলা, ময়মনসিংহ বিভাগ, বাংলাদেশ",,বাংলাদেশ,ময়মনসিংহ বিভাগ,admin2,boundaries,['school'],[],Bangladesh,Mymensingh,Netrakona,NetrokonaSadar,NetrokonaPaurashava,2289aa39fd9174d3437b17088bf1f0c7
5795700659.0,893ce23b38bffff,24.8830413,90.7342661,Sonali Bank Limited,,"Sonali Bank Limited, Netrokona District, Mymensingh Division, Bangladesh","সোনালি ব্যাংক লিমিটেড, নেত্রকোনা জেলা, ময়মনসিংহ বিভাগ, বাংলাদেশ",,বাংলাদেশ,ময়মনসিংহ বিভাগ,admin2,boundaries,['bank'],[],Bangladesh,Mymensingh,Netrakona,NetrokonaSadar,NetrokonaPaurashava,2289aa39fd9174d3437b17088bf1f0c7
5795824851.0,893ce23b3c7ffff,24.8814582,90.734657,Agrani Bank Limited,,"Agrani Bank Limited, Netrokona District, Mymensingh Division, Bangladesh","আগরানী ব্যাংক লিমিটেড, নেত্রকোনা জেলা, ময়মনসিংহ বিভাগ, বাংলাদেশ",,বাংলাদেশ,ময়মনসিংহ বিভাগ,admin2,boundaries,['bank'],[],Bangladesh,Mymensingh,Netrakona,NetrokonaSadar,NetrokonaPaurashava,2289aa39fd9174d3437b17088bf1f0c7
5797761037.0,893ce23b3d7ffff,24.8837363,90.732355,Jamuna Bangla Bank Limited,,"Jamuna Bangla Bank Limited, Netrokona District, Mymensingh Division, Bangladesh","জামুনা বাংলা ব্যাংক লিমিটেড, নেত্রকোনা জেলা, ময়মনসিংহ বিভাগ, বাংলাদেশ",,বাংলাদেশ,ময়মনসিংহ বিভাগ,admin2,boundaries,['bank'],[],Bangladesh,Mymensingh,Netrakona,NetrokonaSadar,NetrokonaPaurashava,2289aa39fd9174d3437b17088bf1f0c7
5797761432.0,893ce23b3d7ffff,24.883277,90.7325622,Dutch Bangla Bank Limited,,"Dutch Bangla Bank Limited, Netrokona District, Mymensingh Division, Bangladesh","ডাচ বাংলা ব্যাংক লিমিটেড, নেত্রকোনা জেলা, ময়মনসিংহ বিভাগ, বাংলাদেশ",,বাংলাদেশ,ময়মনসিংহ বিভাগ,admin2,boundaries,['bank'],[],Bangladesh,Mymensingh,Netrakona,NetrokonaSadar,NetrokonaPaurashava,2289aa39fd9174d3437b17088bf1f0c7
5797761563.0,893ce23b3cfffff,24.8782353,90.7324804,,,"Netrokona District, Mymensingh Division, Bangladesh","নেত্রকোনা জেলা, ময়মনসিংহ বিভাগ, বাংলাদেশ",,বাংলাদেশ,ময়মনসিংহ বিভাগ,admin2,boundaries,['gate'],[],Bangladesh,Mymensingh,Netrakona,NetrokonaSadar,NetrokonaPaurashava,2289aa39fd9174d3437b17088bf1f0c7
5797951176.0,893ce23b3c3ffff,24.8787468,90.7316463,,,"Netrokona District, Mymensingh Division, Bangladesh","নেত্রকোনা জেলা, ময়মনসিংহ বিভাগ, বাংলাদেশ",,বাংলাদেশ,ময়মনসিংহ বিভাগ,admin2,boundaries,['gate'],[],Bangladesh,Mymensingh,Netrakona,NetrokonaSadar,NetrokonaPaurashava,2289aa39fd9174d3437b17088bf1f0c7
5798538554.0,893ce23b063ffff,24.8861457,90.7274808,Sree Maa Kali Mandir,,"Sree Maa Kali Mandir, Netrokona District, Mymensingh Division, Bangladesh","শ্রী মা কালী মন্দির, নেত্রকোনা জেলা, ময়মনসিংহ বিভাগ, বাংলাদেশ",,বাংলাদেশ,ময়মনসিংহ বিভাগ,admin2,boundaries,['place_of_worship'],[],Bangladesh,Mymensingh,Netrakona,NetrokonaSadar,NetrokonaPaurashava,2289aa39fd9174d3437b17088bf1f0c7
5801143002.0,893ce267663ffff,24.6221024,90.7875824,রোয়াইলবাড়ী বাজার,"['রোয়াইলবাড়ী বাজার', 'Roailbari Bazar']","Royailbari Bazar, Netrokona District, Mymensingh Division, Bangladesh","রোয়াইলবাড়ী বাজার, নেত্রকোনা জেলা, ময়মনসিংহ বিভাগ, বাংলাদেশ",,বাংলাদেশ,ময়মনসিংহ বিভাগ,admin2,boundaries,['marketplace'],[],Bangladesh,Mymensingh,Netrakona,Kendua,Roailbari,7b4a0dd9faf2e6a41f572317f406d412
5839640181.0,893ce23b3c3ffff,24.881536,90.7319708,Netrokona Pouro Market,,"Netrokona Pouro Market, Netrokona District, Mymensingh Division, Bangladesh","নেট্রোকোনা পোরো মার্কেট, নেত্রকোনা জেলা, ময়মনসিংহ বিভাগ, বাংলাদেশ",,বাংলাদেশ,ময়মনসিংহ বিভাগ,admin2,boundaries,['mall'],[],Bangladesh,Mymensingh,Netrakona,NetrokonaSadar,NetrokonaPaurashava,2289aa39fd9174d3437b17088bf1f0c7
5839648177.0,893ce23b3c3ffff,24.8794328,90.7327395,,,"Netrokona District, Mymensingh Division, Bangladesh","নেত্রকোনা জেলা, ময়মনসিংহ বিভাগ, বাংলাদেশ",,বাংলাদেশ,ময়মনসিংহ বিভাগ,admin2,boundaries,['gate'],[],Bangladesh,Mymensingh,Netrakona,NetrokonaSadar,NetrokonaPaurashava,2289aa39fd9174d3437b17088bf1f0c7
5867759887.0,893ce2674a3ffff,24.6570948,90.7948136,Mashka Bazar,,"Mashka Bazar, Netrokona District, Mymensingh Division, Bangladesh","মাশকা বাজার, নেত্রকোনা জেলা, ময়মনসিংহ বিভাগ, বাংলাদেশ",,বাংলাদেশ,ময়মনসিংহ বিভাগ,admin2,boundaries,['marketplace'],[],Bangladesh,Mymensingh,Netrakona,Kendua,Mashka,fdd0bdc8f4858abe9a2f19e65878404e
5867763471.0,893ce2674a3ffff,24.6576286,90.7936589,Mashka Bazar Jame Mosjid,,"Mashka Bazar Jame Mosjid, Netrokona District, Mymensingh Division, Bangladesh","মাশকা বাজার জামে মোসজিড, নেত্রকোনা জেলা, ময়মনসিংহ বিভাগ, বাংলাদেশ",,বাংলাদেশ,ময়মনসিংহ বিভাগ,admin2,boundaries,['place_of_worship_muslim'],[],Bangladesh,Mymensingh,Netrakona,Kendua,Mashka,fdd0bdc8f4858abe9a2f19e65878404e
5922193179.0,893ce275a73ffff,24.6612071,90.7725245,Sahitpur Bazar,,"Sahitpur Bazar, Netrokona District, Mymensingh Division, Bangladesh","সাহিতপুর বাজার, নেত্রকোনা জেলা, ময়মনসিংহ বিভাগ, বাংলাদেশ",,বাংলাদেশ,ময়মনসিংহ বিভাগ,admin2,boundaries,['marketplace'],[],Bangladesh,Mymensingh,Netrakona,Kendua,Sandikona,2ea79d80e80411bed745717c25f6bfe9
5922241048.0,893ce2674b3ffff,24.6584879,90.7897402,,,"Netrokona District, Mymensingh Division, Bangladesh","নেত্রকোনা জেলা, ময়মনসিংহ বিভাগ, বাংলাদেশ",,বাংলাদেশ,ময়মনসিংহ বিভাগ,admin2,boundaries,['gate'],[],Bangladesh,Mymensingh,Netrakona,Kendua,Mashka,fdd0bdc8f4858abe9a2f19e65878404e
5922275825.0,893ce275a73ffff,24.6613557,90.7731789,Sahitpur Bazar Jame Masjid,,"Sahitpur Bazar Jame Masjid, Netrokona District, Mymensingh Division, Bangladesh","সাহিতপুর বাজার জামে মসজিদ, নেত্রকোনা জেলা, ময়মনসিংহ বিভাগ, বাংলাদেশ",,বাংলাদেশ,ময়মনসিংহ বিভাগ,admin2,boundaries,['place_of_worship_muslim'],[],Bangladesh,Mymensingh,Netrakona,Kendua,Sandikona,2ea79d80e80411bed745717c25f6bfe9
5922370875.0,893ce275a1bffff,24.6634795,90.7669046,Sandikona School and College,,"Sandikona School and College, Netrokona District, Mymensingh Division, Bangladesh","সানডিকোনা স্কুল ও কলেজ, নেত্রকোনা জেলা, ময়মনসিংহ বিভাগ, বাংলাদেশ",,বাংলাদেশ,ময়মনসিংহ বিভাগ,admin2,boundaries,['school'],[],Bangladesh,Mymensingh,Netrakona,Kendua,Sandikona,2ea79d80e80411bed745717c25f6bfe9
5968538550.0,893ce275a73ffff,24.6613277,90.7724668,Bangladesh Krishi Bank Ltd,,"Bangladesh Krishi Bank Ltd, Netrokona District, Mymensingh Division, Bangladesh","বাংলাদেশ কৃষ্ণ ব্যাংক লিমিটেড, নেত্রকোনা জেলা, ময়মনসিংহ বিভাগ, বাংলাদেশ",,বাংলাদেশ,ময়মনসিংহ বিভাগ,admin2,boundaries,['bank'],[],Bangladesh,Mymensingh,Netrakona,Kendua,Sandikona,2ea79d80e80411bed745717c25f6bfe9
5968583131.0,893ce275a77ffff,24.660895,90.7749787,গ্রামীণ ব্যাংক,['Grameen Bank'],"Grameen Bank, Netrokona District, Mymensingh Division, Bangladesh","গ্রামীণ ব্যাংক, নেত্রকোনা জেলা, ময়মনসিংহ বিভাগ, বাংলাদেশ",,বাংলাদেশ,ময়মনসিংহ বিভাগ,admin2,boundaries,['bank'],[],Bangladesh,Mymensingh,Netrakona,Kendua,Sandikona,2ea79d80e80411bed745717c25f6bfe9
5968583132.0,893ce275a73ffff,24.6602588,90.7732078,Mujahid telecom,,"Mujahid telecom, Netrokona District, Mymensingh Division, Bangladesh","মুজাহিদ টেলিকম, নেত্রকোনা জেলা, ময়মনসিংহ বিভাগ, বাংলাদেশ",,বাংলাদেশ,ময়মনসিংহ বিভাগ,admin2,boundaries,['mobile_phone'],[],Bangladesh,Mymensingh,Netrakona,Kendua,Sandikona,2ea79d80e80411bed745717c25f6bfe9
5969786595.0,893ce275a43ffff,24.6590187,90.765589,Perirchor Jame Masjid,,"Perirchor Jame Masjid, Netrokona District, Mymensingh Division, Bangladesh","পেরির্চর জামে মসজিদ, নেত্রকোনা জেলা, ময়মনসিংহ বিভাগ, বাংলাদেশ",,বাংলাদেশ,ময়মনসিংহ বিভাগ,admin2,boundaries,['place_of_worship_muslim'],[],Bangladesh,Mymensingh,Netrakona,Kendua,Sandikona,2ea79d80e80411bed745717c25f6bfe9
6877518714.0,893ce23b047ffff,24.8881437,90.7201249,Netrakona lady hostle 1,,"Netrakona lady hostle 1, ","নেত্রাকোনা লেডি হোস্টেল 1, ",,বাংলাদেশ,ময়মনসিংহ বিভাগ,housenumber,contains,['university'],[],Bangladesh,Mymensingh,Netrakona,NetrokonaSadar,NetrokonaPaurashava,2289aa39fd9174d3437b17088bf1f0c7
6888663588.0,893ce23b047ffff,24.8878794,90.7201146,,,"Netrokona District, Mymensingh Division, Bangladesh","নেত্রকোনা জেলা, ময়মনসিংহ বিভাগ, বাংলাদেশ",,বাংলাদেশ,ময়মনসিংহ বিভাগ,admin2,boundaries,['gate'],[],Bangladesh,Mymensingh,Netrakona,NetrokonaSadar,NetrokonaPaurashava,2289aa39fd9174d3437b17088bf1f0c7
6906525746.0,893ce23b04fffff,24.8863277,90.7180214,Mymensingh,,"Mymensingh, Netrokona District, Mymensingh Division, Bangladesh","মাইমেনসিংহ, নেত্রকোনা জেলা, ময়মনসিংহ বিভাগ, বাংলাদেশ",,বাংলাদেশ,ময়মনসিংহ বিভাগ,admin2,boundaries,['college'],[],Bangladesh,Mymensingh,Netrakona,NetrokonaSadar,NetrokonaPaurashava,2289aa39fd9174d3437b17088bf1f0c7
6907656581.0,893ce23b2afffff,24.878998,90.725333,,,"Netrokona District, Mymensingh Division, Bangladesh","নেত্রকোনা জেলা, ময়মনসিংহ বিভাগ, বাংলাদেশ",,বাংলাদেশ,ময়মনসিংহ বিভাগ,admin2,boundaries,['currencyexchange'],[],Bangladesh,Mymensingh,Netrakona,NetrokonaSadar,NetrokonaPaurashava,2289aa39fd9174d3437b17088bf1f0c7
6907712834.0,893ce23b2a7ffff,24.8817477,90.7268421,,,"Netrokona District, Mymensingh Division, Bangladesh","নেত্রকোনা জেলা, ময়মনসিংহ বিভাগ, বাংলাদেশ",,বাংলাদেশ,ময়মনসিংহ বিভাগ,admin2,boundaries,['currencyexchange'],[],Bangladesh,Mymensingh,Netrakona,NetrokonaSadar,NetrokonaPaurashava,2289aa39fd9174d3437b17088bf1f0c7
6912629217.0,893ce2394d3ffff,24.861152,90.7210655,,,"Netrokona District, Mymensingh Division, Bangladesh","নেত্রকোনা জেলা, ময়মনসিংহ বিভাগ, বাংলাদেশ",,বাংলাদেশ,ময়মনসিংহ বিভাগ,admin2,boundaries,['landfill'],[],Bangladesh,Mymensingh,Netrakona,NetrokonaSadar,Kailati,43f37686c8788e9289195c06821c0989
6912646625.0,893ce20c9afffff,24.8579452,90.7192749,,,"Netrokona District, Mymensingh Division, Bangladesh","নেত্রকোনা জেলা, ময়মনসিংহ বিভাগ, বাংলাদেশ",,বাংলাদেশ,ময়মনসিংহ বিভাগ,admin2,boundaries,['landfill'],[],Bangladesh,Mymensingh,Netrakona,NetrokonaSadar,Kailati,43f37686c8788e9289195c06821c0989
6915262290.0,893ce20c9afffff,24.8571724,90.7182915,,,"Netrokona District, Mymensingh Division, Bangladesh","নেত্রকোনা জেলা, ময়মনসিংহ বিভাগ, বাংলাদেশ",,বাংলাদেশ,ময়মনসিংহ বিভাগ,admin2,boundaries,['landfill'],[],Bangladesh,Mymensingh,Netrakona,NetrokonaSadar,Kailati,43f37686c8788e9289195c06821c0989
6930332208.0,893ce23b053ffff,24.8917689,90.7153908,,,"Netrokona District, Mymensingh Division, Bangladesh","নেত্রকোনা জেলা, ময়মনসিংহ বিভাগ, বাংলাদেশ",,বাংলাদেশ,ময়মনসিংহ বিভাগ,admin2,boundaries,['art'],[],Bangladesh,Mymensingh,Netrakona,NetrokonaSadar,NetrokonaPaurashava,2289aa39fd9174d3437b17088bf1f0c7
9966061290.0,893ce23845bffff,24.9018157,90.7623378,Sheikh Hasina University,,"Sheikh Hasina University, Netrokona District, Mymensingh Division, Bangladesh","শেখ হাসিনা বিশ্ববিদ্যালয়, নেত্রকোনা জেলা, ময়মনসিংহ বিভাগ, বাংলাদেশ",,বাংলাদেশ,ময়মনসিংহ বিভাগ,admin2,boundaries,['university'],[],Bangladesh,Mymensingh,Netrakona,NetrokonaSadar,SingharBangla,ef2f80cbf9dce25206682c077e87af1e
10116414668.0,893ce27598bffff,24.6969832,90.7957352,,,"Netrokona District, Mymensingh Division, Bangladesh","নেত্রকোনা জেলা, ময়মনসিংহ বিভাগ, বাংলাদেশ",,বাংলাদেশ,ময়মনসিংহ বিভাগ,admin2,boundaries,['ford'],[],Bangladesh,Mymensingh,Netrakona,Kendua,Balaishimul,495028b5a8d4c3bde661c8bf87890801
10117465177.0,893ce239467ffff,24.8530424,90.742911,,,"Netrokona District, Mymensingh Division, Bangladesh","নেত্রকোনা জেলা, ময়মনসিংহ বিভাগ, বাংলাদেশ",,বাংলাদেশ,ময়মনসিংহ বিভাগ,admin2,boundaries,['bicycle_parking'],[],Bangladesh,Mymensingh,Netrakona,NetrokonaSadar,Kailati,43f37686c8788e9289195c06821c0989
10117465188.0,893ce239467ffff,24.8530343,90.743001,,,"Netrokona District, Mymensingh Division, Bangladesh","নেত্রকোনা জেলা, ময়মনসিংহ বিভাগ, বাংলাদেশ",,বাংলাদেশ,ময়মনসিংহ বিভাগ,admin2,boundaries,['bicycle_parking'],[],Bangladesh,Mymensingh,Netrakona,NetrokonaSadar,Kailati,43f37686c8788e9289195c06821c0989
232676939.0,893ce23b07bffff,24.88612288,90.72374332,Netrokona jela Stadium,,"Netrokona jela Stadium, ","নেট্রোকোনা জেলা স্টেডিয়াম, ",,বাংলাদেশ,ময়মনসিংহ বিভাগ,housenumber,sameSource,['stadium'],[],Bangladesh,Mymensingh,Netrakona,NetrokonaSadar,NetrokonaPaurashava,2289aa39fd9174d3437b17088bf1f0c7
337531560.0,893ce238407ffff,24.90839765,90.7758658,Bangla Bazar বাংলা বাজার,,"Bangla Bazar, Netrokona District, Mymensingh Division, Bangladesh","বাংলা বাজার, নেত্রকোনা জেলা, ময়মনসিংহ বিভাগ, বাংলাদেশ",,বাংলাদেশ,ময়মনসিংহ বিভাগ,admin2,boundaries,['marketplace'],[],Bangladesh,Mymensingh,Netrakona,NetrokonaSadar,SingharBangla,ef2f80cbf9dce25206682c077e87af1e
337535514.0,893ce23b3cbffff,24.8777853,90.7316303,Unmesh Adorsho High School,,"Unmesh Adorsho High School, Netrokona District, Mymensingh Division, Bangladesh","আনমেশ অ্যাডোরশো উচ্চ বিদ্যালয়, নেত্রকোনা জেলা, ময়মনসিংহ বিভাগ, বাংলাদেশ",,বাংলাদেশ,ময়মনসিংহ বিভাগ,admin2,boundaries,['school'],[],Bangladesh,Mymensingh,Netrakona,NetrokonaSadar,NetrokonaPaurashava,2289aa39fd9174d3437b17088bf1f0c7
337535518.0,893ce23b3cbffff,24.87806893,90.73136191,"Public Hall, Netrokona Pourosova",,"Public Hall Netrokona Pourosova, Netrokona District, Mymensingh Division, Bangladesh","পাবলিক হল নেট্রোকোনা পৌরশাভা, নেত্রকোনা জেলা, ময়মনসিংহ বিভাগ, বাংলাদেশ",,বাংলাদেশ,ময়মনসিংহ বিভাগ,admin2,boundaries,['theatre'],[],Bangladesh,Mymensingh,Netrakona,NetrokonaSadar,NetrokonaPaurashava,2289aa39fd9174d3437b17088bf1f0c7
337536050.0,893ce23b3c7ffff,24.88208742,90.73581642,,,"Netrokona District, Mymensingh Division, Bangladesh","নেত্রকোনা জেলা, ময়মনসিংহ বিভাগ, বাংলাদেশ",,বাংলাদেশ,ময়মনসিংহ বিভাগ,admin2,boundaries,['fire_station'],[],Bangladesh,Mymensingh,Netrakona,NetrokonaSadar,NetrokonaPaurashava,2289aa39fd9174d3437b17088bf1f0c7
337538311.0,893ce23b3d7ffff,24.88314956,90.73394983,Salti Cafe & Resturant,,"Salti Cafe & Resturant, Netrokona District, Mymensingh Division, Bangladesh","স্যাল্টি ক্যাফে এবং পুনরুদ্ধার, নেত্রকোনা জেলা, ময়মনসিংহ বিভাগ, বাংলাদেশ",,বাংলাদেশ,ময়মনসিংহ বিভাগ,admin2,boundaries,['restaurant'],[],Bangladesh,Mymensingh,Netrakona,NetrokonaSadar,NetrokonaPaurashava,2289aa39fd9174d3437b17088bf1f0c7
337542323.0,893ce23b203ffff,24.87265027,90.71803554,পাঠান মার্কেট,,"Send Market, Netrokona District, Mymensingh Division, Bangladesh","পাঠান মার্কেট, নেত্রকোনা জেলা, ময়মনসিংহ বিভাগ, বাংলাদেশ",,বাংলাদেশ,ময়মনসিংহ বিভাগ,admin2,boundaries,['marketplace'],[],Bangladesh,Mymensingh,Netrakona,NetrokonaSadar,Kailati,43f37686c8788e9289195c06821c0989
337545446.0,893ce23b047ffff,24.88878292,90.72074923,নেত্রকোনা বড় স্টেশন,['Netrokona Bara Station'],"Netrokona Large Station, ","নেত্রকোনা বড় স্টেশন, ",,বাংলাদেশ,ময়মনসিংহ বিভাগ,housenumber,sameSource,['railway_station'],[],Bangladesh,Mymensingh,Netrakona,NetrokonaSadar,NetrokonaPaurashava,2289aa39fd9174d3437b17088bf1f0c7
337545534.0,893ce23b047ffff,24.88811849,90.72013297,Lady's College Hostel,,"Lady's College Hostel, ","লেডির কলেজ হোস্টেল, ",,বাংলাদেশ,ময়মনসিংহ বিভাগ,housenumber,sameSource,['hostel'],[],Bangladesh,Mymensingh,Netrakona,NetrokonaSadar,NetrokonaPaurashava,2289aa39fd9174d3437b17088bf1f0c7
337551455.0,893ce23b3c3ffff,24.87887951,90.73056032,Muktar Para Jame Mosque,,"Muktar Para Jame Mosque, Netrokona District, Mymensingh Division, Bangladesh","মুক্তার প্যারা জামে মসজিদ, নেত্রকোনা জেলা, ময়মনসিংহ বিভাগ, বাংলাদেশ",,বাংলাদেশ,ময়মনসিংহ বিভাগ,admin2,boundaries,['place_of_worship_muslim'],[],Bangladesh,Mymensingh,Netrakona,NetrokonaSadar,NetrokonaPaurashava,2289aa39fd9174d3437b17088bf1f0c7
337568623.0,893ce23911bffff,24.84822223,90.77287304,,,"Netrokona District, Mymensingh Division, Bangladesh","নেত্রকোনা জেলা, ময়মনসিংহ বিভাগ, বাংলাদেশ",,বাংলাদেশ,ময়মনসিংহ বিভাগ,admin2,boundaries,['playground'],[],Bangladesh,Mymensingh,Netrakona,NetrokonaSadar,Amtala,6eb4ae02890af0434f3b658e59061a0d
350378830.0,893ce23b3cbffff,24.87583224,90.73033691,Shilpa kola academy madh,,"Shilpa kola academy madh, Netrokona District, Mymensingh Division, Bangladesh","শিল্পা কোলা একাডেমি মাধ, নেত্রকোনা জেলা, ময়মনসিংহ বিভাগ, বাংলাদেশ",,বাংলাদেশ,ময়মনসিংহ বিভাগ,admin2,boundaries,['playground'],[],Bangladesh,Mymensingh,Netrakona,NetrokonaSadar,NetrokonaPaurashava,2289aa39fd9174d3437b17088bf1f0c7
350428778.0,893ce23b3cbffff,24.87734958,90.73068992,Anjuman Adorsho Govt High School Play field,,"Anjuman Adorsho Govt High School Play field, Netrokona District, Mymensingh Division, Bangladesh","অঞ্জুমান অ্যাডোরশো সরকারী উচ্চ বিদ্যালয়ের খেলার মাঠ, নেত্রকোনা জেলা, ময়মনসিংহ বিভাগ, বাংলাদেশ",,বাংলাদেশ,ময়মনসিংহ বিভাগ,admin2,boundaries,['playground'],[],Bangladesh,Mymensingh,Netrakona,NetrokonaSadar,NetrokonaPaurashava,2289aa39fd9174d3437b17088bf1f0c7
350428779.0,893ce23b3cbffff,24.877429,90.730901,Anjuman Adorsho Govt High School,,"Anjuman Adorsho Govt High School, Netrokona District, Mymensingh Division, Bangladesh","অঞ্জুমান অ্যাডোরশো গভঃ উচ্চ বিদ্যালয়, নেত্রকোনা জেলা, ময়মনসিংহ বিভাগ, বাংলাদেশ",,বাংলাদেশ,ময়মনসিংহ বিভাগ,admin2,boundaries,['school'],[],Bangladesh,Mymensingh,Netrakona,NetrokonaSadar,NetrokonaPaurashava,2289aa39fd9174d3437b17088bf1f0c7
350428780.0,893ce23b3cbffff,24.877882,90.7313076,Netrokona General Library,,"Netrokona General Library, Netrokona District, Mymensingh Division, Bangladesh","নেট্রোকোনা জেনারেল লাইব্রেরি, নেত্রকোনা জেলা, ময়মনসিংহ বিভাগ, বাংলাদেশ",,বাংলাদেশ,ময়মনসিংহ বিভাগ,admin2,boundaries,['library'],[],Bangladesh,Mymensingh,Netrakona,NetrokonaSadar,NetrokonaPaurashava,2289aa39fd9174d3437b17088bf1f0c7
357839152.0,893ce23b3d7ffff,24.88278446,90.73362143,Bhuyan Plaza ভুইয়া প্লাজা,,"Bhuyan Plaza, Netrokona District, Mymensingh Division, Bangladesh","ভুইয়া প্লাজা, নেত্রকোনা জেলা, ময়মনসিংহ বিভাগ, বাংলাদেশ",,বাংলাদেশ,ময়মনসিংহ বিভাগ,admin2,boundaries,['mall'],[],Bangladesh,Mymensingh,Netrakona,NetrokonaSadar,NetrokonaPaurashava,2289aa39fd9174d3437b17088bf1f0c7
539942165.0,893ce23b253ffff,24.86898889,90.70731239,অায়েশা কমিউনিটি সেন্টার,,"Aesha Community Center, Netrokona District, Mymensingh Division, Bangladesh","অায়েশা কমিউনিটি সেন্টার, নেত্রকোনা জেলা, ময়মনসিংহ বিভাগ, বাংলাদেশ",,বাংলাদেশ,ময়মনসিংহ বিভাগ,admin2,boundaries,['community_centre'],[],Bangladesh,Mymensingh,Netrakona,NetrokonaSadar,Challisha,6a4535d63ab74f7c46e0311777006589
539942460.0,893ce23b20fffff,24.87206006,90.71747927,A.R. Khan Pathan CNG and Filling Station,,"A.R. Khan Pathan CNG and Filling Station, Netrokona District, Mymensingh Division, Bangladesh","এ.আর.খান পাঠান সিএনজি এবং ফিলিং স্টেশন, নেত্রকোনা জেলা, ময়মনসিংহ বিভাগ, বাংলাদেশ",,বাংলাদেশ,ময়মনসিংহ বিভাগ,admin2,boundaries,['fuel'],[],Bangladesh,Mymensingh,Netrakona,NetrokonaSadar,Kailati,43f37686c8788e9289195c06821c0989
539942460.0,893ce23b20fffff,24.87206006,90.71747927,A.R. Khan Pathan CNG and Filling Station,,"A.R. Khan Pathan CNG and Filling Station, Netrokona District, Mymensingh Division, Bangladesh","এ.আর.খান পাঠান সিএনজি এবং ফিলিং স্টেশন, নেত্রকোনা জেলা, ময়মনসিংহ বিভাগ, বাংলাদেশ",,বাংলাদেশ,ময়মনসিংহ বিভাগ,admin2,boundaries,['fuel'],[],Bangladesh,Mymensingh,Netrakona,NetrokonaSadar,NetrokonaPaurashava,2289aa39fd9174d3437b17088bf1f0c7
539942475.0,893ce23b20fffff,24.87287857,90.71836982,Monaco Filling Station মোনাকো ফিলিং স্টেশনে,,"Monaco Filling Station, Netrokona District, Mymensingh Division, Bangladesh","মোনাকো ফিলিং স্টেশনে, নেত্রকোনা জেলা, ময়মনসিংহ বিভাগ, বাংলাদেশ",,বাংলাদেশ,ময়মনসিংহ বিভাগ,admin2,boundaries,['fuel'],[],Bangladesh,Mymensingh,Netrakona,NetrokonaSadar,Kailati,43f37686c8788e9289195c06821c0989
539942475.0,893ce23b20fffff,24.87287857,90.71836982,Monaco Filling Station মোনাকো ফিলিং স্টেশনে,,"Monaco Filling Station, Netrokona District, Mymensingh Division, Bangladesh","মোনাকো ফিলিং স্টেশনে, নেত্রকোনা জেলা, ময়মনসিংহ বিভাগ, বাংলাদেশ",,বাংলাদেশ,ময়মনসিংহ বিভাগ,admin2,boundaries,['fuel'],[],Bangladesh,Mymensingh,Netrakona,NetrokonaSadar,NetrokonaPaurashava,2289aa39fd9174d3437b17088bf1f0c7
539943075.0,893ce23b207ffff,24.8753603,90.7205084,Sahi Mosque শাহী মসজিদ,,"Sahi Mosque, Netrokona District, Mymensingh Division, Bangladesh","শাহী মসজিদ, নেত্রকোনা জেলা, ময়মনসিংহ বিভাগ, বাংলাদেশ",,বাংলাদেশ,ময়মনসিংহ বিভাগ,admin2,boundaries,['place_of_worship_muslim'],[],Bangladesh,Mymensingh,Netrakona,NetrokonaSadar,NetrokonaPaurashava,2289aa39fd9174d3437b17088bf1f0c7
539943117.0,893ce23b207ffff,24.8750462,90.7212453,,,"Netrokona District, Mymensingh Division, Bangladesh","নেত্রকোনা জেলা, ময়মনসিংহ বিভাগ, বাংলাদেশ",,বাংলাদেশ,ময়মনসিংহ বিভাগ,admin2,boundaries,['car_wash'],[],Bangladesh,Mymensingh,Netrakona,NetrokonaSadar,NetrokonaPaurashava,2289aa39fd9174d3437b17088bf1f0c7
539943178.0,893ce23b207ffff,24.87485606,90.72147385,Bimol tea stall বিমল টি স্টল,,"Bimol tea stall, Netrokona District, Mymensingh Division, Bangladesh","বিমল টি স্টল, নেত্রকোনা জেলা, ময়মনসিংহ বিভাগ, বাংলাদেশ",,বাংলাদেশ,ময়মনসিংহ বিভাগ,admin2,boundaries,['tea'],[],Bangladesh,Mymensingh,Netrakona,NetrokonaSadar,NetrokonaPaurashava,2289aa39fd9174d3437b17088bf1f0c7
539943222.0,893ce23b223ffff,24.87423563,90.72739794,SUZUKI MOTOR BIKE SHOWROOM সুজুকি মোটর সাইকেল শোরুম,,"SUZUKI MOTOR BIKE SHOWROOM, Netrokona District, Mymensingh Division, Bangladesh","সুজুকি মোটর সাইকেল শোরুম, নেত্রকোনা জেলা, ময়মনসিংহ বিভাগ, বাংলাদেশ",,বাংলাদেশ,ময়মনসিংহ বিভাগ,admin2,boundaries,['motorcycle'],[],Bangladesh,Mymensingh,Netrakona,NetrokonaSadar,NetrokonaPaurashava,2289aa39fd9174d3437b17088bf1f0c7
539943224.0,893ce23b227ffff,24.87413645,90.72797265,Shourov Hotel সৌরভ হোটেল,,"Shourov Hotel, Netrokona District, Mymensingh Division, Bangladesh","সৌরভ হোটেল, নেত্রকোনা জেলা, ময়মনসিংহ বিভাগ, বাংলাদেশ",,বাংলাদেশ,ময়মনসিংহ বিভাগ,admin2,boundaries,['hotel'],[],Bangladesh,Mymensingh,Netrakona,NetrokonaSadar,NetrokonaPaurashava,2289aa39fd9174d3437b17088bf1f0c7
539943265.0,893ce23b227ffff,24.87364793,90.72873665,Joyer Bazar (Ghusher Bazar) ঘোষ বাজার,,"Joyer Bazar Ghusher Bazar, Netrokona District, Mymensingh Division, Bangladesh","ঘোষ বাজার, নেত্রকোনা জেলা, ময়মনসিংহ বিভাগ, বাংলাদেশ",,বাংলাদেশ,ময়মনসিংহ বিভাগ,admin2,boundaries,['marketplace'],[],Bangladesh,Mymensingh,Netrakona,NetrokonaSadar,NetrokonaPaurashava,2289aa39fd9174d3437b17088bf1f0c7
539943345.0,893ce23b227ffff,24.87327731,90.72887094,Court Masjid কোর্ট মসজিদ,,"Court Masjid, Netrokona District, Mymensingh Division, Bangladesh","কোর্ট মসজিদ, নেত্রকোনা জেলা, ময়মনসিংহ বিভাগ, বাংলাদেশ",,বাংলাদেশ,ময়মনসিংহ বিভাগ,admin2,boundaries,['place_of_worship_muslim'],[],Bangladesh,Mymensingh,Netrakona,NetrokonaSadar,NetrokonaPaurashava,2289aa39fd9174d3437b17088bf1f0c7
539943668.0,893ce23b227ffff,24.87344526,90.72914038,Jahanara Medical Hall জাহানারা মেডিকেল হল,,"Jahanara Medical Hall, Netrokona District, Mymensingh Division, Bangladesh","জাহানারা মেডিকেল হল, নেত্রকোনা জেলা, ময়মনসিংহ বিভাগ, বাংলাদেশ",,বাংলাদেশ,ময়মনসিংহ বিভাগ,admin2,boundaries,['pharmacy'],[],Bangladesh,Mymensingh,Netrakona,NetrokonaSadar,NetrokonaPaurashava,2289aa39fd9174d3437b17088bf1f0c7
539943678.0,893ce23b227ffff,24.87256947,90.72910057,BAJAJ UTSOB,,"BAJAJ UTSOB, Netrokona District, Mymensingh Division, Bangladesh","বাজাজ উটসোব, নেত্রকোনা জেলা, ময়মনসিংহ বিভাগ, বাংলাদেশ",,বাংলাদেশ,ময়মনসিংহ বিভাগ,admin2,boundaries,['motorcycle'],[],Bangladesh,Mymensingh,Netrakona,NetrokonaSadar,NetrokonaPaurashava,2289aa39fd9174d3437b17088bf1f0c7
539943815.0,893ce23b22fffff,24.8723699,90.72905582,M/S Azad Enterprise এম / এস আজাদ এন্টারপ্রাইজ,,"M/S Azad Enterprise /, Netrokona District, Mymensingh Division, Bangladesh","এম এস আজাদ এন্টারপ্রাইজ, নেত্রকোনা জেলা, ময়মনসিংহ বিভাগ, বাংলাদেশ",,বাংলাদেশ,ময়মনসিংহ বিভাগ,admin2,boundaries,['hardware'],[],Bangladesh,Mymensingh,Netrakona,NetrokonaSadar,NetrokonaPaurashava,2289aa39fd9174d3437b17088bf1f0c7
539943981.0,893ce23b22fffff,24.87212276,90.7290666,জনতা ব্যাংক লিমিটেড,['Janata Bank Limited'],"Janata Bank Limited, Netrokona District, Mymensingh Division, Bangladesh","জনতা ব্যাংক লিমিটেড, নেত্রকোনা জেলা, ময়মনসিংহ বিভাগ, বাংলাদেশ",,বাংলাদেশ,ময়মনসিংহ বিভাগ,admin2,boundaries,['bank'],[],Bangladesh,Mymensingh,Netrakona,NetrokonaSadar,NetrokonaPaurashava,2289aa39fd9174d3437b17088bf1f0c7
539944045.0,893ce23b22fffff,24.8712547,90.7290406,Pachtara Hotel & Restaurant পাঁচতারা হোটেল এন্ড রেস্টুরেন্ট,,"Pachtara Hotel & Restaurant, Netrokona District, Mymensingh Division, Bangladesh","পাঁচতারা হোটেল এন্ড রেস্টুরেন্ট, নেত্রকোনা জেলা, ময়মনসিংহ বিভাগ, বাংলাদেশ",,বাংলাদেশ,ময়মনসিংহ বিভাগ,admin2,boundaries,['restaurant'],[],Bangladesh,Mymensingh,Netrakona,NetrokonaSadar,NetrokonaPaurashava,2289aa39fd9174d3437b17088bf1f0c7
539944359.0,893ce23b22fffff,24.87068379,90.72904072,Netrokona Upazila Parishad Jame Masjid,,"Netrokona Upazila Parishad Jame Masjid, Netrokona District, Mymensingh Division, Bangladesh","নেত্রোকোনা উপজিলা পরিশাদ জামে মসজিদ, নেত্রকোনা জেলা, ময়মনসিংহ বিভাগ, বাংলাদেশ",,বাংলাদেশ,ময়মনসিংহ বিভাগ,admin2,boundaries,['place_of_worship_muslim'],[],Bangladesh,Mymensingh,Netrakona,NetrokonaSadar,NetrokonaPaurashava,2289aa39fd9174d3437b17088bf1f0c7
539944407.0,893ce23b227ffff,24.87448811,90.72939162,Sariatex International,,"Sariatex International, Netrokona District, Mymensingh Division, Bangladesh","সারিয়েটেক্স আন্তর্জাতিক, নেত্রকোনা জেলা, ময়মনসিংহ বিভাগ, বাংলাদেশ",,বাংলাদেশ,ময়মনসিংহ বিভাগ,admin2,boundaries,['clothes'],[],Bangladesh,Mymensingh,Netrakona,NetrokonaSadar,NetrokonaPaurashava,2289aa39fd9174d3437b17088bf1f0c7
539944921.0,893ce23b3cbffff,24.87807883,90.73063617,Shareng Fast-food,,"Shareng Fast-food, Netrokona District, Mymensingh Division, Bangladesh","শারেং ফাস্টফুড, নেত্রকোনা জেলা, ময়মনসিংহ বিভাগ, বাংলাদেশ",,বাংলাদেশ,ময়মনসিংহ বিভাগ,admin2,boundaries,['restaurant'],[],Bangladesh,Mymensingh,Netrakona,NetrokonaSadar,NetrokonaPaurashava,2289aa39fd9174d3437b17088bf1f0c7
539945473.0,893ce23b3d7ffff,24.88267685,90.7324275,Bata,,"Bata, Netrokona District, Mymensingh Division, Bangladesh","বাটা, নেত্রকোনা জেলা, ময়মনসিংহ বিভাগ, বাংলাদেশ",,বাংলাদেশ,ময়মনসিংহ বিভাগ,admin2,boundaries,['shoes'],[],Bangladesh,Mymensingh,Netrakona,NetrokonaSadar,NetrokonaPaurashava,2289aa39fd9174d3437b17088bf1f0c7
539945807.0,893ce23b3c7ffff,24.88114955,90.7335116,Joy Durga Medicine Corner জয় দুর্গা মেডিসিন কর্নার,,"Joy Durga Medicine Corner, Netrokona District, Mymensingh Division, Bangladesh","জয় দুর্গা মেডিসিন কর্নার, নেত্রকোনা জেলা, ময়মনসিংহ বিভাগ, বাংলাদেশ",,বাংলাদেশ,ময়মনসিংহ বিভাগ,admin2,boundaries,['pharmacy'],[],Bangladesh,Mymensingh,Netrakona,NetrokonaSadar,NetrokonaPaurashava,2289aa39fd9174d3437b17088bf1f0c7
539946264.0,893ce23b3c7ffff,24.8813917,90.73397095,Keya Hotel কেয়া হোটেল,,"Keya Hotel, Netrokona District, Mymensingh Division, Bangladesh","কেয়া হোটেল, নেত্রকোনা জেলা, ময়মনসিংহ বিভাগ, বাংলাদেশ",,বাংলাদেশ,ময়মনসিংহ বিভাগ,admin2,boundaries,['restaurant'],[],Bangladesh,Mymensingh,Netrakona,NetrokonaSadar,NetrokonaPaurashava,2289aa39fd9174d3437b17088bf1f0c7
539946522.0,893ce23b3c7ffff,24.88126933,90.73461345,Patpatti Panjekhana Masjid,,"Patpatti Panjekhana Masjid, Netrokona District, Mymensingh Division, Bangladesh","পাটপট্টি পাঞ্জেখনা মসজিদ, নেত্রকোনা জেলা, ময়মনসিংহ বিভাগ, বাংলাদেশ",,বাংলাদেশ,ময়মনসিংহ বিভাগ,admin2,boundaries,['place_of_worship_muslim'],[],Bangladesh,Mymensingh,Netrakona,NetrokonaSadar,NetrokonaPaurashava,2289aa39fd9174d3437b17088bf1f0c7
539947351.0,893ce23b3d7ffff,24.88498,90.73269468,Teri Bazar তেরি বাজার,,"Teri Bazar, Netrokona District, Mymensingh Division, Bangladesh","তেরি বাজার, নেত্রকোনা জেলা, ময়মনসিংহ বিভাগ, বাংলাদেশ",,বাংলাদেশ,ময়মনসিংহ বিভাগ,admin2,boundaries,['marketplace'],[],Bangladesh,Mymensingh,Netrakona,NetrokonaSadar,NetrokonaPaurashava,2289aa39fd9174d3437b17088bf1f0c7
539947597.0,893ce23b38bffff,24.8853323,90.7348138,Goyanath Mistanno Vandar গয়ানাথ মিস্টান্ন ভান্ডার,,"Goyanath Mistanno Vandar, Netrokona District, Mymensingh Division, Bangladesh","গয়ানাথ মিস্টান্ন ভান্ডার, নেত্রকোনা জেলা, ময়মনসিংহ বিভাগ, বাংলাদেশ",,বাংলাদেশ,ময়মনসিংহ বিভাগ,admin2,boundaries,['confectionery'],[],Bangladesh,Mymensingh,Netrakona,NetrokonaSadar,NetrokonaPaurashava,2289aa39fd9174d3437b17088bf1f0c7
539947725.0,893ce23b38bffff,24.88542265,90.73465023,Rafiq Hardware রফিক হার্ডওয়্যারের,,"Rafiq Hardware, Netrokona District, Mymensingh Division, Bangladesh","রফিক হার্ডওয়্যারের, নেত্রকোনা জেলা, ময়মনসিংহ বিভাগ, বাংলাদেশ",,বাংলাদেশ,ময়মনসিংহ বিভাগ,admin2,boundaries,['hardware'],[],Bangladesh,Mymensingh,Netrakona,NetrokonaSadar,NetrokonaPaurashava,2289aa39fd9174d3437b17088bf1f0c7
539948093.0,893ce23b383ffff,24.88635888,90.73674924,‌নেত্র‌কোণা খাদ্য গুদাম,['Netrakona Food Bank'],"Warehouse warehouses, Netrokona District, Mymensingh Division, Bangladesh","‌নেত্র‌কোণা খাদ্য গুদাম, নেত্রকোনা জেলা, ময়মনসিংহ বিভাগ, বাংলাদেশ",,বাংলাদেশ,ময়মনসিংহ বিভাগ,admin2,boundaries,['social_facility'],[],Bangladesh,Mymensingh,Netrakona,NetrokonaSadar,NetrokonaPaurashava,2289aa39fd9174d3437b17088bf1f0c7
539948255.0,893ce23b153ffff,24.89820742,90.73988858,Netrakona Markaz,,"Netrakona Markaz, Netrokona District, Mymensingh Division, Bangladesh","নেত্রাকোনা মার্কাজ, নেত্রকোনা জেলা, ময়মনসিংহ বিভাগ, বাংলাদেশ",,বাংলাদেশ,ময়মনসিংহ বিভাগ,admin2,boundaries,['place_of_worship_muslim'],[],Bangladesh,Mymensingh,Netrakona,NetrokonaSadar,NetrokonaPaurashava,2289aa39fd9174d3437b17088bf1f0c7
539948490.0,893ce238553ffff,24.91060426,90.78704315,Shanti Filling Station শান্তি ফিলিং স্টেশন,,"Shanti Filling Station, Netrokona District, Mymensingh Division, Bangladesh","শান্তি ফিলিং স্টেশন, নেত্রকোনা জেলা, ময়মনসিংহ বিভাগ, বাংলাদেশ",,বাংলাদেশ,ময়মনসিংহ বিভাগ,admin2,boundaries,['fuel'],[],Bangladesh,Mymensingh,Netrakona,NetrokonaSadar,SingharBangla,ef2f80cbf9dce25206682c077e87af1e
574109700.0,893ce23b313ffff,24.88101104,90.73719511,Patpotti Durga Mandir,,"Patpotti Durga Mandir, Netrokona District, Mymensingh Division, Bangladesh","পাটপোটি দুর্গা মন্দির, নেত্রকোনা জেলা, ময়মনসিংহ বিভাগ, বাংলাদেশ",,বাংলাদেশ,ময়মনসিংহ বিভাগ,admin2,boundaries,['place_of_worship'],[],Bangladesh,Mymensingh,Netrakona,NetrokonaSadar,NetrokonaPaurashava,2289aa39fd9174d3437b17088bf1f0c7
574109703.0,893ce23b313ffff,24.88100227,90.73697339,"Patpotti Shiv Mandir, Netrokona",,"Patpotti Shiv Mandir Netrokona, Netrokona District, Mymensingh Division, Bangladesh","পাটপোটি শিব মন্দির নেত্রোকোনা, নেত্রকোনা জেলা, ময়মনসিংহ বিভাগ, বাংলাদেশ",,বাংলাদেশ,ময়মনসিংহ বিভাগ,admin2,boundaries,['place_of_worship'],[],Bangladesh,Mymensingh,Netrakona,NetrokonaSadar,NetrokonaPaurashava,2289aa39fd9174d3437b17088bf1f0c7
605035891.0,893ce23b04fffff,24.88720884,90.72027222,Netrokona Govt. College Playground,,"Netrokona Govt. College Playground, Netrokona District, Mymensingh Division, Bangladesh","নেট্রোকোনা সরকারকলেজের খেলার মাঠ, নেত্রকোনা জেলা, ময়মনসিংহ বিভাগ, বাংলাদেশ",,বাংলাদেশ,ময়মনসিংহ বিভাগ,admin2,boundaries,['playground'],[],Bangladesh,Mymensingh,Netrakona,NetrokonaSadar,NetrokonaPaurashava,2289aa39fd9174d3437b17088bf1f0c7
605035896.0,893ce23b07bffff,24.88763663,90.72337835,,,"Netrokona District, Mymensingh Division, Bangladesh","নেত্রকোনা জেলা, ময়মনসিংহ বিভাগ, বাংলাদেশ",,বাংলাদেশ,ময়মনসিংহ বিভাগ,admin2,boundaries,['water_tower'],[],Bangladesh,Mymensingh,Netrakona,NetrokonaSadar,NetrokonaPaurashava,2289aa39fd9174d3437b17088bf1f0c7
605059405.0,893ce23b07bffff,24.88606569,90.7237751,,,,,,বাংলাদেশ,ময়মনসিংহ বিভাগ,housenumber,contains,['pitch'],[],Bangladesh,Mymensingh,Netrakona,NetrokonaSadar,NetrokonaPaurashava,2289aa39fd9174d3437b17088bf1f0c7
605524602.0,893ce239493ffff,24.8667919,90.72744584,,,"Netrokona District, Mymensingh Division, Bangladesh","নেত্রকোনা জেলা, ময়মনসিংহ বিভাগ, বাংলাদেশ",,বাংলাদেশ,ময়মনসিংহ বিভাগ,admin2,boundaries,['playground'],[],Bangladesh,Mymensingh,Netrakona,NetrokonaSadar,NetrokonaPaurashava,2289aa39fd9174d3437b17088bf1f0c7
605524663.0,893ce239497ffff,24.86759959,90.73054297,,,"Netrokona District, Mymensingh Division, Bangladesh","নেত্রকোনা জেলা, ময়মনসিংহ বিভাগ, বাংলাদেশ",,বাংলাদেশ,ময়মনসিংহ বিভাগ,admin2,boundaries,['playground'],[],Bangladesh,Mymensingh,Netrakona,NetrokonaSadar,NetrokonaPaurashava,2289aa39fd9174d3437b17088bf1f0c7
607463065.0,893ce23b353ffff,24.87391753,90.73228853,,,"Netrokona District, Mymensingh Division, Bangladesh","নেত্রকোনা জেলা, ময়মনসিংহ বিভাগ, বাংলাদেশ",,বাংলাদেশ,ময়মনসিংহ বিভাগ,admin2,boundaries,['playground'],[],Bangladesh,Mymensingh,Netrakona,NetrokonaSadar,NetrokonaPaurashava,2289aa39fd9174d3437b17088bf1f0c7
608605253.0,893ce276123ffff,24.79927805,90.74941309,Shah Sultan Rh Degree College Field,,"Shah Sultan Rh Degree College Field, Netrokona District, Mymensingh Division, Bangladesh","শাহ সুলতান আরএইচ ডিগ্রি কলেজ ফিল্ড, নেত্রকোনা জেলা, ময়মনসিংহ বিভাগ, বাংলাদেশ",,বাংলাদেশ,ময়মনসিংহ বিভাগ,admin2,boundaries,['playground'],[],Bangladesh,Mymensingh,Netrakona,NetrokonaSadar,Madanpur,13ccb7edb5401f3b7c2802f0fdee76e6
608605309.0,893ce276cdbffff,24.80454203,90.75125267,Shah Sultan High School Field,,"Shah Sultan High School Field, Netrokona District, Mymensingh Division, Bangladesh","শাহ সুলতান উচ্চ বিদ্যালয়ের মাঠ, নেত্রকোনা জেলা, ময়মনসিংহ বিভাগ, বাংলাদেশ",,বাংলাদেশ,ময়মনসিংহ বিভাগ,admin2,boundaries,['playground'],[],Bangladesh,Mymensingh,Netrakona,NetrokonaSadar,Lakshmiganj,9310960f80b25382b4c0b2d58bd4012d
609935911.0,893ce23b253ffff,24.8688807,90.70874649,,,"Netrokona District, Mymensingh Division, Bangladesh","নেত্রকোনা জেলা, ময়মনসিংহ বিভাগ, বাংলাদেশ",,বাংলাদেশ,ময়মনসিংহ বিভাগ,admin2,boundaries,['playground'],[],Bangladesh,Mymensingh,Netrakona,NetrokonaSadar,Challisha,6a4535d63ab74f7c46e0311777006589
610383641.0,893ce23b143ffff,24.89544226,90.74175268,দিবা রাত্রি হোটেল এন্ড রেষ্টুরেন্ট,,"Diva night Hotel & Restaurant, Netrokona District, Mymensingh Division, Bangladesh","দিবা রাত্রি হোটেল এন্ড রেষ্টুরেন্ট, নেত্রকোনা জেলা, ময়মনসিংহ বিভাগ, বাংলাদেশ",,বাংলাদেশ,ময়মনসিংহ বিভাগ,admin2,boundaries,['restaurant'],[],Bangladesh,Mymensingh,Netrakona,NetrokonaSadar,Medni,9af8d892116e9c69f99ca2211781ed65
610383641.0,893ce23b143ffff,24.89544226,90.74175268,দিবা রাত্রি হোটেল এন্ড রেষ্টুরেন্ট,,"Diva night Hotel & Restaurant, Netrokona District, Mymensingh Division, Bangladesh","দিবা রাত্রি হোটেল এন্ড রেষ্টুরেন্ট, নেত্রকোনা জেলা, ময়মনসিংহ বিভাগ, বাংলাদেশ",,বাংলাদেশ,ময়মনসিংহ বিভাগ,admin2,boundaries,['restaurant'],[],Bangladesh,Mymensingh,Netrakona,NetrokonaSadar,NetrokonaPaurashava,2289aa39fd9174d3437b17088bf1f0c7
610506663.0,893ce23b04fffff,24.8872027,90.71935319,Primary Teacher's Training Institute Playground,,"Primary Teacher's Training Institute Playground, Netrokona District, Mymensingh Division, Bangladesh","প্রাথমিক শিক্ষকের প্রশিক্ষণ ইনস্টিটিউট খেলার মাঠ, নেত্রকোনা জেলা, ময়মনসিংহ বিভাগ, বাংলাদেশ",,বাংলাদেশ,ময়মনসিংহ বিভাগ,admin2,boundaries,['playground'],[],Bangladesh,Mymensingh,Netrakona,NetrokonaSadar,NetrokonaPaurashava,2289aa39fd9174d3437b17088bf1f0c7
610527146.0,893ce23b07bffff,24.88730167,90.72472247,Netrokona Central Eidgah,,"Netrokona Central Eidgah, Netrokona District, Mymensingh Division, Bangladesh","নেট্রোকোনা সেন্ট্রাল Eid দগা, নেত্রকোনা জেলা, ময়মনসিংহ বিভাগ, বাংলাদেশ",,বাংলাদেশ,ময়মনসিংহ বিভাগ,admin2,boundaries,['place_of_worship_muslim'],[],Bangladesh,Mymensingh,Netrakona,NetrokonaSadar,NetrokonaPaurashava,2289aa39fd9174d3437b17088bf1f0c7
610767095.0,893ce239e97ffff,24.84523916,90.79053883,গ্রামীণ ব্যাংক,['Grameen Bank'],"Grameen Bank, Netrokona District, Mymensingh Division, Bangladesh","গ্রামীণ ব্যাংক, নেত্রকোনা জেলা, ময়মনসিংহ বিভাগ, বাংলাদেশ",,বাংলাদেশ,ময়মনসিংহ বিভাগ,admin2,boundaries,['bank'],[],Bangladesh,Mymensingh,Netrakona,NetrokonaSadar,Amtala,6eb4ae02890af0434f3b658e59061a0d
611149915.0,893ce23b313ffff,24.88157481,90.73810333,School Playground,,"School Playground, Netrokona District, Mymensingh Division, Bangladesh","স্কুল খেলার মাঠ, নেত্রকোনা জেলা, ময়মনসিংহ বিভাগ, বাংলাদেশ",,বাংলাদেশ,ময়মনসিংহ বিভাগ,admin2,boundaries,['playground'],[],Bangladesh,Mymensingh,Netrakona,NetrokonaSadar,NetrokonaPaurashava,2289aa39fd9174d3437b17088bf1f0c7
611783527.0,893ce23b3c3ffff,24.87869107,90.73173866,Tennis Ground,,"Tennis Ground, Netrokona District, Mymensingh Division, Bangladesh","টেনিস গ্রাউন্ড, নেত্রকোনা জেলা, ময়মনসিংহ বিভাগ, বাংলাদেশ",,বাংলাদেশ,ময়মনসিংহ বিভাগ,admin2,boundaries,['pitch'],[],Bangladesh,Mymensingh,Netrakona,NetrokonaSadar,NetrokonaPaurashava,2289aa39fd9174d3437b17088bf1f0c7
612239347.0,893ce23b3c3ffff,24.88029211,90.73211789,School Playground,,"School Playground, Netrokona District, Mymensingh Division, Bangladesh","স্কুল খেলার মাঠ, নেত্রকোনা জেলা, ময়মনসিংহ বিভাগ, বাংলাদেশ",,বাংলাদেশ,ময়মনসিংহ বিভাগ,admin2,boundaries,['playground'],[],Bangladesh,Mymensingh,Netrakona,NetrokonaSadar,NetrokonaPaurashava,2289aa39fd9174d3437b17088bf1f0c7
612267180.0,893ce23b3c3ffff,24.8798962,90.73197836,,,"Netrokona District, Mymensingh Division, Bangladesh","নেত্রকোনা জেলা, ময়মনসিংহ বিভাগ, বাংলাদেশ",,বাংলাদেশ,ময়মনসিংহ বিভাগ,admin2,boundaries,['playground'],[],Bangladesh,Mymensingh,Netrakona,NetrokonaSadar,NetrokonaPaurashava,2289aa39fd9174d3437b17088bf1f0c7
612517817.0,893ce23b3cbffff,24.87861766,90.73132978,,,"Netrokona District, Mymensingh Division, Bangladesh","নেত্রকোনা জেলা, ময়মনসিংহ বিভাগ, বাংলাদেশ",,বাংলাদেশ,ময়মনসিংহ বিভাগ,admin2,boundaries,['playground'],[],Bangladesh,Mymensingh,Netrakona,NetrokonaSadar,NetrokonaPaurashava,2289aa39fd9174d3437b17088bf1f0c7
612826239.0,893ce23b383ffff,24.887161,90.73757342,,,"Netrokona District, Mymensingh Division, Bangladesh","নেত্রকোনা জেলা, ময়মনসিংহ বিভাগ, বাংলাদেশ",,বাংলাদেশ,ময়মনসিংহ বিভাগ,admin2,boundaries,['playground'],[],Bangladesh,Mymensingh,Netrakona,NetrokonaSadar,NetrokonaPaurashava,2289aa39fd9174d3437b17088bf1f0c7
612826243.0,893ce23b063ffff,24.88670413,90.72691434,,,"Netrokona District, Mymensingh Division, Bangladesh","নেত্রকোনা জেলা, ময়মনসিংহ বিভাগ, বাংলাদেশ",,বাংলাদেশ,ময়মনসিংহ বিভাগ,admin2,boundaries,['playground'],[],Bangladesh,Mymensingh,Netrakona,NetrokonaSadar,NetrokonaPaurashava,2289aa39fd9174d3437b17088bf1f0c7
612972927.0,893ce26766bffff,24.61701485,90.7851213,,,"Netrokona District, Mymensingh Division, Bangladesh","নেত্রকোনা জেলা, ময়মনসিংহ বিভাগ, বাংলাদেশ",,বাংলাদেশ,ময়মনসিংহ বিভাগ,admin2,boundaries,"['attraction', 'castle']",[],Bangladesh,Mymensingh,Netrakona,Kendua,Roailbari,7b4a0dd9faf2e6a41f572317f406d412
615185959.0,893ce2392c3ffff,24.81979582,90.73647303,,,"Netrokona District, Mymensingh Division, Bangladesh","নেত্রকোনা জেলা, ময়মনসিংহ বিভাগ, বাংলাদেশ",,বাংলাদেশ,ময়মনসিংহ বিভাগ,admin2,boundaries,['playground'],[],Bangladesh,Mymensingh,Netrakona,NetrokonaSadar,Kailati,43f37686c8788e9289195c06821c0989
615185959.0,893ce2392c3ffff,24.81979582,90.73647303,,,"Netrokona District, Mymensingh Division, Bangladesh","নেত্রকোনা জেলা, ময়মনসিংহ বিভাগ, বাংলাদেশ",,বাংলাদেশ,ময়মনসিংহ বিভাগ,admin2,boundaries,['playground'],[],Bangladesh,Mymensingh,Netrakona,NetrokonaSadar,Lakshmiganj,9310960f80b25382b4c0b2d58bd4012d
620781429.0,893ce27432bffff,24.7206616,90.77386825,,,"Netrokona District, Mymensingh Division, Bangladesh","নেত্রকোনা জেলা, ময়মনসিংহ বিভাগ, বাংলাদেশ",,বাংলাদেশ,ময়মনসিংহ বিভাগ,admin2,boundaries,['bridge'],[],Bangladesh,Mymensingh,Netrakona,Kendua,Garadoba,7fd7420562e9df115be404365dcf43ba
620781434.0,893ce27432fffff,24.7215911,90.7748787,নেত্রকোনা সড়ক,"['নেত্রকোনা রোড', 'নেত্রকোনা সড়ক', 'Netrokona Road']","Netrokona road, Netrokona Road, Netrokona District, Mymensingh Division, Bangladesh","নেত্রকোনা সড়ক, নেত্রকোনা জেলা, ময়মনসিংহ বিভাগ, বাংলাদেশ",,বাংলাদেশ,ময়মনসিংহ বিভাগ,street,boundaries,['bridge'],[],Bangladesh,Mymensingh,Netrakona,Kendua,Asujia,6d15a4f8df1733dcc3278f2d5f5c84a5
620832220.0,893ce275dcbffff,24.7056722,90.771002,,,"Netrokona District, Mymensingh Division, Bangladesh","নেত্রকোনা জেলা, ময়মনসিংহ বিভাগ, বাংলাদেশ",,বাংলাদেশ,ময়মনসিংহ বিভাগ,admin2,boundaries,['bridge'],[],Bangladesh,Mymensingh,Netrakona,Kendua,Garadoba,7fd7420562e9df115be404365dcf43ba
620854411.0,893ce275803ffff,24.6881606,90.77482985,,,"Netrokona District, Mymensingh Division, Bangladesh","নেত্রকোনা জেলা, ময়মনসিংহ বিভাগ, বাংলাদেশ",,বাংলাদেশ,ময়মনসিংহ বিভাগ,admin2,boundaries,['bridge'],[],Bangladesh,Mymensingh,Netrakona,Kendua,Mashka,fdd0bdc8f4858abe9a2f19e65878404e
621676932.0,893ce26708bffff,24.6399552,90.79986095,,,"Netrokona District, Mymensingh Division, Bangladesh","নেত্রকোনা জেলা, ময়মনসিংহ বিভাগ, বাংলাদেশ",,বাংলাদেশ,ময়মনসিংহ বিভাগ,admin2,boundaries,['bridge'],[],Bangladesh,Mymensingh,Netrakona,Kendua,Mashka,fdd0bdc8f4858abe9a2f19e65878404e
621715515.0,893ce26767bffff,24.6196067,90.78282675,,,"Netrokona District, Mymensingh Division, Bangladesh","নেত্রকোনা জেলা, ময়মনসিংহ বিভাগ, বাংলাদেশ",,বাংলাদেশ,ময়মনসিংহ বিভাগ,admin2,boundaries,['bridge'],[],Bangladesh,Mymensingh,Netrakona,Kendua,Roailbari,7b4a0dd9faf2e6a41f572317f406d412
621715517.0,893ce267667ffff,24.6224369,90.7883109,,,"Netrokona District, Mymensingh Division, Bangladesh","নেত্রকোনা জেলা, ময়মনসিংহ বিভাগ, বাংলাদেশ",,বাংলাদেশ,ময়মনসিংহ বিভাগ,admin2,boundaries,['bridge'],[],Bangladesh,Mymensingh,Netrakona,Kendua,Roailbari,7b4a0dd9faf2e6a41f572317f406d412
627368964.0,893ce275a1bffff,24.66352665,90.76714406,Sandikona School and College Playground,,"Sandikona School and College Playground, Netrokona District, Mymensingh Division, Bangladesh","সানডিকোনা স্কুল এবং কলেজের খেলার মাঠ, নেত্রকোনা জেলা, ময়মনসিংহ বিভাগ, বাংলাদেশ",,বাংলাদেশ,ময়মনসিংহ বিভাগ,admin2,boundaries,['playground'],[],Bangladesh,Mymensingh,Netrakona,Kendua,Sandikona,2ea79d80e80411bed745717c25f6bfe9
737762594.0,893ce23b6b3ffff,24.89970252,90.70024997,,,"Netrokona District, Mymensingh Division, Bangladesh","নেত্রকোনা জেলা, ময়মনসিংহ বিভাগ, বাংলাদেশ",,বাংলাদেশ,ময়মনসিংহ বিভাগ,admin2,boundaries,['park'],[],Bangladesh,Mymensingh,Netrakona,NetrokonaSadar,Rauha,ff3fd94a0a77b130fa6a23d00f70c31b
737763156.0,893ce23b457ffff,24.90502824,90.7006033,,,"Netrokona District, Mymensingh Division, Bangladesh","নেত্রকোনা জেলা, ময়মনসিংহ বিভাগ, বাংলাদেশ",,বাংলাদেশ,ময়মনসিংহ বিভাগ,admin2,boundaries,['park'],[],Bangladesh,Mymensingh,Netrakona,NetrokonaSadar,Rauha,ff3fd94a0a77b130fa6a23d00f70c31b
739603834.0,893ce23b043ffff,24.8897214,90.71675409,,,"Netrokona District, Mymensingh Division, Bangladesh","নেত্রকোনা জেলা, ময়মনসিংহ বিভাগ, বাংলাদেশ",,বাংলাদেশ,ময়মনসিংহ বিভাগ,admin2,boundaries,['park'],[],Bangladesh,Mymensingh,Netrakona,NetrokonaSadar,NetrokonaPaurashava,2289aa39fd9174d3437b17088bf1f0c7
903704841.0,893ce2a9b93ffff,25.0931222,90.74823405,,,"Durgapur Subdistrict, Netrokona District, Mymensingh Division, Bangladesh","দুর্গাপুর উপজেলা, নেত্রকোনা জেলা, ময়মনসিংহ বিভাগ, বাংলাদেশ",দুর্গাপুর উপজেলা,বাংলাদেশ,ময়মনসিংহ বিভাগ,local_admin,boundaries,['ford'],[],Bangladesh,Mymensingh,Netrakona,Durgapur,Chandigarh,f0e16e1f9290d7230946ee6d3ffb6b29
903705787.0,893ce233447ffff,25.05695455,90.74526215,,,"Durgapur Subdistrict, Netrokona District, Mymensingh Division, Bangladesh","দুর্গাপুর উপজেলা, নেত্রকোনা জেলা, ময়মনসিংহ বিভাগ, বাংলাদেশ",দুর্গাপুর উপজেলা,বাংলাদেশ,ময়মনসিংহ বিভাগ,local_admin,boundaries,['ford'],[],Bangladesh,Mymensingh,Netrakona,Durgapur,Bakaljora,50febcebe9e1f2a5772b23325e01b580
904114739.0,893ce2a9e0fffff,25.0929257,90.7143417,,,"Durgapur Subdistrict, Netrokona District, Mymensingh Division, Bangladesh","দুর্গাপুর উপজেলা, নেত্রকোনা জেলা, ময়মনসিংহ বিভাগ, বাংলাদেশ",দুর্গাপুর উপজেলা,বাংলাদেশ,ময়মনসিংহ বিভাগ,local_admin,boundaries,['ford'],[],Bangladesh,Mymensingh,Netrakona,Durgapur,Chandigarh,f0e16e1f9290d7230946ee6d3ffb6b29
1086638731.0,893ce23b427ffff,24.91088982,90.7174553,,,"Netrokona District, Mymensingh Division, Bangladesh","নেত্রকোনা জেলা, ময়মনসিংহ বিভাগ, বাংলাদেশ",,বাংলাদেশ,ময়মনসিংহ বিভাগ,admin2,boundaries,['bridge'],[],Bangladesh,Mymensingh,Netrakona,NetrokonaSadar,Medni,9af8d892116e9c69f99ca2211781ed65
1086791866.0,893ce23b563ffff,24.91099105,90.73462688,,,"Netrokona District, Mymensingh Division, Bangladesh","নেত্রকোনা জেলা, ময়মনসিংহ বিভাগ, বাংলাদেশ",,বাংলাদেশ,ময়মনসিংহ বিভাগ,admin2,boundaries,['park'],[],Bangladesh,Mymensingh,Netrakona,NetrokonaSadar,Medni,9af8d892116e9c69f99ca2211781ed65
1104972719.0,893ce262b6bffff,24.61140723,90.76247821,,,"Netrokona District, Mymensingh Division, Bangladesh","নেত্রকোনা জেলা, ময়মনসিংহ বিভাগ, বাংলাদেশ",,বাংলাদেশ,ময়মনসিংহ বিভাগ,admin2,boundaries,['pitch'],[],Bangladesh,Mymensingh,Netrakona,Kendua,Roailbari,7b4a0dd9faf2e6a41f572317f406d412
8440247.0,893ce23b15bffff,24.8922193,90.7390472,Hotel Kobir International,,"Hotel Kobir International, Netrokona District, Mymensingh Division, Bangladesh","হোটেল কোবির আন্তর্জাতিক, নেত্রকোনা জেলা, ময়মনসিংহ বিভাগ, বাংলাদেশ",,বাংলাদেশ,ময়মনসিংহ বিভাগ,admin2,boundaries,['hotel'],[],Bangladesh,Mymensingh,Netrakona,NetrokonaSadar,NetrokonaPaurashava,2289aa39fd9174d3437b17088bf1f0c7
8489867.0,893ce23b267ffff,24.8673153,90.7241079,Netrokona District Jail,,"Netrokona District Jail, Netrokona District, Mymensingh Division, Bangladesh","নেট্রোকোনা জেলা জেল, নেত্রকোনা জেলা, ময়মনসিংহ বিভাগ, বাংলাদেশ",,বাংলাদেশ,ময়মনসিংহ বিভাগ,admin2,boundaries,['prison'],[],Bangladesh,Mymensingh,Netrakona,NetrokonaSadar,NetrokonaPaurashava,2289aa39fd9174d3437b17088bf1f0c7
5739435060.0,893ce23b07bffff,24.887372,90.7217409,Netrokona Govt. College,,"Netrokona Govt. College, ","নেট্রোকোনা সরকারকলেজ, ",,বাংলাদেশ,ময়মনসিংহ বিভাগ,housenumber,,,,Bangladesh,Mymensingh,Netrakona,NetrokonaSadar,NetrokonaPaurashava,2289aa39fd9174d3437b17088bf1f0c7
232676939.0,893ce23b07bffff,24.88612288,90.72374332,Netrokona jela Stadium,,"Netrokona jela Stadium, ","নেট্রোকোনা জেলা স্টেডিয়াম, ",,বাংলাদেশ,ময়মনসিংহ বিভাগ,housenumber,,,,Bangladesh,Mymensingh,Netrakona,NetrokonaSadar,NetrokonaPaurashava,2289aa39fd9174d3437b17088bf1f0c7
337545446.0,893ce23b047ffff,24.88878292,90.72074923,নেত্রকোনা বড় স্টেশন,,"Netrokona Large Station, ","নেত্রকোনা বড় স্টেশন, ",,বাংলাদেশ,ময়মনসিংহ বিভাগ,housenumber,,,,Bangladesh,Mymensingh,Netrakona,NetrokonaSadar,NetrokonaPaurashava,2289aa39fd9174d3437b17088bf1f0c7
337545534.0,893ce23b047ffff,24.88811849,90.72013297,Lady's College Hostel,,"Lady's College Hostel, ","লেডির কলেজ হোস্টেল, ",,বাংলাদেশ,ময়মনসিংহ বিভাগ,housenumber,,,,Bangladesh,Mymensingh,Netrakona,NetrokonaSadar,NetrokonaPaurashava,2289aa39fd9174d3437b17088bf1f0c7
620781435.0,893ce2741cfffff,24.745151849780008,90.76174553264993,নেত্রকোনা সড়ক,"['নেত্রকোনা রোড', 'নেত্রকোনা সড়ক', 'Netrokona Road']","Netrokona road, Netrokona Road, Netrokona District, Mymensingh Division, Bangladesh","নেত্রকোনা সড়ক, নেত্রকোনা জেলা, ময়মনসিংহ বিভাগ, বাংলাদেশ",,বাংলাদেশ,ময়মনসিংহ বিভাগ,street,,,,Bangladesh,Mymensingh,Netrakona,Kendua,Asujia,6d15a4f8df1733dcc3278f2d5f5c84a5
1073221697.0,893ce238503ffff,24.91416190510648,90.79571891636496,Youthmapper,,"Youthmapper, Netrokona District, Mymensingh Division, Bangladesh","যুবম্যাপার, নেত্রকোনা জেলা, ময়মনসিংহ বিভাগ, বাংলাদেশ",,বাংলাদেশ,ময়মনসিংহ বিভাগ,street,,,,Bangladesh,Mymensingh,Netrakona,NetrokonaSadar,Thakurakona,9c0636add5e39d9bcf556ab9abe19943
237382341.0,893ce23b627ffff,24.889217418339346,90.7122566987886,Netrokona - Purbadhola Road,,"Netrokona - Purbadhola Road, Netrokona District, Mymensingh Division, Bangladesh","নেত্রাকোনা - পুরবধলা রোড, নেত্রকোনা জেলা, ময়মনসিংহ বিভাগ, বাংলাদেশ",,বাংলাদেশ,ময়মনসিংহ বিভাগ,street,,,,Bangladesh,Mymensingh,Netrakona,NetrokonaSadar,Rauha,ff3fd94a0a77b130fa6a23d00f70c31b
604345806.0,893ce23b10bffff,24.89720250329261,90.74696935774524,Mymensing -Sunamganj Road,,"Mymensing -Sunamganj Road, Netrokona District, Mymensingh Division, Bangladesh","মাইমেনসিংহ -সুনামগঞ্জ রোড, নেত্রকোনা জেলা, ময়মনসিংহ বিভাগ, বাংলাদেশ",,বাংলাদেশ,ময়মনসিংহ বিভাগ,street,,,,Bangladesh,Mymensingh,Netrakona,NetrokonaSadar,Medni,9af8d892116e9c69f99ca2211781ed65
352895584.0,893ce23937bffff,24.819881917552063,90.7708474324806,Netrokona to Madan Highway,,"Netrokona to Madan Highway, Netrokona District, Mymensingh Division, Bangladesh","নেট্রোকোনা থেকে মদন হাইওয়ে, নেত্রকোনা জেলা, ময়মনসিংহ বিভাগ, বাংলাদেশ",,বাংলাদেশ,ময়মনসিংহ বিভাগ,street,,,,Bangladesh,Mymensingh,Netrakona,NetrokonaSadar,Lakshmiganj,9310960f80b25382b4c0b2d58bd4012d
632251849.0,893ce275a0bffff,24.66360619713721,90.76762159600692,Sandikona-Raintritola Rd,,"Sandikona-Raintritola Rd, Netrokona District, Mymensingh Division, Bangladesh","সানডিকোনা-রাইন্ট্রিটোলা আরডি, নেত্রকোনা জেলা, ময়মনসিংহ বিভাগ, বাংলাদেশ",,বাংলাদেশ,ময়মনসিংহ বিভাগ,street,,,,Bangladesh,Mymensingh,Netrakona,Kendua,Sandikona,2ea79d80e80411bed745717c25f6bfe9
337538316.0,893ce23b39bffff,24.884850462944097,90.73356408371724,Mymensing -Sunamganj Road,,"Mymensing -Sunamganj Road, Netrokona District, Mymensingh Division, Bangladesh","মাইমেনসিংহ -সুনামগঞ্জ রোড, নেত্রকোনা জেলা, ময়মনসিংহ বিভাগ, বাংলাদেশ",,বাংলাদেশ,ময়মনসিংহ বিভাগ,street,,,,Bangladesh,Mymensingh,Netrakona,NetrokonaSadar,NetrokonaPaurashava,2289aa39fd9174d3437b17088bf1f0c7
337533570.0,893ce23b0cfffff,24.893164919307708,90.71555031224833,Hatkhola Road,,"Hatkhola Road, Netrokona District, Mymensingh Division, Bangladesh","হাটখোলা রোড, নেত্রকোনা জেলা, ময়মনসিংহ বিভাগ, বাংলাদেশ",,বাংলাদেশ,ময়মনসিংহ বিভাগ,street,,,,Bangladesh,Mymensingh,Netrakona,NetrokonaSadar,Rauha,ff3fd94a0a77b130fa6a23d00f70c31b
335725422.0,893ce23b35bffff,24.87114281837357,90.73103032924298,Hospital Road,,"Hospital Road, Netrokona District, Mymensingh Division, Bangladesh","হাসপাতালের রাস্তা, নেত্রকোনা জেলা, ময়মনসিংহ বিভাগ, বাংলাদেশ",,বাংলাদেশ,ময়মনসিংহ বিভাগ,street,,,,Bangladesh,Mymensingh,Netrakona,NetrokonaSadar,NetrokonaPaurashava,2289aa39fd9174d3437b17088bf1f0c7
350100681.0,893ce2394a7ffff,24.867049515382146,90.74230788951436,Netrokona Sadar Hospital Road,,"Netrokona Sadar Hospital Road, Netrokona District, Mymensingh Division, Bangladesh","নেত্রোকোনা সদর হাসপাতাল রোড, নেত্রকোনা জেলা, ময়মনসিংহ বিভাগ, বাংলাদেশ",,বাংলাদেশ,ময়মনসিংহ বিভাগ,street,,,,Bangladesh,Mymensingh,Netrakona,NetrokonaSadar,NetrokonaPaurashava,2289aa39fd9174d3437b17088bf1f0c7
611134226.0,893ce2386d3ffff,24.88940386929968,90.7515355425044,Rajur Bazar Road,,"Rajur Bazar Road, Netrokona District, Mymensingh Division, Bangladesh","রাজুর বাজার রোড, নেত্রকোনা জেলা, ময়মনসিংহ বিভাগ, বাংলাদেশ",,বাংলাদেশ,ময়মনসিংহ বিভাগ,street,,,,Bangladesh,Mymensingh,Netrakona,NetrokonaSadar,Medni,9af8d892116e9c69f99ca2211781ed65
621156672.0,893ce262d77ffff,24.656092450000003,90.75043075,Kendua-Atharobari-Nandail Road,,"Kendua-Atharobari-Nandail Road, Netrokona District, Mymensingh Division, Bangladesh","কেন্দুয়া-আথারোবারি-ন্যান্ডেল রোড, নেত্রকোনা জেলা, ময়মনসিংহ বিভাগ, বাংলাদেশ",,বাংলাদেশ,ময়মনসিংহ বিভাগ,street,,,,Bangladesh,Mymensingh,Netrakona,Kendua,Sandikona,2ea79d80e80411bed745717c25f6bfe9
610449704.0,893ce23b0d7ffff,24.8976637,90.71483465,Hatkhola Road,,"Hatkhola Road, Netrokona District, Mymensingh Division, Bangladesh","হাটখোলা রোড, নেত্রকোনা জেলা, ময়মনসিংহ বিভাগ, বাংলাদেশ",,বাংলাদেশ,ময়মনসিংহ বিভাগ,street,,,,Bangladesh,Mymensingh,Netrakona,NetrokonaSadar,Rauha,ff3fd94a0a77b130fa6a23d00f70c31b
605035901.0,893ce23b2a7ffff,24.88248279869006,90.72431290694388,Garo Road,,"Garo Road, Netrokona District, Mymensingh Division, Bangladesh","গারো রোড, নেত্রকোনা জেলা, ময়মনসিংহ বিভাগ, বাংলাদেশ",,বাংলাদেশ,ময়মনসিংহ বিভাগ,street,,,,Bangladesh,Mymensingh,Netrakona,NetrokonaSadar,NetrokonaPaurashava,2289aa39fd9174d3437b17088bf1f0c7
1073221435.0,893ce23851bffff,24.91292857159798,90.79209271186367,Youthmapper,,"Youthmapper, Netrokona District, Mymensingh Division, Bangladesh","যুবম্যাপার, নেত্রকোনা জেলা, ময়মনসিংহ বিভাগ, বাংলাদেশ",,বাংলাদেশ,ময়মনসিংহ বিভাগ,street,,,,Bangladesh,Mymensingh,Netrakona,NetrokonaSadar,Thakurakona,9c0636add5e39d9bcf556ab9abe19943
1073221437.0,893ce23851bffff,24.913396908574047,90.79352713662648,Youthmapper,,"Youthmapper, Netrokona District, Mymensingh Division, Bangladesh","যুবম্যাপার, নেত্রকোনা জেলা, ময়মনসিংহ বিভাগ, বাংলাদেশ",,বাংলাদেশ,ময়মনসিংহ বিভাগ,street,,,,Bangladesh,Mymensingh,Netrakona,NetrokonaSadar,Thakurakona,9c0636add5e39d9bcf556ab9abe19943
352895580.0,893ce276d73ffff,24.80804074714513,90.79194936447446,Netrokona to Madan Highway,,"Netrokona to Madan Highway, Atpara Upazila, Netrokona District, Mymensingh Division, Bangladesh","নেট্রোকোনা থেকে মদন হাইওয়ে, আটপাড়া উপজেলা, নেত্রকোনা জেলা, ময়মনসিংহ বিভাগ, বাংলাদেশ",আটপাড়া উপজেলা,বাংলাদেশ,ময়মনসিংহ বিভাগ,street,,,,Bangladesh,Mymensingh,Netrakona,Atpara,Sarmaisa,565195581ecfaa5d5497cc25b2b26631
627347152.0,893ce275a73ffff,24.661070879908102,90.77275371505702,Bazar Rd,,"Bazar Rd, Netrokona District, Mymensingh Division, Bangladesh","বাজর আরডি, নেত্রকোনা জেলা, ময়মনসিংহ বিভাগ, বাংলাদেশ",,বাংলাদেশ,ময়মনসিংহ বিভাগ,street,,,,Bangladesh,Mymensingh,Netrakona,Kendua,Sandikona,2ea79d80e80411bed745717c25f6bfe9
281487178.0,893ce2752a7ffff,24.675281365581515,90.71223471125931,kendua- Ishwarganj,,"kendua- Ishwarganj, Iswarganj, Mymensingh District, Mymensingh Division, Bangladesh","কেন্দুয়া- ish শ্বরগঞ্জ, ময়মনসিংহ জেলা, ময়মনসিংহ বিভাগ, বাংলাদেশ",Iswarganj,বাংলাদেশ,ময়মনসিংহ বিভাগ,street,,,,Bangladesh,Mymensingh,Netrakona,Kendua,Ganda,25b4d654b5d02562aafc7737a15fd0c4
281487178.0,893ce2752a7ffff,24.675281365581515,90.71223471125931,kendua- Ishwarganj,,"kendua- Ishwarganj, Netrokona District, Mymensingh Division, Bangladesh","কেন্দুয়া- ish শ্বরগঞ্জ, নেত্রকোনা জেলা, ময়মনসিংহ বিভাগ, বাংলাদেশ",,বাংলাদেশ,ময়মনসিংহ বিভাগ,street,,,,Bangladesh,Mymensingh,Netrakona,Kendua,Ganda,25b4d654b5d02562aafc7737a15fd0c4
281487178.0,893ce2752a7ffff,24.675281365581515,90.71223471125931,kendua- Ishwarganj,,"kendua- Ishwarganj, Mymensingh District, Mymensingh Division, Bangladesh","কেন্দুয়া- ish শ্বরগঞ্জ, ময়মনসিংহ জেলা, ময়মনসিংহ বিভাগ, বাংলাদেশ",,বাংলাদেশ,ময়মনসিংহ বিভাগ,street,,,,Bangladesh,Mymensingh,Netrakona,Kendua,Ganda,25b4d654b5d02562aafc7737a15fd0c4
352895583.0,893ce2393dbffff,24.827912,90.7586969,Netrokona to Madan Highway,,"Netrokona to Madan Highway, Netrokona District, Mymensingh Division, Bangladesh","নেট্রোকোনা থেকে মদন হাইওয়ে, নেত্রকোনা জেলা, ময়মনসিংহ বিভাগ, বাংলাদেশ",,বাংলাদেশ,ময়মনসিংহ বিভাগ,street,,,,Bangladesh,Mymensingh,Netrakona,NetrokonaSadar,Kailati,43f37686c8788e9289195c06821c0989
337528683.0,893ce23b14fffff,24.89246161592448,90.74504577870869,Rajur Bazar Road,,"Rajur Bazar Road, Netrokona District, Mymensingh Division, Bangladesh","রাজুর বাজার রোড, নেত্রকোনা জেলা, ময়মনসিংহ বিভাগ, বাংলাদেশ",,বাংলাদেশ,ময়মনসিংহ বিভাগ,street,,,,Bangladesh,Mymensingh,Netrakona,NetrokonaSadar,NetrokonaPaurashava,2289aa39fd9174d3437b17088bf1f0c7
1073221253.0,893ce238547ffff,24.909753219914517,90.79554022321614,Youthmapper,,"Youthmapper, Netrokona District, Mymensingh Division, Bangladesh","যুবম্যাপার, নেত্রকোনা জেলা, ময়মনসিংহ বিভাগ, বাংলাদেশ",,বাংলাদেশ,ময়মনসিংহ বিভাগ,street,,,,Bangladesh,Mymensingh,Netrakona,NetrokonaSadar,Thakurakona,9c0636add5e39d9bcf556ab9abe19943
350100679.0,893ce23b347ffff,24.87254615563984,90.73887459503676,Bongobondhu Road,,"Bongobondhu Road, Netrokona District, Mymensingh Division, Bangladesh","বঙ্গোবন্ডু রোড, নেত্রকোনা জেলা, ময়মনসিংহ বিভাগ, বাংলাদেশ",,বাংলাদেশ,ময়মনসিংহ বিভাগ,street,,,,Bangladesh,Mymensingh,Netrakona,NetrokonaSadar,NetrokonaPaurashava,2289aa39fd9174d3437b17088bf1f0c7
