osm_id,h3level9,lat,lon,name,alt_names,name_en,name_bn,local_admin_name,admin0_name,admin2_name,addr_level,poi_addr_match,poi_class,poi_keywords,country,division,district,thana,union,region_hash
2349386825.0,893cf56414bffff,24.3003839,89.6950129,Belkuchi Upazila Health Complex,,"Belkuchi Upazila Health Complex, Sirajganj District, Rajshahi Division, Bangladesh","বেলকুচি উপজিলা স্বাস্থ্য কমপ্লেক্স, সিরাজগঞ্জ জেলা, রাজশাহী বিভাগ, বাংলাদেশ",,বাংলাদেশ,রাজশাহী বিভাগ,admin2,boundaries,['hospital'],[],Bangladesh,Rajshahi,Sirajganj,Belkuchi,Belkuchi,2c0940c6a192e109930ea36eba78ad37
2571440313.0,893cf5661cbffff,24.3612687,89.6604338,জামতৈল,['Jamtoil'],"Jamaatil, Sirajganj District, Rajshahi Division, Bangladesh","জামতৈল, সিরাজগঞ্জ জেলা, রাজশাহী বিভাগ, বাংলাদেশ",,বাংলাদেশ,রাজশাহী বিভাগ,admin2,boundaries,['railway_station'],[],Bangladesh,Rajshahi,Sirajganj,Kamarkhanda,Jamtail,f98f6ba0eaf58a4c42479e9fab43abab
3360080652.0,893cf564093ffff,24.3151336,89.6715888,Adachaki Eid Gah Madh,,"Adachaki Eid Gah Madh, Sirajganj District, Rajshahi Division, Bangladesh","আদাচাকি Eid দ গাহ মধ, সিরাজগঞ্জ জেলা, রাজশাহী বিভাগ, বাংলাদেশ",,বাংলাদেশ,রাজশাহী বিভাগ,admin2,boundaries,['place_of_worship_muslim'],[],Bangladesh,Rajshahi,Sirajganj,Belkuchi,Bhangabari,2afa2715215fb395e3b5783ecc5c7b3f
3360179508.0,893cf56442bffff,24.3161495,89.6683445,Mollabari Jame Mosjid,,"Mollabari Jame Mosjid, Sirajganj District, Rajshahi Division, Bangladesh","মোল্লা বারী জামে মোসজিড, সিরাজগঞ্জ জেলা, রাজশাহী বিভাগ, বাংলাদেশ",,বাংলাদেশ,রাজশাহী বিভাগ,admin2,boundaries,['place_of_worship_muslim'],[],Bangladesh,Rajshahi,Sirajganj,Belkuchi,Bhangabari,2afa2715215fb395e3b5783ecc5c7b3f
3360180510.0,893cf564427ffff,24.3218649,89.6728848,Adachaki Moddho Para Primary School,,"Adachaki Moddho Para Primary School, Sirajganj District, Rajshahi Division, Bangladesh","আদাচাকি মোডধো প্যারা প্রাথমিক বিদ্যালয়, সিরাজগঞ্জ জেলা, রাজশাহী বিভাগ, বাংলাদেশ",,বাংলাদেশ,রাজশাহী বিভাগ,admin2,boundaries,['school'],[],Bangladesh,Rajshahi,Sirajganj,Belkuchi,Bhangabari,2afa2715215fb395e3b5783ecc5c7b3f
3360180511.0,893cf56442fffff,24.3174753,89.6717024,Adachaki Purbo Para Jame Mosjid,,"Adachaki Purbo Para Jame Mosjid, Sirajganj District, Rajshahi Division, Bangladesh","অ্যাডাচাকি পুর্বো প্যারা জামে মোসজিড, সিরাজগঞ্জ জেলা, রাজশাহী বিভাগ, বাংলাদেশ",,বাংলাদেশ,রাজশাহী বিভাগ,admin2,boundaries,['place_of_worship_muslim'],[],Bangladesh,Rajshahi,Sirajganj,Belkuchi,Bhangabari,2afa2715215fb395e3b5783ecc5c7b3f
3360180819.0,893cf5645c3ffff,24.3272027,89.6736528,Adachaki Uttor Para Jame Mosjid,,"Adachaki Uttor Para Jame Mosjid, Sirajganj District, Rajshahi Division, Bangladesh","অ্যাডাচাকি ইউটিআর প্যারা জামে মোসজিড, সিরাজগঞ্জ জেলা, রাজশাহী বিভাগ, বাংলাদেশ",,বাংলাদেশ,রাজশাহী বিভাগ,admin2,boundaries,['place_of_worship_muslim'],[],Bangladesh,Rajshahi,Sirajganj,Belkuchi,Bhangabari,2afa2715215fb395e3b5783ecc5c7b3f
3360180919.0,893cf564423ffff,24.3184705,89.6678297,Adachaki Dokkhin Para Mosjid,,"Adachaki Dokkhin Para Mosjid, Sirajganj District, Rajshahi Division, Bangladesh","আদাচাকি ডকখিন প্যারা মোসজিড, সিরাজগঞ্জ জেলা, রাজশাহী বিভাগ, বাংলাদেশ",,বাংলাদেশ,রাজশাহী বিভাগ,admin2,boundaries,['place_of_worship_muslim'],[],Bangladesh,Rajshahi,Sirajganj,Belkuchi,Bhangabari,2afa2715215fb395e3b5783ecc5c7b3f
3360184904.0,893cf564423ffff,24.3195827,89.6694713,Adachki Kalibari Mondir,,"Adachki Kalibari Mondir, Sirajganj District, Rajshahi Division, Bangladesh","আদাচি কালিবারি মন্ডির, সিরাজগঞ্জ জেলা, রাজশাহী বিভাগ, বাংলাদেশ",,বাংলাদেশ,রাজশাহী বিভাগ,admin2,boundaries,['place_of_worship'],[],Bangladesh,Rajshahi,Sirajganj,Belkuchi,Bhangabari,2afa2715215fb395e3b5783ecc5c7b3f
3360185097.0,893cf564437ffff,24.3223272,89.670691,Adachaki Moddho Para Jame Mosjid,,"Adachaki Moddho Para Jame Mosjid, Sirajganj District, Rajshahi Division, Bangladesh","আদাচাকি মোডধো প্যারা জামে মোসজিড, সিরাজগঞ্জ জেলা, রাজশাহী বিভাগ, বাংলাদেশ",,বাংলাদেশ,রাজশাহী বিভাগ,admin2,boundaries,['place_of_worship_muslim'],[],Bangladesh,Rajshahi,Sirajganj,Belkuchi,Bhangabari,2afa2715215fb395e3b5783ecc5c7b3f
3360213293.0,893cf564427ffff,24.3193097,89.6721271,Adachaki Community Hospital,,"Adachaki Community Hospital, Sirajganj District, Rajshahi Division, Bangladesh","আদাচাকি কমিউনিটি হাসপাতাল, সিরাজগঞ্জ জেলা, রাজশাহী বিভাগ, বাংলাদেশ",,বাংলাদেশ,রাজশাহী বিভাগ,admin2,boundaries,['hospital'],[],Bangladesh,Rajshahi,Sirajganj,Belkuchi,Bhangabari,2afa2715215fb395e3b5783ecc5c7b3f
3360213393.0,893cf564423ffff,24.3190319,89.6694655,Adachaki Dokkhin Para Primary School,,"Adachaki Dokkhin Para Primary School, Sirajganj District, Rajshahi Division, Bangladesh","আদাচাকি ডকখিন প্যারা প্রাথমিক বিদ্যালয়, সিরাজগঞ্জ জেলা, রাজশাহী বিভাগ, বাংলাদেশ",,বাংলাদেশ,রাজশাহী বিভাগ,admin2,boundaries,['school'],[],Bangladesh,Rajshahi,Sirajganj,Belkuchi,Bhangabari,2afa2715215fb395e3b5783ecc5c7b3f
3360213493.0,893cf5645cbffff,24.325624,89.6725222,Adachaki Mussoli Bari Jame Mosjid,,"Adachaki Mussoli Bari Jame Mosjid, Sirajganj District, Rajshahi Division, Bangladesh","আদাচাকি মুসোলি বারী জামে মোসজিড, সিরাজগঞ্জ জেলা, রাজশাহী বিভাগ, বাংলাদেশ",,বাংলাদেশ,রাজশাহী বিভাগ,admin2,boundaries,['place_of_worship_muslim'],[],Bangladesh,Rajshahi,Sirajganj,Belkuchi,Bhangabari,2afa2715215fb395e3b5783ecc5c7b3f
3360213593.0,893cf564553ffff,24.3233126,89.674582,Children Development School,,"Children Development School, Sirajganj District, Rajshahi Division, Bangladesh","শিশু উন্নয়ন স্কুল, সিরাজগঞ্জ জেলা, রাজশাহী বিভাগ, বাংলাদেশ",,বাংলাদেশ,রাজশাহী বিভাগ,admin2,boundaries,['school'],[],Bangladesh,Rajshahi,Sirajganj,Belkuchi,Bhangabari,2afa2715215fb395e3b5783ecc5c7b3f
3360220493.0,893cf5643b3ffff,24.2996028,89.6966313,Alhaj Siddique High School,,"Alhaj Siddique High School, Sirajganj District, Rajshahi Division, Bangladesh","আলহাজ সিদ্দিক উচ্চ বিদ্যালয়, সিরাজগঞ্জ জেলা, রাজশাহী বিভাগ, বাংলাদেশ",,বাংলাদেশ,রাজশাহী বিভাগ,admin2,boundaries,['school'],[],Bangladesh,Rajshahi,Sirajganj,Belkuchi,Belkuchi,2c0940c6a192e109930ea36eba78ad37
3360220593.0,893cf5643b3ffff,24.300455,89.6971728,Chala Bus Station,,"Chala Bus Station, Sirajganj District, Rajshahi Division, Bangladesh","চালা বাস স্টেশন, সিরাজগঞ্জ জেলা, রাজশাহী বিভাগ, বাংলাদেশ",,বাংলাদেশ,রাজশাহী বিভাগ,admin2,boundaries,['bus_station'],[],Bangladesh,Rajshahi,Sirajganj,Belkuchi,Belkuchi,2c0940c6a192e109930ea36eba78ad37
4875439123.0,893cf50cc63ffff,24.5233525,89.4735025,Dhamainagar Bazar,['ধামাইনগর বাজার'],"Dhamainagar Bazar, Raiganj, Sirajganj District, Rajshahi Division, Bangladesh","ধামাইনগর বাজার, সিরাজগঞ্জ জেলা, রাজশাহী বিভাগ, বাংলাদেশ",Raiganj,বাংলাদেশ,রাজশাহী বিভাগ,local_admin,boundaries,['marketplace'],[],Bangladesh,Rajshahi,Sirajganj,Royganj,Dhamainagar,fbf122230845534d9b6bfca8bfb324bd
4875456500.0,893cf50cc0bffff,24.5277885,89.4678969,,,"Raiganj, Sirajganj District, Rajshahi Division, Bangladesh","সিরাজগঞ্জ জেলা, রাজশাহী বিভাগ, বাংলাদেশ",Raiganj,বাংলাদেশ,রাজশাহী বিভাগ,local_admin,boundaries,['helipad'],[],Bangladesh,Rajshahi,Sirajganj,Royganj,Dhamainagar,fbf122230845534d9b6bfca8bfb324bd
4894836893.0,893cf50c8b3ffff,24.5241755,89.490773,Dumrai Bazar,['ডুমরাই বাজার'],"Dumrai Bazar, Raiganj, Sirajganj District, Rajshahi Division, Bangladesh","ডুমরাই বাজার, সিরাজগঞ্জ জেলা, রাজশাহী বিভাগ, বাংলাদেশ",Raiganj,বাংলাদেশ,রাজশাহী বিভাগ,local_admin,boundaries,['marketplace'],[],Bangladesh,Rajshahi,Sirajganj,Royganj,Chandaikona,45bd97eb56a0d9801d9c91657a3d4043
5123971908.0,893cf570dc7ffff,24.3861122,89.4455307,Harin Chara Bazar Bus Stop,,"Harin Chara Bazar Bus Stop, Ullapara, Sirajganj District, Rajshahi Division, Bangladesh","হরিন চর বাজর বাস স্টপ, সিরাজগঞ্জ জেলা, রাজশাহী বিভাগ, বাংলাদেশ",Ullapara,বাংলাদেশ,রাজশাহী বিভাগ,street,boundaries,['bus_stop'],[],Bangladesh,Rajshahi,Sirajganj,UllahPara,Ramkrishnapur,39a9913b3e2115aa382a5d978964cf6e
5123974562.0,893cf570ca3ffff,24.383742,89.4346899,,,"Ullapara, Sirajganj District, Rajshahi Division, Bangladesh","সিরাজগঞ্জ জেলা, রাজশাহী বিভাগ, বাংলাদেশ",Ullapara,বাংলাদেশ,রাজশাহী বিভাগ,local_admin,boundaries,['water_works'],[],Bangladesh,Rajshahi,Sirajganj,UllahPara,Ramkrishnapur,39a9913b3e2115aa382a5d978964cf6e
5123974595.0,893cf570ca3ffff,24.3840807,89.4326932,Dabirgonj Post Office,,"Dabirgonj Post Office, Ullapara, Sirajganj District, Rajshahi Division, Bangladesh","ডাবিরগনজ পোস্ট অফিস, সিরাজগঞ্জ জেলা, রাজশাহী বিভাগ, বাংলাদেশ",Ullapara,বাংলাদেশ,রাজশাহী বিভাগ,local_admin,boundaries,['post_office'],[],Bangladesh,Rajshahi,Sirajganj,UllahPara,Ramkrishnapur,39a9913b3e2115aa382a5d978964cf6e
5123977384.0,893cf570cabffff,24.3824207,89.4318161,Dabirgonj Bazar Bus Stop,,"Dabirgonj Bazar Bus Stop, Ullapara, Sirajganj District, Rajshahi Division, Bangladesh","ডাবিরগঞ্জ বাজর বাস স্টপ, সিরাজগঞ্জ জেলা, রাজশাহী বিভাগ, বাংলাদেশ",Ullapara,বাংলাদেশ,রাজশাহী বিভাগ,street,boundaries,['bus_stop'],[],Bangladesh,Rajshahi,Sirajganj,UllahPara,Ramkrishnapur,39a9913b3e2115aa382a5d978964cf6e
5123977598.0,893cf570cabffff,24.3825464,89.4317878,"Aarong Dairy, Salonga Chilling Center",,"Aarong Dairy Salonga Chilling Center, Ullapara, Sirajganj District, Rajshahi Division, Bangladesh","আড়ং দুগ্ধ সালঙ্গা চিলিং সেন্টার, সিরাজগঞ্জ জেলা, রাজশাহী বিভাগ, বাংলাদেশ",Ullapara,বাংলাদেশ,রাজশাহী বিভাগ,local_admin,boundaries,['marketplace'],[],Bangladesh,Rajshahi,Sirajganj,UllahPara,Ramkrishnapur,39a9913b3e2115aa382a5d978964cf6e
5123977622.0,893cf5701a7ffff,24.3797937,89.412465,খালকুলা বাজার (Khalkula Bazar),,"Khalkula Bazar, Tarash, Sirajganj District, Rajshahi Division, Bangladesh","খালকুলা বাজার, সিরাজগঞ্জ জেলা, রাজশাহী বিভাগ, বাংলাদেশ",Tarash,বাংলাদেশ,রাজশাহী বিভাগ,local_admin,boundaries,['marketplace'],[],Bangladesh,Rajshahi,Sirajganj,Tarash,Naogaon,3f944b56a39bebffff5b45f40b61e7df
4111169889.0,893cf564693ffff,24.3085071,89.644832,Bolorampur Bazar,,"Bolorampur Bazar, Sirajganj District, Rajshahi Division, Bangladesh","বোলোরামপুর বাজার, সিরাজগঞ্জ জেলা, রাজশাহী বিভাগ, বাংলাদেশ",,বাংলাদেশ,রাজশাহী বিভাগ,admin2,boundaries,['supermarket'],[],Bangladesh,Rajshahi,Sirajganj,Kamarkhanda,RoyDaulatpur,f472a2fd53eae9aee46434744507b51f
4111185572.0,893cf5644cfffff,24.3182345,89.6530054,Semanto mosjid,,"Semanto mosjid, Sirajganj District, Rajshahi Division, Bangladesh","সেমান্টো মোসজিড, সিরাজগঞ্জ জেলা, রাজশাহী বিভাগ, বাংলাদেশ",,বাংলাদেশ,রাজশাহী বিভাগ,admin2,boundaries,['place_of_worship_muslim'],[],Bangladesh,Rajshahi,Sirajganj,Kamarkhanda,RoyDaulatpur,f472a2fd53eae9aee46434744507b51f
4111207486.0,893cf5645abffff,24.3295516,89.6863385,Tamai high school,,"Tamai high school, Sirajganj District, Rajshahi Division, Bangladesh","তামাই উচ্চ বিদ্যালয়, সিরাজগঞ্জ জেলা, রাজশাহী বিভাগ, বাংলাদেশ",,বাংলাদেশ,রাজশাহী বিভাগ,admin2,boundaries,['school'],[],Bangladesh,Rajshahi,Sirajganj,Belkuchi,Bhangabari,2afa2715215fb395e3b5783ecc5c7b3f
4111211700.0,893cf564507ffff,24.3287076,89.6855841,Tamai Primary school,,"Tamai Primary school, Sirajganj District, Rajshahi Division, Bangladesh","তামাই প্রাথমিক বিদ্যালয়, সিরাজগঞ্জ জেলা, রাজশাহী বিভাগ, বাংলাদেশ",,বাংলাদেশ,রাজশাহী বিভাগ,admin2,boundaries,['school'],[],Bangladesh,Rajshahi,Sirajganj,Belkuchi,Bhangabari,2afa2715215fb395e3b5783ecc5c7b3f
4111257905.0,893cf564533ffff,24.3274001,89.6891899,Jewel's pharmacy,,"Jewel's pharmacy, Sirajganj District, Rajshahi Division, Bangladesh","রত্নের ফার্মাসি, সিরাজগঞ্জ জেলা, রাজশাহী বিভাগ, বাংলাদেশ",,বাংলাদেশ,রাজশাহী বিভাগ,admin2,boundaries,['pharmacy'],[],Bangladesh,Rajshahi,Sirajganj,Belkuchi,Bhangabari,2afa2715215fb395e3b5783ecc5c7b3f
4111257906.0,893cf564533ffff,24.3274012,89.6889739,Protigga shoping mall,,"Protigga shoping mall, Sirajganj District, Rajshahi Division, Bangladesh","প্রোটিগগা শপিংমল, সিরাজগঞ্জ জেলা, রাজশাহী বিভাগ, বাংলাদেশ",,বাংলাদেশ,রাজশাহী বিভাগ,admin2,boundaries,['mall'],[],Bangladesh,Rajshahi,Sirajganj,Belkuchi,Bhangabari,2afa2715215fb395e3b5783ecc5c7b3f
4111257907.0,893cf564533ffff,24.32767,89.6891535,Tamai Girls high school,,"Tamai Girls high school, Sirajganj District, Rajshahi Division, Bangladesh","তামাই গার্লস হাই স্কুল, সিরাজগঞ্জ জেলা, রাজশাহী বিভাগ, বাংলাদেশ",,বাংলাদেশ,রাজশাহী বিভাগ,admin2,boundaries,['school'],[],Bangladesh,Rajshahi,Sirajganj,Belkuchi,Bhangabari,2afa2715215fb395e3b5783ecc5c7b3f
4111257908.0,893cf564533ffff,24.327402,89.6889739,ট্রাস্ট ব্যাংক,"['ট্রাস্ট ব্যাংক', 'Trast Bank']","Trust Bank, Sirajganj District, Rajshahi Division, Bangladesh","ট্রাস্ট ব্যাংক, সিরাজগঞ্জ জেলা, রাজশাহী বিভাগ, বাংলাদেশ",,বাংলাদেশ,রাজশাহী বিভাগ,admin2,boundaries,['bank'],[],Bangladesh,Rajshahi,Sirajganj,Belkuchi,Bhangabari,2afa2715215fb395e3b5783ecc5c7b3f
4111278125.0,893cf56453bffff,24.3265398,89.6900155,Tamai Aminia HafiziaForkania Madrasha,,"Tamai Aminia HafiziaForkania Madrasha, Sirajganj District, Rajshahi Division, Bangladesh","তামাই আমিনিয়া হাফিজিয়াফোরকানিয়া মাদ্রাশা, সিরাজগঞ্জ জেলা, রাজশাহী বিভাগ, বাংলাদেশ",,বাংলাদেশ,রাজশাহী বিভাগ,admin2,boundaries,['school'],[],Bangladesh,Rajshahi,Sirajganj,Belkuchi,Bhangabari,2afa2715215fb395e3b5783ecc5c7b3f
4111278126.0,893cf56453bffff,24.3268613,89.6901098,Tamai Bazar,,"Tamai Bazar, Sirajganj District, Rajshahi Division, Bangladesh","তামাই বাজার, সিরাজগঞ্জ জেলা, রাজশাহী বিভাগ, বাংলাদেশ",,বাংলাদেশ,রাজশাহী বিভাগ,admin2,boundaries,['marketplace'],[],Bangladesh,Rajshahi,Sirajganj,Belkuchi,Bhangabari,2afa2715215fb395e3b5783ecc5c7b3f
4111278127.0,893cf564533ffff,24.3285084,89.6886471,Tamai Kandrio Jamel Mosjid,,"Tamai Kandrio Jamel Mosjid, Sirajganj District, Rajshahi Division, Bangladesh","তামাই ক্যান্ডরিও জামেল মোসজিড, সিরাজগঞ্জ জেলা, রাজশাহী বিভাগ, বাংলাদেশ",,বাংলাদেশ,রাজশাহী বিভাগ,admin2,boundaries,['place_of_worship_muslim'],[],Bangladesh,Rajshahi,Sirajganj,Belkuchi,Bhangabari,2afa2715215fb395e3b5783ecc5c7b3f
4146906492.0,893cf5670b3ffff,24.3161328,89.6123144,সলপ,['Solop Rail Station'],"Salp, Ullapara, Sirajganj District, Rajshahi Division, Bangladesh","সলপ, সিরাজগঞ্জ জেলা, রাজশাহী বিভাগ, বাংলাদেশ",Ullapara,বাংলাদেশ,রাজশাহী বিভাগ,local_admin,boundaries,['railway_station'],[],Bangladesh,Rajshahi,Sirajganj,UllahPara,PanchaKrushi,01d975e3548133a3d2de456cff18532b
4319053756.0,893cf5286d7ffff,24.4544544,89.6854105,tenis fild,,"tenis fild, Sirajganj District, Rajshahi Division, Bangladesh","টেনিস ফিল্ড, সিরাজগঞ্জ জেলা, রাজশাহী বিভাগ, বাংলাদেশ",,বাংলাদেশ,রাজশাহী বিভাগ,admin2,boundaries,['playground'],[],Bangladesh,Rajshahi,Sirajganj,SirajganjSadar,SirajganjPaurashava,c2ac43e6a1366cc3da97c656372101dc
4380381791.0,893cf52a27bffff,24.4809591,89.6843934,Spi Playground,,"Spi Playground, Sirajganj District, Rajshahi Division, Bangladesh","এসপিআই খেলার মাঠ, সিরাজগঞ্জ জেলা, রাজশাহী বিভাগ, বাংলাদেশ",,বাংলাদেশ,রাজশাহী বিভাগ,admin2,boundaries,['playground'],[],Bangladesh,Rajshahi,Sirajganj,SirajganjSadar,Khoksabari,ba7340b3ab266c24ed1f2017eb6e9ca5
5539757449.0,893cf570cabffff,24.3825293,89.4321428,দবীরগঞ্জ বাজার,,"Dabirganj Bazar, Ullapara, Sirajganj District, Rajshahi Division, Bangladesh","দবীরগঞ্জ বাজার, সিরাজগঞ্জ জেলা, রাজশাহী বিভাগ, বাংলাদেশ",Ullapara,বাংলাদেশ,রাজশাহী বিভাগ,local_admin,boundaries,['variety_store'],[],Bangladesh,Rajshahi,Sirajganj,UllahPara,Ramkrishnapur,39a9913b3e2115aa382a5d978964cf6e
4755787419.0,893cf5293d7ffff,24.3951667,89.6920283,Koddar Mor,,"Koddar Mor, Sirajganj District, Rajshahi Division, Bangladesh","কোদ্দার মোর, সিরাজগঞ্জ জেলা, রাজশাহী বিভাগ, বাংলাদেশ",,বাংলাদেশ,রাজশাহী বিভাগ,admin2,boundaries,['bus_station'],[],Bangladesh,Rajshahi,Sirajganj,SirajganjSadar,Saidabad,ca43739bc98caa6647b206c8737fd21a
4894742533.0,893cf56434bffff,24.2798684,89.6881084,Kamarpara Bazar,['কামারপাড়া বাজার'],"Kamarpara Bazar, Sirajganj District, Rajshahi Division, Bangladesh","কামারপুর বাজর, সিরাজগঞ্জ জেলা, রাজশাহী বিভাগ, বাংলাদেশ",,বাংলাদেশ,রাজশাহী বিভাগ,admin2,boundaries,['marketplace'],[],Bangladesh,Rajshahi,Sirajganj,Belkuchi,Daulatpur,6310651761cafd1c77d4b1a51d2a1bf0
4894813771.0,893cf565c4bffff,24.2571273,89.6814264,Daulatpur Union Parishad,['দৌলতপুর ইউনিয়ন পরিষদ'],"Daulatpur Union Parishad, Sirajganj District, Rajshahi Division, Bangladesh","দৌলতপুর ইউনিয়ন পরিশাদ, সিরাজগঞ্জ জেলা, রাজশাহী বিভাগ, বাংলাদেশ",,বাংলাদেশ,রাজশাহী বিভাগ,admin2,boundaries,['government'],[],Bangladesh,Rajshahi,Sirajganj,Belkuchi,Daulatpur,6310651761cafd1c77d4b1a51d2a1bf0
5123723209.0,893cf5293d7ffff,24.3948479,89.6920489,,,"Sirajganj District, Rajshahi Division, Bangladesh","সিরাজগঞ্জ জেলা, রাজশাহী বিভাগ, বাংলাদেশ",,বাংলাদেশ,রাজশাহী বিভাগ,admin2,boundaries,['toilets'],[],Bangladesh,Rajshahi,Sirajganj,SirajganjSadar,Saidabad,ca43739bc98caa6647b206c8737fd21a
5123730866.0,893cf5293d7ffff,24.395236,89.692158,Lablu Talukder Hotel লাবলু তালুকদার হোটেল,,"Lablu Talukder Hotel, Sirajganj District, Rajshahi Division, Bangladesh","লাবলু তালুকদার হোটেল, সিরাজগঞ্জ জেলা, রাজশাহী বিভাগ, বাংলাদেশ",,বাংলাদেশ,রাজশাহী বিভাগ,admin2,boundaries,['restaurant'],[],Bangladesh,Rajshahi,Sirajganj,SirajganjSadar,Saidabad,ca43739bc98caa6647b206c8737fd21a
5123984865.0,893cf5700b3ffff,24.3735351,89.3823863,Mohishluti,,"Mohishluti, Tarash, Sirajganj District, Rajshahi Division, Bangladesh","মহীশলুটি, সিরাজগঞ্জ জেলা, রাজশাহী বিভাগ, বাংলাদেশ",Tarash,বাংলাদেশ,রাজশাহী বিভাগ,local_admin,boundaries,['marketplace'],[],Bangladesh,Rajshahi,Sirajganj,Tarash,Naogaon,3f944b56a39bebffff5b45f40b61e7df
5124009401.0,893cf5706b7ffff,24.3667713,89.3619557, -Mannan Nagar Bazar,,"-Mannan Nagar Bazar, Tarash, Sirajganj District, Rajshahi Division, Bangladesh","-মানান নগর বাজার, সিরাজগঞ্জ জেলা, রাজশাহী বিভাগ, বাংলাদেশ",Tarash,বাংলাদেশ,রাজশাহী বিভাগ,local_admin,boundaries,['marketplace'],[],Bangladesh,Rajshahi,Sirajganj,Tarash,MaguraBinod,5145a05373cdff65ce606082916a947c
5234362771.0,893cf5286c7ffff,24.454298,89.6902026,কাজিপুর মোড়,,"Kazipur, Sirajganj District, Rajshahi Division, Bangladesh","কাজিপুর মোড়, সিরাজগঞ্জ জেলা, রাজশাহী বিভাগ, বাংলাদেশ",,বাংলাদেশ,রাজশাহী বিভাগ,street,boundaries,['bus_stop'],[],Bangladesh,Rajshahi,Sirajganj,SirajganjSadar,SirajganjPaurashava,c2ac43e6a1366cc3da97c656372101dc
5234365892.0,893cf52b38bffff,24.4491472,89.6658155,শিয়ালকোল বাজার,,"Sialkol Market, Sirajganj District, Rajshahi Division, Bangladesh","শিয়ালকোল বাজার, সিরাজগঞ্জ জেলা, রাজশাহী বিভাগ, বাংলাদেশ",,বাংলাদেশ,রাজশাহী বিভাগ,admin2,boundaries,['variety_store'],[],Bangladesh,Rajshahi,Sirajganj,SirajganjSadar,Shialkul,e12a4a2e7cd4b17f2d7e0616642c8822
5234369307.0,893cf52b317ffff,24.4486149,89.6728396,Shaheed M. Munsur Ali Medical College & Hospital,,"Shaheed M. Munsur Ali Medical College & Hospital, Sirajganj District, Rajshahi Division, Bangladesh","শহীদ এম। মনসুর আলী মেডিকেল কলেজ ও হাসপাতাল, সিরাজগঞ্জ জেলা, রাজশাহী বিভাগ, বাংলাদেশ",,বাংলাদেশ,রাজশাহী বিভাগ,admin2,boundaries,['hospital'],[],Bangladesh,Rajshahi,Sirajganj,SirajganjSadar,Shialkul,e12a4a2e7cd4b17f2d7e0616642c8822
6119750385.0,893cf50dc2fffff,24.4782788,89.447044,,['Bulbul Shoe Store'],"Tarash, Sirajganj District, Rajshahi Division, Bangladesh","সিরাজগঞ্জ জেলা, রাজশাহী বিভাগ, বাংলাদেশ",Tarash,বাংলাদেশ,রাজশাহী বিভাগ,local_admin,boundaries,['shoes'],[],Bangladesh,Rajshahi,Sirajganj,Royganj,Sonakhara,94fde6c96fc50cb2633aec66046bcd00
5213429411.0,893cf5700b3ffff,24.3738376,89.3826759,মহিষলুটি,,"Bucket, Tarash, Sirajganj District, Rajshahi Division, Bangladesh","মহিষলুটি, সিরাজগঞ্জ জেলা, রাজশাহী বিভাগ, বাংলাদেশ",Tarash,বাংলাদেশ,রাজশাহী বিভাগ,street,boundaries,['bus_stop'],[],Bangladesh,Rajshahi,Sirajganj,Tarash,Naogaon,3f944b56a39bebffff5b45f40b61e7df
5213469111.0,893cf572187ffff,24.4304674,89.3720803,তাড়াশ বাজার,,"Tarash Market, Tarash, Sirajganj District, Rajshahi Division, Bangladesh","তাড়াশ বাজার, সিরাজগঞ্জ জেলা, রাজশাহী বিভাগ, বাংলাদেশ",Tarash,বাংলাদেশ,রাজশাহী বিভাগ,local_admin,boundaries,['supermarket'],[],Bangladesh,Rajshahi,Sirajganj,Tarash,Tarash,54ee3eac08c1a0c190d3a382b916ac42
5213479521.0,893cf572187ffff,24.4305639,89.3715616,টেম্পু স্ট্যান্ড তাড়াশ বাজার,,"Tempu Stand Tarash Market, Tarash, Sirajganj District, Rajshahi Division, Bangladesh","টেম্পু স্ট্যান্ড তাড়াশ বাজার, সিরাজগঞ্জ জেলা, রাজশাহী বিভাগ, বাংলাদেশ",Tarash,বাংলাদেশ,রাজশাহী বিভাগ,street,boundaries,['bus_stop'],[],Bangladesh,Rajshahi,Sirajganj,Tarash,Tarash,54ee3eac08c1a0c190d3a382b916ac42
5213482998.0,893cf5721bbffff,24.4301012,89.3759486,তাড়াশ বাস স্ট্যান্ড,,"Tarash bus stand, Tarash, Sirajganj District, Rajshahi Division, Bangladesh","তাড়াশ বাস স্ট্যান্ড, সিরাজগঞ্জ জেলা, রাজশাহী বিভাগ, বাংলাদেশ",Tarash,বাংলাদেশ,রাজশাহী বিভাগ,street,boundaries,['bus_stop'],[],Bangladesh,Rajshahi,Sirajganj,Tarash,Tarash,54ee3eac08c1a0c190d3a382b916ac42
5213536077.0,893cf57252bffff,24.4330082,89.3646328,ওয়াবদা বাঁধ,,"Wabada Dam, Tarash, Sirajganj District, Rajshahi Division, Bangladesh","ওয়াবদা বাঁধ, সিরাজগঞ্জ জেলা, রাজশাহী বিভাগ, বাংলাদেশ",Tarash,বাংলাদেশ,রাজশাহী বিভাগ,street,boundaries,['bus_stop'],[],Bangladesh,Rajshahi,Sirajganj,Tarash,Tarash,54ee3eac08c1a0c190d3a382b916ac42
5224557507.0,893cf50d453ffff,24.4770604,89.3577535,ধোপাগারি বাজার,,"Dhopagari Market, Tarash, Sirajganj District, Rajshahi Division, Bangladesh","ধোপাগারি বাজার, সিরাজগঞ্জ জেলা, রাজশাহী বিভাগ, বাংলাদেশ",Tarash,বাংলাদেশ,রাজশাহী বিভাগ,local_admin,boundaries,['variety_store'],[],Bangladesh,Rajshahi,Sirajganj,Tarash,Baruhas,d9ee12a0a684d2a472fd3d2ecf300b15
5224569090.0,893cf50e653ffff,24.5581333,89.3584712,রানীহাট,,"Queenhat, Tarash, Sirajganj District, Rajshahi Division, Bangladesh","রানীহাট, সিরাজগঞ্জ জেলা, রাজশাহী বিভাগ, বাংলাদেশ",Tarash,বাংলাদেশ,রাজশাহী বিভাগ,street,boundaries,['bus_stop'],[],Bangladesh,Rajshahi,Sirajganj,Tarash,Talam,a02e92934f954cef5d0e371e4f7ac20a
5224588542.0,893cf57218fffff,24.4268136,89.3704493,তাড়াশ থানা,,"Tarash police station, Tarash, Sirajganj District, Rajshahi Division, Bangladesh","তাড়াশ থানা, সিরাজগঞ্জ জেলা, রাজশাহী বিভাগ, বাংলাদেশ",Tarash,বাংলাদেশ,রাজশাহী বিভাগ,local_admin,boundaries,['police'],[],Bangladesh,Rajshahi,Sirajganj,Tarash,Tarash,54ee3eac08c1a0c190d3a382b916ac42
7520900162.0,893cf56008bffff,24.2612177,89.4995784,লাহিড়ী মোহনপুর,,"Lahiri Mohanpur, Ullapara, Sirajganj District, Rajshahi Division, Bangladesh","লাহিড়ী মোহনপুর, সিরাজগঞ্জ জেলা, রাজশাহী বিভাগ, বাংলাদেশ",Ullapara,বাংলাদেশ,রাজশাহী বিভাগ,local_admin,boundaries,['railway_station'],[],Bangladesh,Rajshahi,Sirajganj,UllahPara,Mohanpur,ffbbdd7eb46afff242d0bb4d37b0e78e
5539777342.0,893cf50d27bffff,24.4351236,89.3806923,Bazar   ,,"Bazar, Tarash, Sirajganj District, Rajshahi Division, Bangladesh","বাজর, সিরাজগঞ্জ জেলা, রাজশাহী বিভাগ, বাংলাদেশ",Tarash,বাংলাদেশ,রাজশাহী বিভাগ,local_admin,boundaries,['variety_store'],[],Bangladesh,Rajshahi,Sirajganj,Tarash,Tarash,54ee3eac08c1a0c190d3a382b916ac42
5942701059.0,893cf508e23ffff,24.4608855,89.3025055,হেদার খাল,,"Hedar canal, Tarash, Sirajganj District, Rajshahi Division, Bangladesh","হেদার খাল, সিরাজগঞ্জ জেলা, রাজশাহী বিভাগ, বাংলাদেশ",Tarash,বাংলাদেশ,রাজশাহী বিভাগ,local_admin,boundaries,['bus_station'],[],Bangladesh,Rajshahi,Sirajganj,Tarash,Baruhas,d9ee12a0a684d2a472fd3d2ecf300b15
6940370986.0,893cf574c77ffff,24.4196505,89.6049556,,['Sirajgonj city'],"Sirajganj District, Rajshahi Division, Bangladesh","সিরাজগঞ্জ জেলা, রাজশাহী বিভাগ, বাংলাদেশ",,বাংলাদেশ,রাজশাহী বিভাগ,admin2,boundaries,['bus_stop'],[],Bangladesh,Rajshahi,Sirajganj,Kamarkhanda,Bhadraghat,98e7614ec6840047c898c18330ce4c5f
7472684595.0,893cf529013ffff,24.4109866,89.6804617,কালিয়া হরিপুর,,"Kalia Haripur, Sirajganj District, Rajshahi Division, Bangladesh","কালিয়া হরিপুর, সিরাজগঞ্জ জেলা, রাজশাহী বিভাগ, বাংলাদেশ",,বাংলাদেশ,রাজশাহী বিভাগ,admin2,boundaries,['railway_station'],[],Bangladesh,Rajshahi,Sirajganj,Kamarkhanda,Jhawail,1c55578ce1e7d07e54db7dc76d026c3c
8168544951.0,893cf529357ffff,24.3902549,89.6967051,,,"Sirajganj District, Rajshahi Division, Bangladesh","সিরাজগঞ্জ জেলা, রাজশাহী বিভাগ, বাংলাদেশ",,বাংলাদেশ,রাজশাহী বিভাগ,admin2,boundaries,['ford'],[],Bangladesh,Rajshahi,Sirajganj,SirajganjSadar,Saidabad,ca43739bc98caa6647b206c8737fd21a
495816550.0,893cf50ce83ffff,24.5155626,89.45884525,Protap dighi Jame Masjid,['প্রতাপ দিঘি জামে মসজিদ'],"Protap dighi Jame Masjid, Raiganj, Sirajganj District, Rajshahi Division, Bangladesh","প্রোটাপ দিঘি জামে মসজিদ, সিরাজগঞ্জ জেলা, রাজশাহী বিভাগ, বাংলাদেশ",Raiganj,বাংলাদেশ,রাজশাহী বিভাগ,local_admin,boundaries,['place_of_worship_muslim'],[],Bangladesh,Rajshahi,Sirajganj,Royganj,Dhamainagar,fbf122230845534d9b6bfca8bfb324bd
495824013.0,893cf50dc2fffff,24.47827276,89.44694977,Nimgachi Bazar,['নিমগাছি বাজার'],"Nimgachi Bazar, Tarash, Sirajganj District, Rajshahi Division, Bangladesh","নিমগাচি বাজার, সিরাজগঞ্জ জেলা, রাজশাহী বিভাগ, বাংলাদেশ",Tarash,বাংলাদেশ,রাজশাহী বিভাগ,local_admin,boundaries,['marketplace'],[],Bangladesh,Rajshahi,Sirajganj,Royganj,Sonakhara,94fde6c96fc50cb2633aec66046bcd00
526995812.0,893cf5772d7ffff,24.39381398,89.46875702,Filling station,,"Filling station, Ullapara, Sirajganj District, Rajshahi Division, Bangladesh","পেট্রল - পাস্প, সিরাজগঞ্জ জেলা, রাজশাহী বিভাগ, বাংলাদেশ",Ullapara,বাংলাদেশ,রাজশাহী বিভাগ,local_admin,boundaries,['fuel'],[],Bangladesh,Rajshahi,Sirajganj,UllahPara,Ramkrishnapur,39a9913b3e2115aa382a5d978964cf6e
526996128.0,893cf570da3ffff,24.39044119,89.45715554,হরিনচড়া বাজার,,"Harinchara Bazar, Ullapara, Sirajganj District, Rajshahi Division, Bangladesh","হরিনচড়া বাজার, সিরাজগঞ্জ জেলা, রাজশাহী বিভাগ, বাংলাদেশ",Ullapara,বাংলাদেশ,রাজশাহী বিভাগ,local_admin,boundaries,['marketplace'],[],Bangladesh,Rajshahi,Sirajganj,UllahPara,Ramkrishnapur,39a9913b3e2115aa382a5d978964cf6e
526996512.0,893cf570ca3ffff,24.38361088,89.43312222,Dabirganj Purbapara Masjid,,"Dabirganj Purbapara Masjid, Ullapara, Sirajganj District, Rajshahi Division, Bangladesh","দাবিরগঞ্জ পুর্বাপারা মসজিদ, সিরাজগঞ্জ জেলা, রাজশাহী বিভাগ, বাংলাদেশ",Ullapara,বাংলাদেশ,রাজশাহী বিভাগ,local_admin,boundaries,['place_of_worship_muslim'],[],Bangladesh,Rajshahi,Sirajganj,UllahPara,Ramkrishnapur,39a9913b3e2115aa382a5d978964cf6e
416354823.0,893cf5740a3ffff,24.4185647,89.5556532,Aristocrat,,"Aristocrat, Ullapara, Sirajganj District, Rajshahi Division, Bangladesh","অভিজাত, সিরাজগঞ্জ জেলা, রাজশাহী বিভাগ, বাংলাদেশ",Ullapara,বাংলাদেশ,রাজশাহী বিভাগ,local_admin,boundaries,['restaurant'],[],Bangladesh,Rajshahi,Sirajganj,UllahPara,Hatikumrul,844e2a2ccf219e6b03ac136f31195f7b
1470336193.0,893cf5740a7ffff,24.4193326,89.5568977,Green Cafe,,"Green Cafe, Ullapara, Sirajganj District, Rajshahi Division, Bangladesh","সবুজ ক্যাফে, সিরাজগঞ্জ জেলা, রাজশাহী বিভাগ, বাংলাদেশ",Ullapara,বাংলাদেশ,রাজশাহী বিভাগ,local_admin,boundaries,['cafe'],[],Bangladesh,Rajshahi,Sirajganj,UllahPara,Hatikumrul,844e2a2ccf219e6b03ac136f31195f7b
2456431641.0,893cf56290bffff,24.3127364,89.5668125,Government Akbar Ali College,,"Government Akbar Ali College, Ullapara, Sirajganj District, Rajshahi Division, Bangladesh","সরকারী আকবর আলী কলেজ, সিরাজগঞ্জ জেলা, রাজশাহী বিভাগ, বাংলাদেশ",Ullapara,বাংলাদেশ,রাজশাহী বিভাগ,local_admin,boundaries,['college'],[],Bangladesh,Rajshahi,Sirajganj,UllahPara,UllahParaPaurashava,7165eecb33db02d0efc18958bb92863f
2456432789.0,893cf562b2bffff,24.2883062,89.5688893,,,"Ullapara, Sirajganj District, Rajshahi Division, Bangladesh","সিরাজগঞ্জ জেলা, রাজশাহী বিভাগ, বাংলাদেশ",Ullapara,বাংলাদেশ,রাজশাহী বিভাগ,local_admin,boundaries,['school'],[],Bangladesh,Rajshahi,Sirajganj,UllahPara,Durganagar,3a337b9c8f2d9fd320e2436fc1279ab0
2456438806.0,893cf56e247ffff,24.1759546,89.5955602,,,"Shahjadpur, Sirajganj District, Rajshahi Division, Bangladesh","সিরাজগঞ্জ জেলা, রাজশাহী বিভাগ, বাংলাদেশ",Shahjadpur,বাংলাদেশ,রাজশাহী বিভাগ,local_admin,boundaries,['place_of_worship_muslim'],[],Bangladesh,Rajshahi,Sirajganj,Shahjadpur,ShahjadpurPaurashava,016f08061f51ea5471b86a38b4e6867e
2456439034.0,893cf56f1b7ffff,24.1714834,89.5967475,Bangobondhu Woman's College,,"Bangobondhu Woman's College, Shahjadpur, Sirajganj District, Rajshahi Division, Bangladesh","বঙ্গোবন্ডু ওম্যানস কলেজ, সিরাজগঞ্জ জেলা, রাজশাহী বিভাগ, বাংলাদেশ",Shahjadpur,বাংলাদেশ,রাজশাহী বিভাগ,local_admin,boundaries,['college'],[],Bangladesh,Rajshahi,Sirajganj,Shahjadpur,ShahjadpurPaurashava,016f08061f51ea5471b86a38b4e6867e
2545379113.0,893cf562b2bffff,24.2900736,89.5701215,উল্লাপাড়া,['Ullapra'],"Ullapara, Sirajganj District, Rajshahi Division, Bangladesh","উল্লাপাড়া, সিরাজগঞ্জ জেলা, রাজশাহী বিভাগ, বাংলাদেশ",Ullapara,বাংলাদেশ,রাজশাহী বিভাগ,local_admin,boundaries,['railway_station'],[],Bangladesh,Rajshahi,Sirajganj,UllahPara,Durganagar,3a337b9c8f2d9fd320e2436fc1279ab0
9596884398.0,893cf574b23ffff,24.392518,89.6445592,Bor Dhul Adarsha High School,,"Bor Dhul Adarsha High School, Sirajganj District, Rajshahi Division, Bangladesh","বোর ধুল আদারশা উচ্চ বিদ্যালয়, সিরাজগঞ্জ জেলা, রাজশাহী বিভাগ, বাংলাদেশ",,বাংলাদেশ,রাজশাহী বিভাগ,admin2,boundaries,['school'],[],Bangladesh,Rajshahi,Sirajganj,Kamarkhanda,Jhawail,1c55578ce1e7d07e54db7dc76d026c3c
3599854388.0,893cf5740b7ffff,24.4202313,89.5556521,ডাচ-বাংলা ব্যাংক,"['ডাচ-বাংলা ব্যাংক', 'Dutch Bangla Bank']","Dutch-Bangla Bank, Ullapara, Sirajganj District, Rajshahi Division, Bangladesh","ডাচ-বাংলা ব্যাংক, সিরাজগঞ্জ জেলা, রাজশাহী বিভাগ, বাংলাদেশ",Ullapara,বাংলাদেশ,রাজশাহী বিভাগ,local_admin,boundaries,['atm'],[],Bangladesh,Rajshahi,Sirajganj,UllahPara,Hatikumrul,844e2a2ccf219e6b03ac136f31195f7b
9838976539.0,893cf564533ffff,24.328592,89.6903667,Amirah Agro Farm - আমিরাহ এগ্রো ফার্ম,,"Amirah Agro Farm -, Sirajganj District, Rajshahi Division, Bangladesh","আমিরাহ এগ্রো ফার্ম, সিরাজগঞ্জ জেলা, রাজশাহী বিভাগ, বাংলাদেশ",,বাংলাদেশ,রাজশাহী বিভাগ,admin2,boundaries,['marketplace'],[],Bangladesh,Rajshahi,Sirajganj,Belkuchi,Bhangabari,2afa2715215fb395e3b5783ecc5c7b3f
9939575077.0,893cf564553ffff,24.3228313,89.6745393,Jamia Pharmacy,,"Jamia Pharmacy, Sirajganj District, Rajshahi Division, Bangladesh","জামিয়া ফার্মাসি, সিরাজগঞ্জ জেলা, রাজশাহী বিভাগ, বাংলাদেশ",,বাংলাদেশ,রাজশাহী বিভাগ,admin2,boundaries,['pharmacy'],[],Bangladesh,Rajshahi,Sirajganj,Belkuchi,Bhangabari,2afa2715215fb395e3b5783ecc5c7b3f
9999337072.0,893cf564553ffff,24.3226258,89.6744417,Jamia Medical Hall,,"Jamia Medical Hall, Sirajganj District, Rajshahi Division, Bangladesh","জামিয়া মেডিকেল হল, সিরাজগঞ্জ জেলা, রাজশাহী বিভাগ, বাংলাদেশ",,বাংলাদেশ,রাজশাহী বিভাগ,admin2,boundaries,['pharmacy'],[],Bangladesh,Rajshahi,Sirajganj,Belkuchi,Bhangabari,2afa2715215fb395e3b5783ecc5c7b3f
10001566155.0,893cf564553ffff,24.3227512,89.6745106,Hazrat Ali Store,,"Hazrat Ali Store, Sirajganj District, Rajshahi Division, Bangladesh","হযরত আলী স্টোর, সিরাজগঞ্জ জেলা, রাজশাহী বিভাগ, বাংলাদেশ",,বাংলাদেশ,রাজশাহী বিভাগ,admin2,boundaries,['variety_store'],[],Bangladesh,Rajshahi,Sirajganj,Belkuchi,Bhangabari,2afa2715215fb395e3b5783ecc5c7b3f
10001580619.0,893cf564553ffff,24.3229368,89.6745883,Grocery Store,,"Grocery Store, Sirajganj District, Rajshahi Division, Bangladesh","মুদি দোকান, সিরাজগঞ্জ জেলা, রাজশাহী বিভাগ, বাংলাদেশ",,বাংলাদেশ,রাজশাহী বিভাগ,admin2,boundaries,['variety_store'],[],Bangladesh,Rajshahi,Sirajganj,Belkuchi,Bhangabari,2afa2715215fb395e3b5783ecc5c7b3f
10004231221.0,893cf564553ffff,24.3222982,89.6744932,Tea Stall,,"Tea Stall, Sirajganj District, Rajshahi Division, Bangladesh","চা স্টল, সিরাজগঞ্জ জেলা, রাজশাহী বিভাগ, বাংলাদেশ",,বাংলাদেশ,রাজশাহী বিভাগ,admin2,boundaries,['tea'],[],Bangladesh,Rajshahi,Sirajganj,Belkuchi,Bhangabari,2afa2715215fb395e3b5783ecc5c7b3f
10008550822.0,893cf564553ffff,24.3223799,89.6742456,Mukta Store,,"Mukta Store, Sirajganj District, Rajshahi Division, Bangladesh","মুক্তার দোকান, সিরাজগঞ্জ জেলা, রাজশাহী বিভাগ, বাংলাদেশ",,বাংলাদেশ,রাজশাহী বিভাগ,admin2,boundaries,['variety_store'],[],Bangladesh,Rajshahi,Sirajganj,Belkuchi,Bhangabari,2afa2715215fb395e3b5783ecc5c7b3f
10008557724.0,893cf564553ffff,24.3225333,89.6743975,Madina Telecom,,"Madina Telecom, Sirajganj District, Rajshahi Division, Bangladesh","মদিনা টেলিকম, সিরাজগঞ্জ জেলা, রাজশাহী বিভাগ, বাংলাদেশ",,বাংলাদেশ,রাজশাহী বিভাগ,admin2,boundaries,['variety_store'],[],Bangladesh,Rajshahi,Sirajganj,Belkuchi,Bhangabari,2afa2715215fb395e3b5783ecc5c7b3f
10008567719.0,893cf564553ffff,24.3225135,89.6742951,Shahed Traders,,"Shahed Traders, Sirajganj District, Rajshahi Division, Bangladesh","শাহেদ ব্যবসায়ী, সিরাজগঞ্জ জেলা, রাজশাহী বিভাগ, বাংলাদেশ",,বাংলাদেশ,রাজশাহী বিভাগ,admin2,boundaries,['gas'],[],Bangladesh,Rajshahi,Sirajganj,Belkuchi,Bhangabari,2afa2715215fb395e3b5783ecc5c7b3f
10008569555.0,893cf564553ffff,24.3225555,89.6743188,Mim Sumaiya Telecom,,"Mim Sumaiya Telecom, Sirajganj District, Rajshahi Division, Bangladesh","মিম সুমাইয়া টেলিকম, সিরাজগঞ্জ জেলা, রাজশাহী বিভাগ, বাংলাদেশ",,বাংলাদেশ,রাজশাহী বিভাগ,admin2,boundaries,['variety_store'],[],Bangladesh,Rajshahi,Sirajganj,Belkuchi,Bhangabari,2afa2715215fb395e3b5783ecc5c7b3f
5213551108.0,893cf508e93ffff,24.4693684,89.2882066,"বারুহাস বাজার, তাড়াশ, সিরাজগঞ্জ",,"Baruhas Bazaar Tarash Sirajganj, Tarash, Sirajganj District, Rajshahi Division, Bangladesh","বারুহাস বাজার তাড়াশ সিরাজগঞ্জ, সিরাজগঞ্জ জেলা, রাজশাহী বিভাগ, বাংলাদেশ",Tarash,বাংলাদেশ,রাজশাহী বিভাগ,local_admin,boundaries,['supermarket'],[],Bangladesh,Rajshahi,Sirajganj,Tarash,Baruhas,d9ee12a0a684d2a472fd3d2ecf300b15
10011332794.0,893cf564553ffff,24.3222779,89.6742708,Tea Stall,,"Tea Stall, Sirajganj District, Rajshahi Division, Bangladesh","চা স্টল, সিরাজগঞ্জ জেলা, রাজশাহী বিভাগ, বাংলাদেশ",,বাংলাদেশ,রাজশাহী বিভাগ,admin2,boundaries,['tea'],[],Bangladesh,Rajshahi,Sirajganj,Belkuchi,Bhangabari,2afa2715215fb395e3b5783ecc5c7b3f
5218142494.0,893cf508ed7ffff,24.4652193,89.2869736,বাগিচা ইমামবাড়ি,,"Bagicha Imambari, Tarash, Sirajganj District, Rajshahi Division, Bangladesh","বাগিচা ইমামবাড়ি, সিরাজগঞ্জ জেলা, রাজশাহী বিভাগ, বাংলাদেশ",Tarash,বাংলাদেশ,রাজশাহী বিভাগ,local_admin,boundaries,['place_of_worship'],[],Bangladesh,Rajshahi,Sirajganj,Tarash,Baruhas,d9ee12a0a684d2a472fd3d2ecf300b15
10011352011.0,893cf564553ffff,24.3223044,89.6745801,Tea Stall,,"Tea Stall, Sirajganj District, Rajshahi Division, Bangladesh","চা স্টল, সিরাজগঞ্জ জেলা, রাজশাহী বিভাগ, বাংলাদেশ",,বাংলাদেশ,রাজশাহী বিভাগ,admin2,boundaries,['tea'],[],Bangladesh,Rajshahi,Sirajganj,Belkuchi,Bhangabari,2afa2715215fb395e3b5783ecc5c7b3f
5218159927.0,893cf508e83ffff,24.4685883,89.2880036,জনতা ব্যাঙ্ক,,"Janata Bank, Tarash, Sirajganj District, Rajshahi Division, Bangladesh","জনতা ব্যাঙ্ক, সিরাজগঞ্জ জেলা, রাজশাহী বিভাগ, বাংলাদেশ",Tarash,বাংলাদেশ,রাজশাহী বিভাগ,local_admin,boundaries,['bank'],[],Bangladesh,Rajshahi,Sirajganj,Tarash,Baruhas,d9ee12a0a684d2a472fd3d2ecf300b15
10013279064.0,893cf564553ffff,24.3229988,89.6746306,Matin Computer Shop,,"Matin Computer Shop, Sirajganj District, Rajshahi Division, Bangladesh","মাটিন কম্পিউটার শপ, সিরাজগঞ্জ জেলা, রাজশাহী বিভাগ, বাংলাদেশ",,বাংলাদেশ,রাজশাহী বিভাগ,admin2,boundaries,['computer'],[],Bangladesh,Rajshahi,Sirajganj,Belkuchi,Bhangabari,2afa2715215fb395e3b5783ecc5c7b3f
5218161272.0,893cf508e9bffff,24.4687739,89.2876495,"বারুহাস বাজার,জামে মসজিদ",,"Baruhas Bazar Jame Mosque, Tarash, Sirajganj District, Rajshahi Division, Bangladesh","বারুহাস বাজার জামে মসজিদ, সিরাজগঞ্জ জেলা, রাজশাহী বিভাগ, বাংলাদেশ",Tarash,বাংলাদেশ,রাজশাহী বিভাগ,local_admin,boundaries,['place_of_worship_muslim'],[],Bangladesh,Rajshahi,Sirajganj,Tarash,Baruhas,d9ee12a0a684d2a472fd3d2ecf300b15
10013284043.0,893cf564553ffff,24.3229146,89.6745915,Jahurul Veterinary,,"Jahurul Veterinary, Sirajganj District, Rajshahi Division, Bangladesh","জাহুরুল ভেটেরিনারি, সিরাজগঞ্জ জেলা, রাজশাহী বিভাগ, বাংলাদেশ",,বাংলাদেশ,রাজশাহী বিভাগ,admin2,boundaries,['veterinary'],[],Bangladesh,Rajshahi,Sirajganj,Belkuchi,Bhangabari,2afa2715215fb395e3b5783ecc5c7b3f
5218162365.0,893cf508e9bffff,24.467966,89.287514,বারুহাস সর. প্রাথঃ বিদ্যালয়,,"Charm.In the school, Tarash, Sirajganj District, Rajshahi Division, Bangladesh","বারুহাস সর. প্রাথঃ বিদ্যালয়, সিরাজগঞ্জ জেলা, রাজশাহী বিভাগ, বাংলাদেশ",Tarash,বাংলাদেশ,রাজশাহী বিভাগ,local_admin,boundaries,['school'],[],Bangladesh,Rajshahi,Sirajganj,Tarash,Baruhas,d9ee12a0a684d2a472fd3d2ecf300b15
10015665844.0,893cf564553ffff,24.322368,89.6741496,Sraboni Store,,"Sraboni Store, Sirajganj District, Rajshahi Division, Bangladesh","শ্রাবনি স্টোর, সিরাজগঞ্জ জেলা, রাজশাহী বিভাগ, বাংলাদেশ",,বাংলাদেশ,রাজশাহী বিভাগ,admin2,boundaries,['variety_store'],[],Bangladesh,Rajshahi,Sirajganj,Belkuchi,Bhangabari,2afa2715215fb395e3b5783ecc5c7b3f
5218165065.0,893cf508e9bffff,24.4680225,89.2877773,বারুহাস ইউনিয়ন পরিষদ ভবন,,"Baruhas Union Council Building, Tarash, Sirajganj District, Rajshahi Division, Bangladesh","বারুহাস ইউনিয়ন পরিষদ ভবন, সিরাজগঞ্জ জেলা, রাজশাহী বিভাগ, বাংলাদেশ",Tarash,বাংলাদেশ,রাজশাহী বিভাগ,local_admin,boundaries,['government'],[],Bangladesh,Rajshahi,Sirajganj,Tarash,Baruhas,d9ee12a0a684d2a472fd3d2ecf300b15
10015689573.0,893cf564553ffff,24.3223866,89.6740079,Manik Saloon,,"Manik Saloon, Sirajganj District, Rajshahi Division, Bangladesh","মানিক সেলুন, সিরাজগঞ্জ জেলা, রাজশাহী বিভাগ, বাংলাদেশ",,বাংলাদেশ,রাজশাহী বিভাগ,admin2,boundaries,['hairdresser'],[],Bangladesh,Rajshahi,Sirajganj,Belkuchi,Bhangabari,2afa2715215fb395e3b5783ecc5c7b3f
5218168796.0,893cf508e93ffff,24.4700031,89.288649,"পোস্ট অফিস ,বারুহাস",,"Post Office Buruhas, Tarash, Sirajganj District, Rajshahi Division, Bangladesh","পোস্ট অফিস বারুহাস, সিরাজগঞ্জ জেলা, রাজশাহী বিভাগ, বাংলাদেশ",Tarash,বাংলাদেশ,রাজশাহী বিভাগ,local_admin,boundaries,['post_office'],[],Bangladesh,Rajshahi,Sirajganj,Tarash,Baruhas,d9ee12a0a684d2a472fd3d2ecf300b15
5218174514.0,893cf508e83ffff,24.4673661,89.2890183,পূর্ব পাড়া মসজিদ,,"East Para Mosque, Tarash, Sirajganj District, Rajshahi Division, Bangladesh","পূর্ব পাড়া মসজিদ, সিরাজগঞ্জ জেলা, রাজশাহী বিভাগ, বাংলাদেশ",Tarash,বাংলাদেশ,রাজশাহী বিভাগ,local_admin,boundaries,['place_of_worship_muslim'],[],Bangladesh,Rajshahi,Sirajganj,Tarash,Baruhas,d9ee12a0a684d2a472fd3d2ecf300b15
993386128.0,893cf50dd9bffff,24.49455304,89.45187112,,,"Raiganj, Sirajganj District, Rajshahi Division, Bangladesh","সিরাজগঞ্জ জেলা, রাজশাহী বিভাগ, বাংলাদেশ",Raiganj,বাংলাদেশ,রাজশাহী বিভাগ,local_admin,boundaries,['archaeological_site'],[],Bangladesh,Rajshahi,Sirajganj,Royganj,Sonakhara,94fde6c96fc50cb2633aec66046bcd00
10018449800.0,893cf564553ffff,24.322066,89.6741053,Shasul Mia Tea Stall,,"Shasul Mia Tea Stall, Sirajganj District, Rajshahi Division, Bangladesh","শাসুল মিয়া চা স্টল, সিরাজগঞ্জ জেলা, রাজশাহী বিভাগ, বাংলাদেশ",,বাংলাদেশ,রাজশাহী বিভাগ,admin2,boundaries,['tea'],[],Bangladesh,Rajshahi,Sirajganj,Belkuchi,Bhangabari,2afa2715215fb395e3b5783ecc5c7b3f
10021300279.0,893cf564553ffff,24.3223504,89.6740248,Razzak Tea Stall,,"Razzak Tea Stall, Sirajganj District, Rajshahi Division, Bangladesh","রাজ্জাক চা স্টল, সিরাজগঞ্জ জেলা, রাজশাহী বিভাগ, বাংলাদেশ",,বাংলাদেশ,রাজশাহী বিভাগ,admin2,boundaries,['tea'],[],Bangladesh,Rajshahi,Sirajganj,Belkuchi,Bhangabari,2afa2715215fb395e3b5783ecc5c7b3f
5218299287.0,893cf509953ffff,24.4181772,89.2992495,কুন্দইল বাজার,,"Kundail Market, Tarash, Sirajganj District, Rajshahi Division, Bangladesh","কুন্দইল বাজার, সিরাজগঞ্জ জেলা, রাজশাহী বিভাগ, বাংলাদেশ",Tarash,বাংলাদেশ,রাজশাহী বিভাগ,local_admin,boundaries,['marketplace'],[],Bangladesh,Rajshahi,Sirajganj,Tarash,Saguna,7ff9d048a9724515b7051b5a85ee518c
10021319834.0,893cf564553ffff,24.3223509,89.6740718,Shahidul Pharmacy,,"Shahidul Pharmacy, Sirajganj District, Rajshahi Division, Bangladesh","শহিদুল ফার্মাসি, সিরাজগঞ্জ জেলা, রাজশাহী বিভাগ, বাংলাদেশ",,বাংলাদেশ,রাজশাহী বিভাগ,admin2,boundaries,['pharmacy'],[],Bangladesh,Rajshahi,Sirajganj,Belkuchi,Bhangabari,2afa2715215fb395e3b5783ecc5c7b3f
10086857106.0,893cf564317ffff,24.2934702,89.697295,Zenin Bus Counter,,"Zenin Bus Counter, Sirajganj District, Rajshahi Division, Bangladesh","জেনিন বাস কাউন্টার, সিরাজগঞ্জ জেলা, রাজশাহী বিভাগ, বাংলাদেশ",,বাংলাদেশ,রাজশাহী বিভাগ,admin2,boundaries,['ticket'],[],Bangladesh,Rajshahi,Sirajganj,Belkuchi,BelkuchiPaurashava,fc9d7a134413044d37c74faad674bb7d
5218412263.0,893cf508e93ffff,24.4709414,89.2890316,দরগা বাজার,,"Dargah Market, Tarash, Sirajganj District, Rajshahi Division, Bangladesh","দরগা বাজার, সিরাজগঞ্জ জেলা, রাজশাহী বিভাগ, বাংলাদেশ",Tarash,বাংলাদেশ,রাজশাহী বিভাগ,local_admin,boundaries,['marketplace'],[],Bangladesh,Rajshahi,Sirajganj,Tarash,Baruhas,d9ee12a0a684d2a472fd3d2ecf300b15
10086945658.0,893cf564317ffff,24.2933903,89.6972992,SI Bus Counter,,"SI Bus Counter, Sirajganj District, Rajshahi Division, Bangladesh","সি বাস কাউন্টার, সিরাজগঞ্জ জেলা, রাজশাহী বিভাগ, বাংলাদেশ",,বাংলাদেশ,রাজশাহী বিভাগ,admin2,boundaries,['ticket'],[],Bangladesh,Rajshahi,Sirajganj,Belkuchi,BelkuchiPaurashava,fc9d7a134413044d37c74faad674bb7d
210993438.0,893cf52b313ffff,24.4476257,89.66988392,Sirajganj,,"Sirajganj, Sirajganj District, Rajshahi Division, Bangladesh","সিরাজগঞ্জ, সিরাজগঞ্জ জেলা, রাজশাহী বিভাগ, বাংলাদেশ",,বাংলাদেশ,রাজশাহী বিভাগ,admin2,boundaries,['substation'],[],Bangladesh,Rajshahi,Sirajganj,SirajganjSadar,Shialkul,e12a4a2e7cd4b17f2d7e0616642c8822
239570741.0,893cf530357ffff,24.6977104,89.64833081,,,"Kazipur, Sirajganj District, Rajshahi Division, Bangladesh","সিরাজগঞ্জ জেলা, রাজশাহী বিভাগ, বাংলাদেশ",Kazipur,বাংলাদেশ,রাজশাহী বিভাগ,local_admin,boundaries,['island'],[],Bangladesh,Rajshahi,Sirajganj,Kazipur,Maijbari,b39f8877a448b80b4be9c6bf94968b40
239570754.0,893cf5389a3ffff,24.57829609,89.69007658,,,"Sirajganj District, Rajshahi Division, Bangladesh","সিরাজগঞ্জ জেলা, রাজশাহী বিভাগ, বাংলাদেশ",,বাংলাদেশ,রাজশাহী বিভাগ,admin2,boundaries,['island'],[],Bangladesh,Rajshahi,Sirajganj,Kazipur,Subhagachha,0d10e18972202da2b025cc1d83536262
239570761.0,893cf532957ffff,24.77165135,89.69093377,,,"Kazipur, Sirajganj District, Rajshahi Division, Bangladesh","সিরাজগঞ্জ জেলা, রাজশাহী বিভাগ, বাংলাদেশ",Kazipur,বাংলাদেশ,রাজশাহী বিভাগ,local_admin,boundaries,['island'],[],Bangladesh,Rajshahi,Sirajganj,Kazipur,KhasRajbari,fc648aee0b4891e6c6ae1aaed949674e
239570767.0,893cf52354fffff,24.62621682,89.69795833,,,"Kazipur, Sirajganj District, Rajshahi Division, Bangladesh","সিরাজগঞ্জ জেলা, রাজশাহী বিভাগ, বাংলাদেশ",Kazipur,বাংলাদেশ,রাজশাহী বিভাগ,local_admin,boundaries,['island'],[],Bangladesh,Rajshahi,Sirajganj,Kazipur,Tekani,acda5d4d2561797bc80ecb17acdcecf5
5222010345.0,893cf508e93ffff,24.4698225,89.2880816,"বারুহাস,কমিউনিটি হাসপাতাল",,"Baruhas Community Hospital, Tarash, Sirajganj District, Rajshahi Division, Bangladesh","বারুহাস কমিউনিটি হাসপাতাল, সিরাজগঞ্জ জেলা, রাজশাহী বিভাগ, বাংলাদেশ",Tarash,বাংলাদেশ,রাজশাহী বিভাগ,local_admin,boundaries,['hospital'],[],Bangladesh,Rajshahi,Sirajganj,Tarash,Baruhas,d9ee12a0a684d2a472fd3d2ecf300b15
4523645132.0,893cf56e273ffff,24.1760415,89.5974757,,['Prottasha Diagnostic Centre'],,,Shahjadpur,বাংলাদেশ,রাজশাহী বিভাগ,housenumber,sameSource,['clinic'],[],Bangladesh,Rajshahi,Sirajganj,Shahjadpur,ShahjadpurPaurashava,016f08061f51ea5471b86a38b4e6867e
4546131808.0,893cf5740a3ffff,24.4185843,89.5558524,সিটি ব্যাংক,['City Bank'],"City Bank, Ullapara, Sirajganj District, Rajshahi Division, Bangladesh","সিটি ব্যাংক, সিরাজগঞ্জ জেলা, রাজশাহী বিভাগ, বাংলাদেশ",Ullapara,বাংলাদেশ,রাজশাহী বিভাগ,local_admin,boundaries,['atm'],[],Bangladesh,Rajshahi,Sirajganj,UllahPara,Hatikumrul,844e2a2ccf219e6b03ac136f31195f7b
329181854.0,893cf564093ffff,24.31548696,89.67116003,,,"Sirajganj District, Rajshahi Division, Bangladesh","সিরাজগঞ্জ জেলা, রাজশাহী বিভাগ, বাংলাদেশ",,বাংলাদেশ,রাজশাহী বিভাগ,admin2,boundaries,['cemetery'],[],Bangladesh,Rajshahi,Sirajganj,Belkuchi,Bhangabari,2afa2715215fb395e3b5783ecc5c7b3f
371445460.0,893cf52864bffff,24.44193383,89.69053567,,,,,,বাংলাদেশ,রাজশাহী বিভাগ,housenumber,contains,['playground'],[],Bangladesh,Rajshahi,Sirajganj,SirajganjSadar,KaliaHaripur,36301006366e9204060f3328112ba6aa
4712489693.0,893cf562903ffff,24.3143996,89.5667375,,['Home'],"Ullapara, Sirajganj District, Rajshahi Division, Bangladesh","সিরাজগঞ্জ জেলা, রাজশাহী বিভাগ, বাংলাদেশ",Ullapara,বাংলাদেশ,রাজশাহী বিভাগ,local_admin,boundaries,['artwork'],[],Bangladesh,Rajshahi,Sirajganj,UllahPara,UllahParaPaurashava,7165eecb33db02d0efc18958bb92863f
280305343.0,893cf570c8bffff,24.380433658199635,89.42182388894565,Dhaka - Rajshahi Hwy,,"Dhaka - Rajshahi Hwy, Tarash, Sirajganj District, Rajshahi Division, Bangladesh","Dhaka াকা - রাজশাহী হুই, সিরাজগঞ্জ জেলা, রাজশাহী বিভাগ, বাংলাদেশ",Tarash,বাংলাদেশ,রাজশাহী বিভাগ,street,,,,Bangladesh,Rajshahi,Sirajganj,Tarash,Naogaon,3f944b56a39bebffff5b45f40b61e7df
280305343.0,893cf570c8bffff,24.380433658199635,89.42182388894565,Dhaka - Rajshahi Hwy,,"Dhaka - Rajshahi Hwy, Ullapara, Sirajganj District, Rajshahi Division, Bangladesh","Dhaka াকা - রাজশাহী হুই, সিরাজগঞ্জ জেলা, রাজশাহী বিভাগ, বাংলাদেশ",Ullapara,বাংলাদেশ,রাজশাহী বিভাগ,street,,,,Bangladesh,Rajshahi,Sirajganj,Tarash,Naogaon,3f944b56a39bebffff5b45f40b61e7df
4820139622.0,893cf53b663ffff,24.5502881,89.5059979,,['Shikder Filling Station'],"Raiganj, Sirajganj District, Rajshahi Division, Bangladesh","সিরাজগঞ্জ জেলা, রাজশাহী বিভাগ, বাংলাদেশ",Raiganj,বাংলাদেশ,রাজশাহী বিভাগ,local_admin,boundaries,['fuel'],[],Bangladesh,Rajshahi,Sirajganj,Royganj,Chandaikona,45bd97eb56a0d9801d9c91657a3d4043
4894961940.0,893cf53961bffff,24.5065261,89.5272173,Raiganj Bazar,['রায়গঞ্জ বাজার'],"Raiganj Bazar, Raiganj, Sirajganj District, Rajshahi Division, Bangladesh","রায়গঞ্জ বাজার, সিরাজগঞ্জ জেলা, রাজশাহী বিভাগ, বাংলাদেশ",Raiganj,বাংলাদেশ,রাজশাহী বিভাগ,local_admin,boundaries,['marketplace'],[],Bangladesh,Rajshahi,Sirajganj,Royganj,RoyganjPaurashava,02c14be100c36d839885ee4b107e67ad
5123750525.0,893cf574c1bffff,24.42291,89.5961349,Nalka Bus Stand,,"Nalka Bus Stand, Sirajganj District, Rajshahi Division, Bangladesh","নালকা বাস স্ট্যান্ড, সিরাজগঞ্জ জেলা, রাজশাহী বিভাগ, বাংলাদেশ",,বাংলাদেশ,রাজশাহী বিভাগ,street,boundaries,['bus_stop'],[],Bangladesh,Rajshahi,Sirajganj,Royganj,Nalka,2d6ca154e06d44a419404e821fbf0bac
5123794133.0,893cf57418fffff,24.422626,89.5731763,Pachlia Bazar,,"Pachlia Bazar, Ullapara, Sirajganj District, Rajshahi Division, Bangladesh","পাচলিয়া বাজার, সিরাজগঞ্জ জেলা, রাজশাহী বিভাগ, বাংলাদেশ",Ullapara,বাংলাদেশ,রাজশাহী বিভাগ,local_admin,boundaries,['marketplace'],[],Bangladesh,Rajshahi,Sirajganj,UllahPara,Hatikumrul,844e2a2ccf219e6b03ac136f31195f7b
5123795063.0,893cf5740a7ffff,24.4202115,89.5590208,Momotaz Filling Station,,"Momotaz Filling Station, Ullapara, Sirajganj District, Rajshahi Division, Bangladesh","মোমোটাজ ফিলিং স্টেশন, সিরাজগঞ্জ জেলা, রাজশাহী বিভাগ, বাংলাদেশ",Ullapara,বাংলাদেশ,রাজশাহী বিভাগ,local_admin,boundaries,['fuel'],[],Bangladesh,Rajshahi,Sirajganj,UllahPara,Hatikumrul,844e2a2ccf219e6b03ac136f31195f7b
5123954546.0,893cf5740a3ffff,24.4197791,89.5539745,New Night Angel Hotel& Restureant,,"New Night Angel Hotel& Restureant, Ullapara, Sirajganj District, Rajshahi Division, Bangladesh","নতুন নাইট অ্যাঞ্জেল হোটেল ও রেস্তোঁরা, সিরাজগঞ্জ জেলা, রাজশাহী বিভাগ, বাংলাদেশ",Ullapara,বাংলাদেশ,রাজশাহী বিভাগ,local_admin,boundaries,['restaurant'],[],Bangladesh,Rajshahi,Sirajganj,UllahPara,Hatikumrul,844e2a2ccf219e6b03ac136f31195f7b
5123958221.0,893cf5740b3ffff,24.4191764,89.5517463,Sirajganj Moar,['সিরাজগঞ্জ রোড চৌরাস্তা'],"Sirajganj Moar, Ullapara, Sirajganj District, Rajshahi Division, Bangladesh","সিরাজগঞ্জ মোয়ার, সিরাজগঞ্জ জেলা, রাজশাহী বিভাগ, বাংলাদেশ",Ullapara,বাংলাদেশ,রাজশাহী বিভাগ,local_admin,boundaries,['memorial'],[],Bangladesh,Rajshahi,Sirajganj,UllahPara,Hatikumrul,844e2a2ccf219e6b03ac136f31195f7b
5123959174.0,893cf5740bbffff,24.4185251,89.5515855,Mondol Complex মন্ডল কমপ্লেক্স,,"Mondol Complex, Ullapara, Sirajganj District, Rajshahi Division, Bangladesh","মন্ডল কমপ্লেক্স, সিরাজগঞ্জ জেলা, রাজশাহী বিভাগ, বাংলাদেশ",Ullapara,বাংলাদেশ,রাজশাহী বিভাগ,local_admin,boundaries,['marketplace'],[],Bangladesh,Rajshahi,Sirajganj,UllahPara,Hatikumrul,844e2a2ccf219e6b03ac136f31195f7b
255660344.0,893cf572937ffff,24.42335772474888,89.4503158436323,Tarash - Salanga Road,,"Tarash - Salanga Road, Tarash, Sirajganj District, Rajshahi Division, Bangladesh","তারাশ - সালঙ্গা রোড, সিরাজগঞ্জ জেলা, রাজশাহী বিভাগ, বাংলাদেশ",Tarash,বাংলাদেশ,রাজশাহী বিভাগ,street,,,,Bangladesh,Rajshahi,Sirajganj,Royganj,Dhubil,aff40827ac030c7dca2860b9d507ccec
255660344.0,893cf572937ffff,24.42335772474888,89.4503158436323,Tarash - Salanga Road,,"Tarash - Salanga Road, Ullapara, Sirajganj District, Rajshahi Division, Bangladesh","তারাশ - সালঙ্গা রোড, সিরাজগঞ্জ জেলা, রাজশাহী বিভাগ, বাংলাদেশ",Ullapara,বাংলাদেশ,রাজশাহী বিভাগ,street,,,,Bangladesh,Rajshahi,Sirajganj,Royganj,Dhubil,aff40827ac030c7dca2860b9d507ccec
5123960409.0,893cf574087ffff,24.4190184,89.5504456,Pondit Complex পন্ডিত কমপ্লেক্স,,"Pondit Complex, Ullapara, Sirajganj District, Rajshahi Division, Bangladesh","পন্ডিত কমপ্লেক্স, সিরাজগঞ্জ জেলা, রাজশাহী বিভাগ, বাংলাদেশ",Ullapara,বাংলাদেশ,রাজশাহী বিভাগ,local_admin,boundaries,['marketplace'],[],Bangladesh,Rajshahi,Sirajganj,UllahPara,Hatikumrul,844e2a2ccf219e6b03ac136f31195f7b
255659668.0,893cf50d307ffff,24.452518774746043,89.40655229301285,Tarash - Bhuiyagati Road,,"Tarash - Bhuiyagati Road, Tarash, Sirajganj District, Rajshahi Division, Bangladesh","তারাশ - ভুইয়াগতী রোড, সিরাজগঞ্জ জেলা, রাজশাহী বিভাগ, বাংলাদেশ",Tarash,বাংলাদেশ,রাজশাহী বিভাগ,street,,,,Bangladesh,Rajshahi,Sirajganj,Tarash,Madhainagar,bc685274a8954c7b08f5324e9ffc184f
5123960943.0,893cf5740bbffff,24.4187131,89.5509203,Siddikia Super Markek,,"Siddikia Super Markek, Ullapara, Sirajganj District, Rajshahi Division, Bangladesh","সিদ্দিয়া সুপার মার্কেট, সিরাজগঞ্জ জেলা, রাজশাহী বিভাগ, বাংলাদেশ",Ullapara,বাংলাদেশ,রাজশাহী বিভাগ,local_admin,boundaries,['marketplace'],[],Bangladesh,Rajshahi,Sirajganj,UllahPara,Hatikumrul,844e2a2ccf219e6b03ac136f31195f7b
5147106004.0,893cf53b673ffff,24.5543725,89.504702,Pabna Bazar পাবনা বাজার,,"Pabna Bazar, Raiganj, Sirajganj District, Rajshahi Division, Bangladesh","পাবনা বাজার, সিরাজগঞ্জ জেলা, রাজশাহী বিভাগ, বাংলাদেশ",Raiganj,বাংলাদেশ,রাজশাহী বিভাগ,local_admin,boundaries,['marketplace'],[],Bangladesh,Rajshahi,Sirajganj,Royganj,Chandaikona,45bd97eb56a0d9801d9c91657a3d4043
5147108053.0,893cf53b673ffff,24.5540259,89.5035243,সোস্যাল ইসলামী ব্যাংক লিমিটেড,['Social Islami Bank Limited'],"Social Islamic Bank Limited, Raiganj, Sirajganj District, Rajshahi Division, Bangladesh","সোস্যাল ইসলামী ব্যাংক লিমিটেড, সিরাজগঞ্জ জেলা, রাজশাহী বিভাগ, বাংলাদেশ",Raiganj,বাংলাদেশ,রাজশাহী বিভাগ,local_admin,boundaries,['bank'],[],Bangladesh,Rajshahi,Sirajganj,Royganj,Chandaikona,45bd97eb56a0d9801d9c91657a3d4043
5147108138.0,893cf53b677ffff,24.5538181,89.5052345,অগ্রনী ব্যাংক লিমিটেড,['Agrani Bank Limited'],"Agrani Bank Limited, Raiganj, Sirajganj District, Rajshahi Division, Bangladesh","অগ্রনী ব্যাংক লিমিটেড, সিরাজগঞ্জ জেলা, রাজশাহী বিভাগ, বাংলাদেশ",Raiganj,বাংলাদেশ,রাজশাহী বিভাগ,local_admin,boundaries,['bank'],[],Bangladesh,Rajshahi,Sirajganj,Royganj,Chandaikona,45bd97eb56a0d9801d9c91657a3d4043
5147108314.0,893cf53b673ffff,24.5534402,89.504395,সোনালি ব্যাংক লিমিটেড,['Sonali Bank Limited'],"Sonali Bank Limited, Raiganj, Sirajganj District, Rajshahi Division, Bangladesh","সোনালি ব্যাংক লিমিটেড, সিরাজগঞ্জ জেলা, রাজশাহী বিভাগ, বাংলাদেশ",Raiganj,বাংলাদেশ,রাজশাহী বিভাগ,local_admin,boundaries,['bank'],[],Bangladesh,Rajshahi,Sirajganj,Royganj,Chandaikona,45bd97eb56a0d9801d9c91657a3d4043
5147110448.0,893cf53b677ffff,24.5539779,89.5053177,ডাচ-বাংলা ব্যাংক এজেন্ট অফিস,['Dutch-Bangla Bank Agent Office'],"Dutch-Bangla Bank Agent Office, Raiganj, Sirajganj District, Rajshahi Division, Bangladesh","ডাচ-বাংলা ব্যাংক এজেন্ট অফিস, সিরাজগঞ্জ জেলা, রাজশাহী বিভাগ, বাংলাদেশ",Raiganj,বাংলাদেশ,রাজশাহী বিভাগ,local_admin,boundaries,['bank'],[],Bangladesh,Rajshahi,Sirajganj,Royganj,Chandaikona,45bd97eb56a0d9801d9c91657a3d4043
5147116733.0,893cf53b673ffff,24.5530805,89.5037541,"Bismillah Varaiti store, M'K",,"Bismillah Varaiti store M'K, Raiganj, Sirajganj District, Rajshahi Division, Bangladesh","বিসমিল্লাহ বরীত স্টোর এম'কে, সিরাজগঞ্জ জেলা, রাজশাহী বিভাগ, বাংলাদেশ",Raiganj,বাংলাদেশ,রাজশাহী বিভাগ,local_admin,boundaries,['restaurant'],[],Bangladesh,Rajshahi,Sirajganj,Royganj,Chandaikona,45bd97eb56a0d9801d9c91657a3d4043
5147129854.0,893cf50cb73ffff,24.4943087,89.5078878,Bhuiyagati Bus Stop,,"Bhuiyagati Bus Stop, Raiganj, Sirajganj District, Rajshahi Division, Bangladesh","ভুইয়াগতী বাস স্টপ, সিরাজগঞ্জ জেলা, রাজশাহী বিভাগ, বাংলাদেশ",Raiganj,বাংলাদেশ,রাজশাহী বিভাগ,street,boundaries,['bus_stop'],[],Bangladesh,Rajshahi,Sirajganj,Royganj,Ghurka,51d947b454e32f04a80430d4a26291ee
5147136964.0,893cf5761dbffff,24.4689844,89.5317132,Ghurka Beltola Bazar,,"Ghurka Beltola Bazar, Raiganj, Sirajganj District, Rajshahi Division, Bangladesh","ঘুরকা বেল্টোলা বাজার, সিরাজগঞ্জ জেলা, রাজশাহী বিভাগ, বাংলাদেশ",Raiganj,বাংলাদেশ,রাজশাহী বিভাগ,local_admin,boundaries,['marketplace'],[],Bangladesh,Rajshahi,Sirajganj,Royganj,Ghurka,51d947b454e32f04a80430d4a26291ee
5147151948.0,893cf5740b3ffff,24.4203218,89.5510997,Hotel Romar,,"Hotel Romar, Ullapara, Sirajganj District, Rajshahi Division, Bangladesh","হোটেল রোমার, সিরাজগঞ্জ জেলা, রাজশাহী বিভাগ, বাংলাদেশ",Ullapara,বাংলাদেশ,রাজশাহী বিভাগ,local_admin,boundaries,['restaurant'],[],Bangladesh,Rajshahi,Sirajganj,UllahPara,Hatikumrul,844e2a2ccf219e6b03ac136f31195f7b
5147168025.0,893cf5751a7ffff,24.3762296,89.5453535,Boalia Bazar বোয়ালিয়া বাজার,,"Boalia Bazar, Ullapara, Sirajganj District, Rajshahi Division, Bangladesh","বোয়ালিয়া বাজার, সিরাজগঞ্জ জেলা, রাজশাহী বিভাগ, বাংলাদেশ",Ullapara,বাংলাদেশ,রাজশাহী বিভাগ,local_admin,boundaries,['marketplace'],[],Bangladesh,Rajshahi,Sirajganj,UllahPara,Hatikumrul,844e2a2ccf219e6b03ac136f31195f7b
5147172923.0,893cf5751a7ffff,24.3760773,89.5461585,Boilla Bus Stop বোয়ালিয়া,,"Boilla Bus Stop, Ullapara, Sirajganj District, Rajshahi Division, Bangladesh","বোয়ালিয়া, সিরাজগঞ্জ জেলা, রাজশাহী বিভাগ, বাংলাদেশ",Ullapara,বাংলাদেশ,রাজশাহী বিভাগ,street,boundaries,['bus_stop'],[],Bangladesh,Rajshahi,Sirajganj,UllahPara,Hatikumrul,844e2a2ccf219e6b03ac136f31195f7b
5147174922.0,893cf5751a7ffff,24.3755074,89.545999,Sheikh Clothing Distribution,,"Sheikh Clothing Distribution, Ullapara, Sirajganj District, Rajshahi Division, Bangladesh","শেখ পোশাক বিতরণ, সিরাজগঞ্জ জেলা, রাজশাহী বিভাগ, বাংলাদেশ",Ullapara,বাংলাদেশ,রাজশাহী বিভাগ,local_admin,boundaries,['clothes'],[],Bangladesh,Rajshahi,Sirajganj,UllahPara,Hatikumrul,844e2a2ccf219e6b03ac136f31195f7b
5147175965.0,893cf5751a7ffff,24.3753623,89.5462362,Rupali Bank Limited,,"Rupali Bank Limited, Ullapara, Sirajganj District, Rajshahi Division, Bangladesh","রুপালি ব্যাংক লিমিটেড, সিরাজগঞ্জ জেলা, রাজশাহী বিভাগ, বাংলাদেশ",Ullapara,বাংলাদেশ,রাজশাহী বিভাগ,local_admin,boundaries,['bank'],[],Bangladesh,Rajshahi,Sirajganj,UllahPara,Hatikumrul,844e2a2ccf219e6b03ac136f31195f7b
5147183873.0,893cf575e73ffff,24.3472348,89.5582744,Pubadeluya Bus Stop পূবদেলুয়া,,"Pubadeluya Bus Stop, Ullapara, Sirajganj District, Rajshahi Division, Bangladesh","পূবদেলুয়া, সিরাজগঞ্জ জেলা, রাজশাহী বিভাগ, বাংলাদেশ",Ullapara,বাংলাদেশ,রাজশাহী বিভাগ,street,boundaries,['bus_stop'],[],Bangladesh,Rajshahi,Sirajganj,UllahPara,Barahar,b412a1c869a2a3d394e22583453da980
5147188889.0,893cf575e8fffff,24.3567062,89.5553211,ভ্রম্মকোপালিয়া,,"Misdemeanor, Ullapara, Sirajganj District, Rajshahi Division, Bangladesh","ভ্রম্মকোপালিয়া, সিরাজগঞ্জ জেলা, রাজশাহী বিভাগ, বাংলাদেশ",Ullapara,বাংলাদেশ,রাজশাহী বিভাগ,street,boundaries,['bus_stop'],[],Bangladesh,Rajshahi,Sirajganj,UllahPara,Barahar,b412a1c869a2a3d394e22583453da980
5147190624.0,893cf575e73ffff,24.3476182,89.5573269,Jame Mosque,,"Jame Mosque, Ullapara, Sirajganj District, Rajshahi Division, Bangladesh","জামে মসজিদ, সিরাজগঞ্জ জেলা, রাজশাহী বিভাগ, বাংলাদেশ",Ullapara,বাংলাদেশ,রাজশাহী বিভাগ,local_admin,boundaries,['place_of_worship_muslim'],[],Bangladesh,Rajshahi,Sirajganj,UllahPara,Barahar,b412a1c869a2a3d394e22583453da980
5147201272.0,893cf575e67ffff,24.3454113,89.5612974,Bhutagacha Bus Stop ভুতগাছা,,"Bhutagacha Bus Stop, Ullapara, Sirajganj District, Rajshahi Division, Bangladesh","ভুতগাছা, সিরাজগঞ্জ জেলা, রাজশাহী বিভাগ, বাংলাদেশ",Ullapara,বাংলাদেশ,রাজশাহী বিভাগ,street,boundaries,['bus_stop'],[],Bangladesh,Rajshahi,Sirajganj,UllahPara,Barahar,b412a1c869a2a3d394e22583453da980
5148917010.0,893cf562997ffff,24.3253499,89.5623424,Sreekola Bus Stop শ্রীকোলা,,"Sreekola Bus Stop, Ullapara, Sirajganj District, Rajshahi Division, Bangladesh","শ্রীকোলা, সিরাজগঞ্জ জেলা, রাজশাহী বিভাগ, বাংলাদেশ",Ullapara,বাংলাদেশ,রাজশাহী বিভাগ,street,boundaries,['bus_stop'],[],Bangladesh,Rajshahi,Sirajganj,UllahPara,UllahParaPaurashava,7165eecb33db02d0efc18958bb92863f
5148918383.0,893cf562997ffff,24.3248703,89.5624479,,,"Ullapara, Sirajganj District, Rajshahi Division, Bangladesh","সিরাজগঞ্জ জেলা, রাজশাহী বিভাগ, বাংলাদেশ",Ullapara,বাংলাদেশ,রাজশাহী বিভাগ,local_admin,boundaries,['toilets'],[],Bangladesh,Rajshahi,Sirajganj,UllahPara,UllahParaPaurashava,7165eecb33db02d0efc18958bb92863f
5148923401.0,893cf56294fffff,24.3060086,89.5646125,Khaja Pharmacy খাজা ফার্মেসী,,"Khaja Pharmacy, Ullapara, Sirajganj District, Rajshahi Division, Bangladesh","খাজা ফার্মেসী, সিরাজগঞ্জ জেলা, রাজশাহী বিভাগ, বাংলাদেশ",Ullapara,বাংলাদেশ,রাজশাহী বিভাগ,local_admin,boundaries,['pharmacy'],[],Bangladesh,Rajshahi,Sirajganj,UllahPara,UllahParaPaurashava,7165eecb33db02d0efc18958bb92863f
5148923563.0,893cf56294fffff,24.3048853,89.5651176,Kawack,,"Kawack, Ullapara, Sirajganj District, Rajshahi Division, Bangladesh","কাও্যাক, সিরাজগঞ্জ জেলা, রাজশাহী বিভাগ, বাংলাদেশ",Ullapara,বাংলাদেশ,রাজশাহী বিভাগ,street,boundaries,['bus_stop'],[],Bangladesh,Rajshahi,Sirajganj,UllahPara,UllahParaPaurashava,7165eecb33db02d0efc18958bb92863f
5148932811.0,893cf562b2fffff,24.2900596,89.5744415,Ullapara RS Bus Stop,,"Ullapara RS Bus Stop, Ullapara, Sirajganj District, Rajshahi Division, Bangladesh","উলাপারা আরএস বাস স্টপ, সিরাজগঞ্জ জেলা, রাজশাহী বিভাগ, বাংলাদেশ",Ullapara,বাংলাদেশ,রাজশাহী বিভাগ,street,boundaries,['bus_stop'],[],Bangladesh,Rajshahi,Sirajganj,UllahPara,Durganagar,3a337b9c8f2d9fd320e2436fc1279ab0
5148933219.0,893cf562b2fffff,24.2914153,89.5742254,Rail Gate রেল গেট,,"Rail Gate, Ullapara, Sirajganj District, Rajshahi Division, Bangladesh","রেল গেট, সিরাজগঞ্জ জেলা, রাজশাহী বিভাগ, বাংলাদেশ",Ullapara,বাংলাদেশ,রাজশাহী বিভাগ,street,boundaries,['bus_stop'],[],Bangladesh,Rajshahi,Sirajganj,UllahPara,Durganagar,3a337b9c8f2d9fd320e2436fc1279ab0
5148956622.0,893cf560d5bffff,24.2691229,89.5721441,Balshabari Bazar বালসাবাড়ী বাজার,,"Balshabari Bazar, Ullapara, Sirajganj District, Rajshahi Division, Bangladesh","বালসাবাড়ী বাজার, সিরাজগঞ্জ জেলা, রাজশাহী বিভাগ, বাংলাদেশ",Ullapara,বাংলাদেশ,রাজশাহী বিভাগ,local_admin,boundaries,['marketplace'],[],Bangladesh,Rajshahi,Sirajganj,UllahPara,Durganagar,3a337b9c8f2d9fd320e2436fc1279ab0
5148958157.0,893cf56087bffff,24.2480419,89.5749779,"Garadah Bus Station, গাড়াদহ বাস স্ট্যান্ড",,"Garadah Bus Station, Shahjadpur, Sirajganj District, Rajshahi Division, Bangladesh","গাড়াদহ বাস স্ট্যান্ড, সিরাজগঞ্জ জেলা, রাজশাহী বিভাগ, বাংলাদেশ",Shahjadpur,বাংলাদেশ,রাজশাহী বিভাগ,street,boundaries,['bus_stop'],[],Bangladesh,Rajshahi,Sirajganj,Shahjadpur,Garadaha,64ee03710cb18cb0a768415c61a80e84
5148958204.0,893cf56e4c3ffff,24.2184695,89.5756806,Moshipur Sorishakol Bus Stop,,"Moshipur Sorishakol Bus Stop, Shahjadpur, Sirajganj District, Rajshahi Division, Bangladesh","মোশিপুর সোরিশাকল বাস স্টপ, সিরাজগঞ্জ জেলা, রাজশাহী বিভাগ, বাংলাদেশ",Shahjadpur,বাংলাদেশ,রাজশাহী বিভাগ,street,boundaries,['bus_stop'],[],Bangladesh,Rajshahi,Sirajganj,Shahjadpur,Garadaha,64ee03710cb18cb0a768415c61a80e84
5148958526.0,893cf56e4c3ffff,24.2182233,89.5756347,Sumon Super Market সুমন সুপার মার্কেট,,"Sumon Super Market, Shahjadpur, Sirajganj District, Rajshahi Division, Bangladesh","সুমন সুপার মার্কেট, সিরাজগঞ্জ জেলা, রাজশাহী বিভাগ, বাংলাদেশ",Shahjadpur,বাংলাদেশ,রাজশাহী বিভাগ,local_admin,boundaries,['marketplace'],[],Bangladesh,Rajshahi,Sirajganj,Shahjadpur,Garadaha,64ee03710cb18cb0a768415c61a80e84
5148958773.0,893cf560ab7ffff,24.243026,89.5742344,Bokul Tola Bus Stop,,"Bokul Tola Bus Stop, Shahjadpur, Sirajganj District, Rajshahi Division, Bangladesh","বোকুল টোলা বাস স্টপ, সিরাজগঞ্জ জেলা, রাজশাহী বিভাগ, বাংলাদেশ",Shahjadpur,বাংলাদেশ,রাজশাহী বিভাগ,street,boundaries,['bus_stop'],[],Bangladesh,Rajshahi,Sirajganj,Shahjadpur,Garadaha,64ee03710cb18cb0a768415c61a80e84
5148959235.0,893cf560a33ffff,24.234402,89.5736069,Talgachi Bus Stop,,"Talgachi Bus Stop, Shahjadpur, Sirajganj District, Rajshahi Division, Bangladesh","তালগাচি বাস স্টপ, সিরাজগঞ্জ জেলা, রাজশাহী বিভাগ, বাংলাদেশ",Shahjadpur,বাংলাদেশ,রাজশাহী বিভাগ,street,boundaries,['bus_stop'],[],Bangladesh,Rajshahi,Sirajganj,Shahjadpur,Garadaha,64ee03710cb18cb0a768415c61a80e84
5916236089.0,893cf508e97ffff,24.4710419,89.2893251,বারুহাস বাসস্ট্যান্ড,,"Baruhas busstand, Tarash, Sirajganj District, Rajshahi Division, Bangladesh","বারুহাস বাসস্ট্যান্ড, সিরাজগঞ্জ জেলা, রাজশাহী বিভাগ, বাংলাদেশ",Tarash,বাংলাদেশ,রাজশাহী বিভাগ,street,boundaries,['bus_stop'],[],Bangladesh,Rajshahi,Sirajganj,Tarash,Baruhas,d9ee12a0a684d2a472fd3d2ecf300b15
5148960206.0,893cf56e4c3ffff,24.2172041,89.5761319,reen Signla Tower,,"reen Signla Tower, Shahjadpur, Sirajganj District, Rajshahi Division, Bangladesh","সবুজ সিগন্যাল টাওয়ার, সিরাজগঞ্জ জেলা, রাজশাহী বিভাগ, বাংলাদেশ",Shahjadpur,বাংলাদেশ,রাজশাহী বিভাগ,local_admin,boundaries,['marketplace'],[],Bangladesh,Rajshahi,Sirajganj,Shahjadpur,Garadaha,64ee03710cb18cb0a768415c61a80e84
5148966129.0,893cf56e62fffff,24.1955723,89.5924361,Parkola Bot-tola Bus Stop,,"Parkola Bot-tola Bus Stop, Shahjadpur, Sirajganj District, Rajshahi Division, Bangladesh","পার্কোলা বট-টোলা বাস স্টপ, সিরাজগঞ্জ জেলা, রাজশাহী বিভাগ, বাংলাদেশ",Shahjadpur,বাংলাদেশ,রাজশাহী বিভাগ,street,boundaries,['bus_stop'],[],Bangladesh,Rajshahi,Sirajganj,Shahjadpur,ShahjadpurPaurashava,016f08061f51ea5471b86a38b4e6867e
5148981628.0,893cf56e213ffff,24.1837384,89.594514,Shahzadpur Filling Point,,"Shahzadpur Filling Point, Shahjadpur, Sirajganj District, Rajshahi Division, Bangladesh","শাহজাদপুর ফিলিং পয়েন্ট, সিরাজগঞ্জ জেলা, রাজশাহী বিভাগ, বাংলাদেশ",Shahjadpur,বাংলাদেশ,রাজশাহী বিভাগ,local_admin,boundaries,['fuel'],[],Bangladesh,Rajshahi,Sirajganj,Shahjadpur,ShahjadpurPaurashava,016f08061f51ea5471b86a38b4e6867e
5942773278.0,893cf508e83ffff,24.4688093,89.2903814,বারুহাস ঈদগাহ মাঠ,,"Buruhas Eidgah Field, Tarash, Sirajganj District, Rajshahi Division, Bangladesh","বারুহাস ঈদগাহ মাঠ, সিরাজগঞ্জ জেলা, রাজশাহী বিভাগ, বাংলাদেশ",Tarash,বাংলাদেশ,রাজশাহী বিভাগ,local_admin,boundaries,['place_of_worship_muslim'],[],Bangladesh,Rajshahi,Sirajganj,Tarash,Baruhas,d9ee12a0a684d2a472fd3d2ecf300b15
5148982489.0,893cf56e213ffff,24.1831114,89.5942896,M/s. Hoque Brother's মাইক্রোসফট. হক ব্রাদার'স,,"M/s. Hoque Brother's, Shahjadpur, Sirajganj District, Rajshahi Division, Bangladesh","মাইক্রোসফট. হক ব্রাদার'স, সিরাজগঞ্জ জেলা, রাজশাহী বিভাগ, বাংলাদেশ",Shahjadpur,বাংলাদেশ,রাজশাহী বিভাগ,local_admin,boundaries,['pharmacy'],[],Bangladesh,Rajshahi,Sirajganj,Shahjadpur,ShahjadpurPaurashava,016f08061f51ea5471b86a38b4e6867e
5148982831.0,893cf56e213ffff,24.1835779,89.5946485,BISCIC Bus Stand বিসিক বাস স্টপ,,"BISCIC Bus Stand, Shahjadpur, Sirajganj District, Rajshahi Division, Bangladesh","বিসিক বাস স্টপ, সিরাজগঞ্জ জেলা, রাজশাহী বিভাগ, বাংলাদেশ",Shahjadpur,বাংলাদেশ,রাজশাহী বিভাগ,street,boundaries,['bus_stop'],[],Bangladesh,Rajshahi,Sirajganj,Shahjadpur,ShahjadpurPaurashava,016f08061f51ea5471b86a38b4e6867e
5148992677.0,893cf56e213ffff,24.1820994,89.5942389,Social Advancement Through Unity- (SATU),,"Social Advancement Through Unity- SATU, Shahjadpur, Sirajganj District, Rajshahi Division, Bangladesh","Unity ক্যের মাধ্যমে সামাজিক অগ্রগতি- সাতু, সিরাজগঞ্জ জেলা, রাজশাহী বিভাগ, বাংলাদেশ",Shahjadpur,বাংলাদেশ,রাজশাহী বিভাগ,local_admin,boundaries,['bank'],[],Bangladesh,Rajshahi,Sirajganj,Shahjadpur,ShahjadpurPaurashava,016f08061f51ea5471b86a38b4e6867e
5148992725.0,893cf56e213ffff,24.1832155,89.5946829,Rabindranath statue,,"Rabindranath statue, Shahjadpur, Sirajganj District, Rajshahi Division, Bangladesh","রবীন্দ্রনাথ মূর্তি, সিরাজগঞ্জ জেলা, রাজশাহী বিভাগ, বাংলাদেশ",Shahjadpur,বাংলাদেশ,রাজশাহী বিভাগ,local_admin,boundaries,['castle'],[],Bangladesh,Rajshahi,Sirajganj,Shahjadpur,ShahjadpurPaurashava,016f08061f51ea5471b86a38b4e6867e
5148995386.0,893cf56e247ffff,24.1765653,89.5947319,oy Durga Mistanno Vander জয়দুর্গা মিষ্টান্ন ভান্ডার,,"oy Durga Mistanno Vander, Shahjadpur, Sirajganj District, Rajshahi Division, Bangladesh","জয়দুর্গা মিষ্টান্ন ভান্ডার, সিরাজগঞ্জ জেলা, রাজশাহী বিভাগ, বাংলাদেশ",Shahjadpur,বাংলাদেশ,রাজশাহী বিভাগ,local_admin,boundaries,['restaurant'],[],Bangladesh,Rajshahi,Sirajganj,Shahjadpur,ShahjadpurPaurashava,016f08061f51ea5471b86a38b4e6867e
5149003724.0,893cf56e257ffff,24.1786988,89.594123,Dilruba bus stand,,"Dilruba bus stand, Shahjadpur, Sirajganj District, Rajshahi Division, Bangladesh","দিলরুবা বাস স্ট্যান্ড, সিরাজগঞ্জ জেলা, রাজশাহী বিভাগ, বাংলাদেশ",Shahjadpur,বাংলাদেশ,রাজশাহী বিভাগ,street,boundaries,['bus_stop'],[],Bangladesh,Rajshahi,Sirajganj,Shahjadpur,ShahjadpurPaurashava,016f08061f51ea5471b86a38b4e6867e
5149014707.0,893cf56e20bffff,24.1771601,89.5951233,Pouro Market পোওরো মার্কেট,,"Pouro Market, Shahjadpur, Sirajganj District, Rajshahi Division, Bangladesh","পোওরো মার্কেট, সিরাজগঞ্জ জেলা, রাজশাহী বিভাগ, বাংলাদেশ",Shahjadpur,বাংলাদেশ,রাজশাহী বিভাগ,local_admin,boundaries,['marketplace'],[],Bangladesh,Rajshahi,Sirajganj,Shahjadpur,ShahjadpurPaurashava,016f08061f51ea5471b86a38b4e6867e
5149024682.0,893cf56f52fffff,24.1729309,89.5863918,Dilruba Bus Stop দিলরুবা বাস স্টপ,,"Dilruba Bus Stop, Shahjadpur, Sirajganj District, Rajshahi Division, Bangladesh","দিলরুবা বাস স্টপ, সিরাজগঞ্জ জেলা, রাজশাহী বিভাগ, বাংলাদেশ",Shahjadpur,বাংলাদেশ,রাজশাহী বিভাগ,street,boundaries,['bus_stop'],[],Bangladesh,Rajshahi,Sirajganj,Shahjadpur,ShahjadpurPaurashava,016f08061f51ea5471b86a38b4e6867e
5149030188.0,893cf56f3b3ffff,24.1462332,89.5861501,Nukali Government Primary School,,"Nukali Government Primary School, Shahjadpur, Sirajganj District, Rajshahi Division, Bangladesh","নুকালি সরকারী প্রাথমিক বিদ্যালয়, সিরাজগঞ্জ জেলা, রাজশাহী বিভাগ, বাংলাদেশ",Shahjadpur,বাংলাদেশ,রাজশাহী বিভাগ,local_admin,boundaries,['school'],[],Bangladesh,Rajshahi,Sirajganj,Shahjadpur,Potajia,67027532022ecf5c320a9da1614378b8
5149032602.0,893cf56f303ffff,24.1356871,89.5853173,Baghabari Bus Stand,,"Baghabari Bus Stand, Shahjadpur, Sirajganj District, Rajshahi Division, Bangladesh","বাঘাবারি বাস স্ট্যান্ড, সিরাজগঞ্জ জেলা, রাজশাহী বিভাগ, বাংলাদেশ",Shahjadpur,বাংলাদেশ,রাজশাহী বিভাগ,street,boundaries,['bus_stop'],[],Bangladesh,Rajshahi,Sirajganj,Shahjadpur,Potajia,67027532022ecf5c320a9da1614378b8
5149053269.0,893cf56f34fffff,24.1291957,89.5815772,Bus stand,,"Bus stand, Shahjadpur, Sirajganj District, Rajshahi Division, Bangladesh","বাস স্ট্যান্ড, সিরাজগঞ্জ জেলা, রাজশাহী বিভাগ, বাংলাদেশ",Shahjadpur,বাংলাদেশ,রাজশাহী বিভাগ,street,boundaries,['bus_stop'],[],Bangladesh,Rajshahi,Sirajganj,Shahjadpur,Rupabati,6582d04464bb407d83f66c4a97850e8f
161647009.0,893cf570803ffff,24.36075010067089,89.44529711879393,Ullapara - Tarash Rd,,"Ullapara - Tarash Rd, Tarash, Sirajganj District, Rajshahi Division, Bangladesh","উলাপারা - তারাশ আরডি, সিরাজগঞ্জ জেলা, রাজশাহী বিভাগ, বাংলাদেশ",Tarash,বাংলাদেশ,রাজশাহী বিভাগ,street,,,,Bangladesh,Rajshahi,Sirajganj,UllahPara,Bangala,adfb5e2505f56b49ef76e11ebc1d27de
161647009.0,893cf570803ffff,24.36075010067089,89.44529711879393,Ullapara - Tarash Rd,,"Ullapara - Tarash Rd, Ullapara, Sirajganj District, Rajshahi Division, Bangladesh","উলাপারা - তারাশ আরডি, সিরাজগঞ্জ জেলা, রাজশাহী বিভাগ, বাংলাদেশ",Ullapara,বাংলাদেশ,রাজশাহী বিভাগ,street,,,,Bangladesh,Rajshahi,Sirajganj,UllahPara,Bangala,adfb5e2505f56b49ef76e11ebc1d27de
280305316.0,893cf570cd3ffff,24.3799314,89.41495395,Dhaka - Rajshahi Hwy,,"Dhaka - Rajshahi Hwy, Tarash, Sirajganj District, Rajshahi Division, Bangladesh","Dhaka াকা - রাজশাহী হুই, সিরাজগঞ্জ জেলা, রাজশাহী বিভাগ, বাংলাদেশ",Tarash,বাংলাদেশ,রাজশাহী বিভাগ,street,,,,Bangladesh,Rajshahi,Sirajganj,Tarash,Naogaon,3f944b56a39bebffff5b45f40b61e7df
5234360840.0,893cf574cc3ffff,24.424653,89.5889384,ফুলজোর ডিগ্রি কলেজ,,"Fulljore Degree College, Ullapara, Sirajganj District, Rajshahi Division, Bangladesh","ফুলজোর ডিগ্রি কলেজ, সিরাজগঞ্জ জেলা, রাজশাহী বিভাগ, বাংলাদেশ",Ullapara,বাংলাদেশ,রাজশাহী বিভাগ,local_admin,boundaries,['college'],[],Bangladesh,Rajshahi,Sirajganj,Royganj,Nalka,2d6ca154e06d44a419404e821fbf0bac
70400673.0,893cf50ca4bffff,24.484022601845652,89.47806879993227,Tarash - Bhuiyagati Road,['তাড়াশ - ভুইয়াগাতি রোড'],"Tarash - Bhuiyagati Road, Raiganj, Sirajganj District, Rajshahi Division, Bangladesh","তারাশ - ভুইয়াগতী রোড, তাড়াশ - ভুইয়াগাতি রোড, সিরাজগঞ্জ জেলা, রাজশাহী বিভাগ, বাংলাদেশ",Raiganj,বাংলাদেশ,রাজশাহী বিভাগ,street,,,,Bangladesh,Rajshahi,Sirajganj,Royganj,Sonakhara,94fde6c96fc50cb2633aec66046bcd00
70400673.0,893cf50ca4bffff,24.484022601845652,89.47806879993227,Tarash - Bhuiyagati Road,['তাড়াশ - ভুইয়াগাতি রোড'],"Tarash - Bhuiyagati Road, Tarash, Sirajganj District, Rajshahi Division, Bangladesh","তারাশ - ভুইয়াগতী রোড, তাড়াশ - ভুইয়াগাতি রোড, সিরাজগঞ্জ জেলা, রাজশাহী বিভাগ, বাংলাদেশ",Tarash,বাংলাদেশ,রাজশাহী বিভাগ,street,,,,Bangladesh,Rajshahi,Sirajganj,Royganj,Sonakhara,94fde6c96fc50cb2633aec66046bcd00
280305319.0,893cf570dc3ffff,24.38464515,89.4409558,Dhaka - Rajshahi Hwy,,"Dhaka - Rajshahi Hwy, Ullapara, Sirajganj District, Rajshahi Division, Bangladesh","Dhaka াকা - রাজশাহী হুই, সিরাজগঞ্জ জেলা, রাজশাহী বিভাগ, বাংলাদেশ",Ullapara,বাংলাদেশ,রাজশাহী বিভাগ,street,,,,Bangladesh,Rajshahi,Sirajganj,UllahPara,Ramkrishnapur,39a9913b3e2115aa382a5d978964cf6e
380035593.0,893cf564507ffff,24.32888376,89.68614273,Tamai High School Madh,,"Tamai High School Madh, Sirajganj District, Rajshahi Division, Bangladesh","তামাই হাই স্কুল মাধ, সিরাজগঞ্জ জেলা, রাজশাহী বিভাগ, বাংলাদেশ",,বাংলাদেশ,রাজশাহী বিভাগ,admin2,boundaries,['playground'],[],Bangladesh,Rajshahi,Sirajganj,Belkuchi,Bhangabari,2afa2715215fb395e3b5783ecc5c7b3f
402332241.0,893cf5643bbffff,24.29490208,89.69635372,Belkuchi Upazila Health Complex,['বেলকুচি উপজেলা স্বাস্থ্য কমপ্লেক্স'],"Belkuchi Upazila Health Complex, Sirajganj District, Rajshahi Division, Bangladesh","বেলকুচি উপজিলা স্বাস্থ্য কমপ্লেক্স, সিরাজগঞ্জ জেলা, রাজশাহী বিভাগ, বাংলাদেশ",,বাংলাদেশ,রাজশাহী বিভাগ,admin2,boundaries,['hospital'],[],Bangladesh,Rajshahi,Sirajganj,Belkuchi,Belkuchi,2c0940c6a192e109930ea36eba78ad37
403314229.0,893cf56450fffff,24.3246685,89.6850825,Tamai Fakir Para Jame Mosjid,,"Tamai Fakir Para Jame Mosjid, Sirajganj District, Rajshahi Division, Bangladesh","তামাই ফাকির প্যারা জামে মোসজিড, সিরাজগঞ্জ জেলা, রাজশাহী বিভাগ, বাংলাদেশ",,বাংলাদেশ,রাজশাহী বিভাগ,admin2,boundaries,['place_of_worship_muslim'],[],Bangladesh,Rajshahi,Sirajganj,Belkuchi,Bhangabari,2afa2715215fb395e3b5783ecc5c7b3f
409218300.0,893cf567183ffff,24.3205581,89.6312928,Daulotpur HighSchool,,"Daulotpur HighSchool, Sirajganj District, Rajshahi Division, Bangladesh","দৌলতপুর উচ্চ বিদ্যালয়, সিরাজগঞ্জ জেলা, রাজশাহী বিভাগ, বাংলাদেশ",,বাংলাদেশ,রাজশাহী বিভাগ,admin2,boundaries,['school'],[],Bangladesh,Rajshahi,Sirajganj,Kamarkhanda,RoyDaulatpur,f472a2fd53eae9aee46434744507b51f
419136088.0,893cf564507ffff,24.32939672,89.6866869,Provakor Bidya Niketon,,"Provakor Bidya Niketon, Sirajganj District, Rajshahi Division, Bangladesh","প্রোভাকর বিদ্যা নিকেটন, সিরাজগঞ্জ জেলা, রাজশাহী বিভাগ, বাংলাদেশ",,বাংলাদেশ,রাজশাহী বিভাগ,admin2,boundaries,['school'],[],Bangladesh,Rajshahi,Sirajganj,Belkuchi,Bhangabari,2afa2715215fb395e3b5783ecc5c7b3f
5539766459.0,893cf57710fffff,24.4169394,89.5089351,সলঙ্গা বাজার,,"Salanga Bazar, Raiganj, Sirajganj District, Rajshahi Division, Bangladesh","সলঙ্গা বাজার, সিরাজগঞ্জ জেলা, রাজশাহী বিভাগ, বাংলাদেশ",Raiganj,বাংলাদেশ,রাজশাহী বিভাগ,local_admin,boundaries,['variety_store'],[],Bangladesh,Rajshahi,Sirajganj,Royganj,Ghurka,51d947b454e32f04a80430d4a26291ee
432863810.0,893cf52b3a7ffff,24.45229816,89.68066953,Youth Development Mosque,,"Youth Development Mosque, Sirajganj District, Rajshahi Division, Bangladesh","যুব উন্নয়ন মসজিদ, সিরাজগঞ্জ জেলা, রাজশাহী বিভাগ, বাংলাদেশ",,বাংলাদেশ,রাজশাহী বিভাগ,admin2,boundaries,['place_of_worship_muslim'],[],Bangladesh,Rajshahi,Sirajganj,SirajganjSadar,Shialkul,e12a4a2e7cd4b17f2d7e0616642c8822
432864148.0,893cf52b3afffff,24.45152306,89.67934298,cng station,,"cng station, ","সিএনজি স্টেশন, ",,বাংলাদেশ,রাজশাহী বিভাগ,housenumber,contains,['fuel'],[],Bangladesh,Rajshahi,Sirajganj,SirajganjSadar,Shialkul,e12a4a2e7cd4b17f2d7e0616642c8822
5645728665.0,893cf57418fffff,24.4229343,89.5731422,পাঁচলিয়া বাজার,,"Panchalia Bazar, Ullapara, Sirajganj District, Rajshahi Division, Bangladesh","পাঁচলিয়া বাজার, সিরাজগঞ্জ জেলা, রাজশাহী বিভাগ, বাংলাদেশ",Ullapara,বাংলাদেশ,রাজশাহী বিভাগ,local_admin,boundaries,['variety_store'],[],Bangladesh,Rajshahi,Sirajganj,UllahPara,Hatikumrul,844e2a2ccf219e6b03ac136f31195f7b
432864160.0,893cf52b3a7ffff,24.45226035,89.68044149,Yourth Devolopment Center,,"Yourth Devolopment Center, ","যুব উন্নয়ন কেন্দ্র, ",,বাংলাদেশ,রাজশাহী বিভাগ,housenumber,contains,['government'],[],Bangladesh,Rajshahi,Sirajganj,SirajganjSadar,Shialkul,e12a4a2e7cd4b17f2d7e0616642c8822
432864160.0,893cf52b3a7ffff,24.45226035,89.68044149,Yourth Devolopment Center,,"Yourth Devolopment Center, ","যুব উন্নয়ন কেন্দ্র, ",,বাংলাদেশ,রাজশাহী বিভাগ,housenumber,contains,['government'],[],Bangladesh,Rajshahi,Sirajganj,SirajganjSadar,Shialkul,e12a4a2e7cd4b17f2d7e0616642c8822
432864160.0,893cf52b3a7ffff,24.45226035,89.68044149,Yourth Devolopment Center,,"Yourth Devolopment Center, ","যুব উন্নয়ন কেন্দ্র, ",,বাংলাদেশ,রাজশাহী বিভাগ,housenumber,contains,['government'],[],Bangladesh,Rajshahi,Sirajganj,SirajganjSadar,Shialkul,e12a4a2e7cd4b17f2d7e0616642c8822
432864160.0,893cf52b3a7ffff,24.45226035,89.68044149,Yourth Devolopment Center,,"Yourth Devolopment Center, ","যুব উন্নয়ন কেন্দ্র, ",,বাংলাদেশ,রাজশাহী বিভাগ,housenumber,contains,['government'],[],Bangladesh,Rajshahi,Sirajganj,SirajganjSadar,Shialkul,e12a4a2e7cd4b17f2d7e0616642c8822
432979152.0,893cf5286d7ffff,24.4546057,89.6858531,সার্কিট হাউস,,"Circuit House, Sirajganj District, Rajshahi Division, Bangladesh","সার্কিট হাউস, সিরাজগঞ্জ জেলা, রাজশাহী বিভাগ, বাংলাদেশ",,বাংলাদেশ,রাজশাহী বিভাগ,admin2,boundaries,['guest_house'],[],Bangladesh,Rajshahi,Sirajganj,SirajganjSadar,SirajganjPaurashava,c2ac43e6a1366cc3da97c656372101dc
280305310.0,893cf570cafffff,24.38235692036748,89.43493331412884,Dhaka - Rajshahi Hwy,,"Dhaka - Rajshahi Hwy, Ullapara, Sirajganj District, Rajshahi Division, Bangladesh","Dhaka াকা - রাজশাহী হুই, সিরাজগঞ্জ জেলা, রাজশাহী বিভাগ, বাংলাদেশ",Ullapara,বাংলাদেশ,রাজশাহী বিভাগ,street,,,,Bangladesh,Rajshahi,Sirajganj,UllahPara,Ramkrishnapur,39a9913b3e2115aa382a5d978964cf6e
6742187621.0,893cf508e97ffff,24.4723717,89.2896348,,,"Tarash, Sirajganj District, Rajshahi Division, Bangladesh","সিরাজগঞ্জ জেলা, রাজশাহী বিভাগ, বাংলাদেশ",Tarash,বাংলাদেশ,রাজশাহী বিভাগ,local_admin,boundaries,['communication_tower'],[],Bangladesh,Rajshahi,Sirajganj,Tarash,Baruhas,d9ee12a0a684d2a472fd3d2ecf300b15
482986309.0,893cf564553ffff,24.32296898,89.67419339,,,"Sirajganj District, Rajshahi Division, Bangladesh","সিরাজগঞ্জ জেলা, রাজশাহী বিভাগ, বাংলাদেশ",,বাংলাদেশ,রাজশাহী বিভাগ,admin2,boundaries,['playground'],[],Bangladesh,Rajshahi,Sirajganj,Belkuchi,Bhangabari,2afa2715215fb395e3b5783ecc5c7b3f
497980763.0,893cf564343ffff,24.28193875,89.68861375,Shaheen Shishu Clinic,['শাহীন শিশু ক্লিনিক'],"Shaheen Shishu Clinic, Sirajganj District, Rajshahi Division, Bangladesh","শাহীন শিশু ক্লিনিক, সিরাজগঞ্জ জেলা, রাজশাহী বিভাগ, বাংলাদেশ",,বাংলাদেশ,রাজশাহী বিভাগ,admin2,boundaries,['clinic'],[],Bangladesh,Rajshahi,Sirajganj,Belkuchi,Daulatpur,6310651761cafd1c77d4b1a51d2a1bf0
497981641.0,893cf564373ffff,24.28559773,89.69729076,Bangladesh Fire Service and Civil Defence,,"Bangladesh Fire Service and Civil Defence, Sirajganj District, Rajshahi Division, Bangladesh","বাংলাদেশ ফায়ার সার্ভিস এবং সিভিল ডিফেন্স, সিরাজগঞ্জ জেলা, রাজশাহী বিভাগ, বাংলাদেশ",,বাংলাদেশ,রাজশাহী বিভাগ,admin2,boundaries,['fire_station'],[],Bangladesh,Rajshahi,Sirajganj,Belkuchi,Daulatpur,6310651761cafd1c77d4b1a51d2a1bf0
525078640.0,893cf5293d7ffff,24.39542598,89.69315604,Esquire Hospital ইস্কয়ার হাসপাতাল,,"Esquire Hospital, Sirajganj District, Rajshahi Division, Bangladesh","ইস্কয়ার হাসপাতাল, সিরাজগঞ্জ জেলা, রাজশাহী বিভাগ, বাংলাদেশ",,বাংলাদেশ,রাজশাহী বিভাগ,admin2,boundaries,['hospital'],[],Bangladesh,Rajshahi,Sirajganj,SirajganjSadar,Saidabad,ca43739bc98caa6647b206c8737fd21a
280305334.0,893cf57728fffff,24.39627165254165,89.47631187568236,Dhaka - Rajshahi Hwy,,"Dhaka - Rajshahi Hwy, Ullapara, Sirajganj District, Rajshahi Division, Bangladesh","Dhaka াকা - রাজশাহী হুই, সিরাজগঞ্জ জেলা, রাজশাহী বিভাগ, বাংলাদেশ",Ullapara,বাংলাদেশ,রাজশাহী বিভাগ,street,,,,Bangladesh,Rajshahi,Sirajganj,UllahPara,Salanga,1d8d60aa008ff15ca24f15183f950851
280305314.0,893cf570c17ffff,24.3817387,89.4285196,Dhaka - Rajshahi Hwy,,"Dhaka - Rajshahi Hwy, Ullapara, Sirajganj District, Rajshahi Division, Bangladesh","Dhaka াকা - রাজশাহী হুই, সিরাজগঞ্জ জেলা, রাজশাহী বিভাগ, বাংলাদেশ",Ullapara,বাংলাদেশ,রাজশাহী বিভাগ,street,,,,Bangladesh,Rajshahi,Sirajganj,Tarash,Naogaon,3f944b56a39bebffff5b45f40b61e7df
280305340.0,893cf570187ffff,24.377652833631178,89.40188096419838,Dhaka - Rajshahi Hwy,,"Dhaka - Rajshahi Hwy, Tarash, Sirajganj District, Rajshahi Division, Bangladesh","Dhaka াকা - রাজশাহী হুই, সিরাজগঞ্জ জেলা, রাজশাহী বিভাগ, বাংলাদেশ",Tarash,বাংলাদেশ,রাজশাহী বিভাগ,street,,,,Bangladesh,Rajshahi,Sirajganj,Tarash,Naogaon,3f944b56a39bebffff5b45f40b61e7df
3977946432.0,893cf56021bffff,24.234097,89.4958029,Mohanpur,,"Mohanpur, Ullapara, Sirajganj District, Rajshahi Division, Bangladesh","মোহনপুর, সিরাজগঞ্জ জেলা, রাজশাহী বিভাগ, বাংলাদেশ",Ullapara,বাংলাদেশ,রাজশাহী বিভাগ,locality,,,,Bangladesh,Rajshahi,Sirajganj,UllahPara,Mohanpur,ffbbdd7eb46afff242d0bb4d37b0e78e
3992043599.0,893cf50d36bffff,24.440694,89.4057506,Madhainagar,,"Madhainagar, Tarash, Sirajganj District, Rajshahi Division, Bangladesh","মাধাইনগর, সিরাজগঞ্জ জেলা, রাজশাহী বিভাগ, বাংলাদেশ",Tarash,বাংলাদেশ,রাজশাহী বিভাগ,locality,,,,Bangladesh,Rajshahi,Sirajganj,Tarash,Madhainagar,bc685274a8954c7b08f5324e9ffc184f
441368413.0,893cf5721bbffff,24.4293859,89.3759816,Tarash Upazila Office,['তাড়াশ উপজেলা অফিস'],"Tarash Upazila Office, Tarash, Sirajganj District, Rajshahi Division, Bangladesh","তারাশ উপজিলা অফিস, সিরাজগঞ্জ জেলা, রাজশাহী বিভাগ, বাংলাদেশ",Tarash,বাংলাদেশ,রাজশাহী বিভাগ,local_admin,boundaries,['government'],[],Bangladesh,Rajshahi,Sirajganj,Tarash,Tarash,54ee3eac08c1a0c190d3a382b916ac42
441393101.0,893cf50f37bffff,24.49450902,89.37326659,Gurpipul High School,,"Gurpipul High School, Tarash, Sirajganj District, Rajshahi Division, Bangladesh","গুরপিপুল হাই স্কুল, সিরাজগঞ্জ জেলা, রাজশাহী বিভাগ, বাংলাদেশ",Tarash,বাংলাদেশ,রাজশাহী বিভাগ,local_admin,boundaries,['school'],[],Bangladesh,Rajshahi,Sirajganj,Tarash,Deshigram,ff31680e3195645c5959b4d2cece4a3f
5224600811.0,893cf50dc2fffff,24.4783593,89.4465803,নিমগাছি,,"Nimgachi, Tarash, Sirajganj District, Rajshahi Division, Bangladesh","নিমগাছি, সিরাজগঞ্জ জেলা, রাজশাহী বিভাগ, বাংলাদেশ",Tarash,বাংলাদেশ,রাজশাহী বিভাগ,locality,,,,Bangladesh,Rajshahi,Sirajganj,Royganj,Sonakhara,94fde6c96fc50cb2633aec66046bcd00
441396716.0,893cf50f37bffff,24.49477408,89.37549686,Gurpipul Govt Primary School,,"Gurpipul Govt Primary School, ","গুরপিপুল গভঃ প্রাথমিক বিদ্যালয়, ",Tarash,বাংলাদেশ,রাজশাহী বিভাগ,housenumber,sameSource,['school'],[],Bangladesh,Rajshahi,Sirajganj,Tarash,Deshigram,ff31680e3195645c5959b4d2cece4a3f
442360885.0,893cf50f343ffff,24.49712208,89.36772997,Gurpipul Community Clinic,,"Gurpipul Community Clinic, Tarash, Sirajganj District, Rajshahi Division, Bangladesh","গুরপিপুল কমিউনিটি ক্লিনিক, সিরাজগঞ্জ জেলা, রাজশাহী বিভাগ, বাংলাদেশ",Tarash,বাংলাদেশ,রাজশাহী বিভাগ,local_admin,boundaries,['hospital'],[],Bangladesh,Rajshahi,Sirajganj,Tarash,Deshigram,ff31680e3195645c5959b4d2cece4a3f
495827192.0,893cf57218fffff,24.42675093,89.37041148,Tarash Thana,['তাড়াশ থানা'],"Tarash Thana, Tarash, Sirajganj District, Rajshahi Division, Bangladesh","তারাশ থানা, সিরাজগঞ্জ জেলা, রাজশাহী বিভাগ, বাংলাদেশ",Tarash,বাংলাদেশ,রাজশাহী বিভাগ,local_admin,boundaries,['police'],[],Bangladesh,Rajshahi,Sirajganj,Tarash,Tarash,54ee3eac08c1a0c190d3a382b916ac42
6547624985.0,893cf53b673ffff,24.5539204,89.5031714,,['Chandaikona'],"Raiganj, Sirajganj District, Rajshahi Division, Bangladesh","সিরাজগঞ্জ জেলা, রাজশাহী বিভাগ, বাংলাদেশ",Raiganj,বাংলাদেশ,রাজশাহী বিভাগ,local_admin,boundaries,['bus_stop'],[],Bangladesh,Rajshahi,Sirajganj,Royganj,Chandaikona,45bd97eb56a0d9801d9c91657a3d4043
3992043592.0,893cf570b13ffff,24.3480386,89.4607706,Bangala,,"Bangala, Ullapara, Sirajganj District, Rajshahi Division, Bangladesh","বেঙ্গালা, সিরাজগঞ্জ জেলা, রাজশাহী বিভাগ, বাংলাদেশ",Ullapara,বাংলাদেশ,রাজশাহী বিভাগ,locality,,,,Bangladesh,Rajshahi,Sirajganj,UllahPara,Bangala,adfb5e2505f56b49ef76e11ebc1d27de
7147987892.0,893cf5740b3ffff,24.4189956,89.5513771,Hatikumrul CNG Stand,,"Hatikumrul CNG Stand, Ullapara, Sirajganj District, Rajshahi Division, Bangladesh","Hatikumrul Cng স্ট্যান্ড, সিরাজগঞ্জ জেলা, রাজশাহী বিভাগ, বাংলাদেশ",Ullapara,বাংলাদেশ,রাজশাহী বিভাগ,street,boundaries,['bus_stop'],[],Bangladesh,Rajshahi,Sirajganj,UllahPara,Hatikumrul,844e2a2ccf219e6b03ac136f31195f7b
3977672532.0,893cf5775dbffff,24.4344551,89.4761527,Dhubli,,"Dhubli, Raiganj, Sirajganj District, Rajshahi Division, Bangladesh","ধুবলি, সিরাজগঞ্জ জেলা, রাজশাহী বিভাগ, বাংলাদেশ",Raiganj,বাংলাদেশ,রাজশাহী বিভাগ,locality,,,,Bangladesh,Rajshahi,Sirajganj,Royganj,Dhubil,aff40827ac030c7dca2860b9d507ccec
3992043607.0,893cf570db3ffff,24.3932629,89.4529571,Ramkrishnapur,,"Ramkrishnapur, Ullapara, Sirajganj District, Rajshahi Division, Bangladesh","রামকৃষ্ণপুর, সিরাজগঞ্জ জেলা, রাজশাহী বিভাগ, বাংলাদেশ",Ullapara,বাংলাদেশ,রাজশাহী বিভাগ,locality,,,,Bangladesh,Rajshahi,Sirajganj,UllahPara,Ramkrishnapur,39a9913b3e2115aa382a5d978964cf6e
7520900163.0,893cf560187ffff,24.2728783,89.5303946,মহিষাখোলা,,"Mahsakhola, Ullapara, Sirajganj District, Rajshahi Division, Bangladesh","মহিষাখোলা, সিরাজগঞ্জ জেলা, রাজশাহী বিভাগ, বাংলাদেশ",Ullapara,বাংলাদেশ,রাজশাহী বিভাগ,local_admin,boundaries,['railway_station'],[],Bangladesh,Rajshahi,Sirajganj,UllahPara,Durganagar,3a337b9c8f2d9fd320e2436fc1279ab0
620432097.0,893cf52860fffff,24.45023202,89.69763055,Mashimpur Field,,"Mashimpur Field, Sirajganj District, Rajshahi Division, Bangladesh","মাশিমপুর ক্ষেত্র, সিরাজগঞ্জ জেলা, রাজশাহী বিভাগ, বাংলাদেশ",,বাংলাদেশ,রাজশাহী বিভাগ,admin2,boundaries,['pitch'],[],Bangladesh,Rajshahi,Sirajganj,SirajganjSadar,SirajganjPaurashava,c2ac43e6a1366cc3da97c656372101dc
620432098.0,893cf52860fffff,24.45048277,89.69678934,Water Purification and Supply Center,,"Water Purification and Supply Center, Sirajganj District, Rajshahi Division, Bangladesh","জল পরিশোধন এবং সরবরাহ কেন্দ্র, সিরাজগঞ্জ জেলা, রাজশাহী বিভাগ, বাংলাদেশ",,বাংলাদেশ,রাজশাহী বিভাগ,admin2,boundaries,['water_tower'],[],Bangladesh,Rajshahi,Sirajganj,SirajganjSadar,SirajganjPaurashava,c2ac43e6a1366cc3da97c656372101dc
620432099.0,893cf52860fffff,24.45100198,89.69742854,Central Bus Stand Mosque,,"Central Bus Stand Mosque, Sirajganj District, Rajshahi Division, Bangladesh","সেন্ট্রাল বাস স্ট্যান্ড মসজিদ, সিরাজগঞ্জ জেলা, রাজশাহী বিভাগ, বাংলাদেশ",,বাংলাদেশ,রাজশাহী বিভাগ,admin2,boundaries,['place_of_worship_muslim'],[],Bangladesh,Rajshahi,Sirajganj,SirajganjSadar,SirajganjPaurashava,c2ac43e6a1366cc3da97c656372101dc
620432100.0,893cf528607ffff,24.45172313,89.69770897,Central Bus Station,,"Central Bus Station, Sirajganj District, Rajshahi Division, Bangladesh","কেন্দ্রীয় বাস স্টেশন, সিরাজগঞ্জ জেলা, রাজশাহী বিভাগ, বাংলাদেশ",,বাংলাদেশ,রাজশাহী বিভাগ,admin2,boundaries,['bus_station'],[],Bangladesh,Rajshahi,Sirajganj,SirajganjSadar,SirajganjPaurashava,c2ac43e6a1366cc3da97c656372101dc
651056824.0,893cf531ea7ffff,24.66910791,89.64957815,Patagram Spar Area,,"Patagram Spar Area, Kazipur, Sirajganj District, Rajshahi Division, Bangladesh","প্যাটগ্রাম স্পার অঞ্চল, সিরাজগঞ্জ জেলা, রাজশাহী বিভাগ, বাংলাদেশ",Kazipur,বাংলাদেশ,রাজশাহী বিভাগ,local_admin,boundaries,['park'],[],Bangladesh,Rajshahi,Sirajganj,Kazipur,Kazipur,df8e76b72e4a1dcc6bb7ae7a32c3fe31
812929324.0,893cf5650d3ffff,24.25518704,89.62729782,Khamarullapara primary school ground,,"Khamarullapara primary school ground, Sirajganj District, Rajshahi Division, Bangladesh","খামারুল্লাপার প্রাথমিক বিদ্যালয়ের গ্রাউন্ড, সিরাজগঞ্জ জেলা, রাজশাহী বিভাগ, বাংলাদেশ",,বাংলাদেশ,রাজশাহী বিভাগ,admin2,boundaries,['playground'],[],Bangladesh,Rajshahi,Sirajganj,Belkuchi,DhukariaBera,49be3121489f55f13291e82522aff0a5
910352111.0,893cf53198bffff,24.67844004,89.68535406,,,"Kazipur, Sirajganj District, Rajshahi Division, Bangladesh","সিরাজগঞ্জ জেলা, রাজশাহী বিভাগ, বাংলাদেশ",Kazipur,বাংলাদেশ,রাজশাহী বিভাগ,local_admin,boundaries,['island'],[],Bangladesh,Rajshahi,Sirajganj,Kazipur,NatuarPara,b71fd220d34f08e80a6b1f78c1fa7b84
910352112.0,893cf531b8fffff,24.65699892,89.68298455,,,"Kazipur, Sirajganj District, Rajshahi Division, Bangladesh","সিরাজগঞ্জ জেলা, রাজশাহী বিভাগ, বাংলাদেশ",Kazipur,বাংলাদেশ,রাজশাহী বিভাগ,local_admin,boundaries,['island'],[],Bangladesh,Rajshahi,Sirajganj,Kazipur,Tekani,acda5d4d2561797bc80ecb17acdcecf5
910357742.0,893cf523657ffff,24.6035984,89.66772358,,,"Kazipur, Sirajganj District, Rajshahi Division, Bangladesh","সিরাজগঞ্জ জেলা, রাজশাহী বিভাগ, বাংলাদেশ",Kazipur,বাংলাদেশ,রাজশাহী বিভাগ,local_admin,boundaries,['island'],[],Bangladesh,Rajshahi,Sirajganj,Kazipur,Subhagachha,0d10e18972202da2b025cc1d83536262
914903473.0,893cf1d706bffff,24.03678923,89.69810626,,,"Bera, Pabna District, Rajshahi Division, Bangladesh","পাবনা জেলা, রাজশাহী বিভাগ, বাংলাদেশ",Bera,বাংলাদেশ,রাজশাহী বিভাগ,local_admin,boundaries,['island'],[],Bangladesh,Rajshahi,Sirajganj,Chauhali,Omarpur,8134f83b6f04b9285f7643f9fd97bec7
914926841.0,893cf1d7547ffff,24.06111833,89.6974218,,,"Chowhali, Sirajganj District, Rajshahi Division, Bangladesh","সিরাজগঞ্জ জেলা, রাজশাহী বিভাগ, বাংলাদেশ",Chowhali,বাংলাদেশ,রাজশাহী বিভাগ,local_admin,boundaries,['island'],[],Bangladesh,Rajshahi,Sirajganj,Chauhali,Omarpur,8134f83b6f04b9285f7643f9fd97bec7
917327011.0,893cf52164bffff,24.54444617,89.69506723,,,"Sirajganj District, Rajshahi Division, Bangladesh","সিরাজগঞ্জ জেলা, রাজশাহী বিভাগ, বাংলাদেশ",,বাংলাদেশ,রাজশাহী বিভাগ,admin2,boundaries,['island'],[],Bangladesh,Rajshahi,Sirajganj,SirajganjSadar,Mechhra,785d39de4c4f1764faf654bbb146b64d
210993455.0,893cf56f367ffff,24.13190591,89.5932534,,,"Shahjadpur, Sirajganj District, Rajshahi Division, Bangladesh","সিরাজগঞ্জ জেলা, রাজশাহী বিভাগ, বাংলাদেশ",Shahjadpur,বাংলাদেশ,রাজশাহী বিভাগ,local_admin,boundaries,['substation'],[],Bangladesh,Rajshahi,Sirajganj,Shahjadpur,Rupabati,6582d04464bb407d83f66c4a97850e8f
210993463.0,893cf56f52fffff,24.17310856,89.58461762,Shahajadpur,,"Shahajadpur, Shahjadpur, Sirajganj District, Rajshahi Division, Bangladesh","শাহাজাদপুর, সিরাজগঞ্জ জেলা, রাজশাহী বিভাগ, বাংলাদেশ",Shahjadpur,বাংলাদেশ,রাজশাহী বিভাগ,local_admin,boundaries,['substation'],[],Bangladesh,Rajshahi,Sirajganj,Shahjadpur,ShahjadpurPaurashava,016f08061f51ea5471b86a38b4e6867e
210993464.0,893cf56f323ffff,24.13737344,89.59426123,Baghabari,,"Baghabari, Shahjadpur, Sirajganj District, Rajshahi Division, Bangladesh","বাঘাবারি, সিরাজগঞ্জ জেলা, রাজশাহী বিভাগ, বাংলাদেশ",Shahjadpur,বাংলাদেশ,রাজশাহী বিভাগ,local_admin,boundaries,['substation'],[],Bangladesh,Rajshahi,Sirajganj,Shahjadpur,Potajia,67027532022ecf5c320a9da1614378b8
7112531.0,893cf564553ffff,24.32302138,89.67415366,Adachaki High School,,"Adachaki High School, Sirajganj District, Rajshahi Division, Bangladesh","আদাচাকি উচ্চ বিদ্যালয়, সিরাজগঞ্জ জেলা, রাজশাহী বিভাগ, বাংলাদেশ",,বাংলাদেশ,রাজশাহী বিভাগ,admin2,boundaries,['school'],[],Bangladesh,Rajshahi,Sirajganj,Belkuchi,Bhangabari,2afa2715215fb395e3b5783ecc5c7b3f
7112635.0,893cf564553ffff,24.32222408,89.6756437,Adachaki Koumi Madrasha,,"Adachaki Koumi Madrasha, Sirajganj District, Rajshahi Division, Bangladesh","আদাচাকি কাউমি মাদ্রাশা, সিরাজগঞ্জ জেলা, রাজশাহী বিভাগ, বাংলাদেশ",,বাংলাদেশ,রাজশাহী বিভাগ,admin2,boundaries,['school'],[],Bangladesh,Rajshahi,Sirajganj,Belkuchi,Bhangabari,2afa2715215fb395e3b5783ecc5c7b3f
7113406.0,893cf52906fffff,24.39732052,89.69006101,Shahid M Monsur Ali Rail Station,,"Shahid M Monsur Ali Rail Station, Sirajganj District, Rajshahi Division, Bangladesh","শহীদ এম মনসুর আলী রেল স্টেশন, সিরাজগঞ্জ জেলা, রাজশাহী বিভাগ, বাংলাদেশ",,বাংলাদেশ,রাজশাহী বিভাগ,admin2,boundaries,['railway_station'],[],Bangladesh,Rajshahi,Sirajganj,SirajganjSadar,Saidabad,ca43739bc98caa6647b206c8737fd21a
4319032565.0,893cf52b3a7ffff,24.4520757,89.6801857,Tube-well Ladies hostel,,"Tube-well Ladies hostel, ","টিউব-ওয়েল মহিলা হোস্টেল, ",,বাংলাদেশ,রাজশাহী বিভাগ,housenumber,,,,Bangladesh,Rajshahi,Sirajganj,SirajganjSadar,Shialkul,e12a4a2e7cd4b17f2d7e0616642c8822
4319901251.0,893cf52b3afffff,24.451085,89.679402,cng stn,,"cng stn, ","সিএনজি এসটিএন, ",,বাংলাদেশ,রাজশাহী বিভাগ,housenumber,,,,Bangladesh,Rajshahi,Sirajganj,SirajganjSadar,Shialkul,e12a4a2e7cd4b17f2d7e0616642c8822
4320663794.0,893cf52b3afffff,24.451514,89.679335,cng station,,"cng station, ","সিএনজি স্টেশন, ",,বাংলাদেশ,রাজশাহী বিভাগ,housenumber,,,,Bangladesh,Rajshahi,Sirajganj,SirajganjSadar,Shialkul,e12a4a2e7cd4b17f2d7e0616642c8822
4320811800.0,893cf52b293ffff,24.448984,89.639037,cng,,"cng, ","সিএনজি, ",,বাংলাদেশ,রাজশাহী বিভাগ,housenumber,,,,Bangladesh,Rajshahi,Sirajganj,SirajganjSadar,Shialkul,e12a4a2e7cd4b17f2d7e0616642c8822
249658064.0,893cf52865bffff,24.44425705,89.68820185,,,,,,বাংলাদেশ,রাজশাহী বিভাগ,housenumber,,,,Bangladesh,Rajshahi,Sirajganj,SirajganjSadar,KaliaHaripur,36301006366e9204060f3328112ba6aa
249658065.0,893cf52864fffff,24.44313747,89.69148451,,,,,,বাংলাদেশ,রাজশাহী বিভাগ,housenumber,,,,Bangladesh,Rajshahi,Sirajganj,SirajganjSadar,SirajganjPaurashava,c2ac43e6a1366cc3da97c656372101dc
249658067.0,893cf52864fffff,24.44267151,89.69137038,,,,,,বাংলাদেশ,রাজশাহী বিভাগ,housenumber,,,,Bangladesh,Rajshahi,Sirajganj,SirajganjSadar,SirajganjPaurashava,c2ac43e6a1366cc3da97c656372101dc
249658072.0,893cf52864fffff,24.44259361,89.69140363,,,,,,বাংলাদেশ,রাজশাহী বিভাগ,housenumber,,,,Bangladesh,Rajshahi,Sirajganj,SirajganjSadar,SirajganjPaurashava,c2ac43e6a1366cc3da97c656372101dc
249658075.0,893cf52864fffff,24.4439108,89.692357,,,,,,বাংলাদেশ,রাজশাহী বিভাগ,housenumber,,,,Bangladesh,Rajshahi,Sirajganj,SirajganjSadar,SirajganjPaurashava,c2ac43e6a1366cc3da97c656372101dc
249658077.0,893cf528643ffff,24.44440075,89.69120921,,,,,,বাংলাদেশ,রাজশাহী বিভাগ,housenumber,,,,Bangladesh,Rajshahi,Sirajganj,SirajganjSadar,KaliaHaripur,36301006366e9204060f3328112ba6aa
249658089.0,893cf52864fffff,24.444022,89.69213315,,,,,,বাংলাদেশ,রাজশাহী বিভাগ,housenumber,,,,Bangladesh,Rajshahi,Sirajganj,SirajganjSadar,SirajganjPaurashava,c2ac43e6a1366cc3da97c656372101dc
249658090.0,893cf528643ffff,24.44360057,89.69089989,,,,,,বাংলাদেশ,রাজশাহী বিভাগ,housenumber,,,,Bangladesh,Rajshahi,Sirajganj,SirajganjSadar,KaliaHaripur,36301006366e9204060f3328112ba6aa
371445449.0,893cf52864bffff,24.44208806,89.69024836,Hashem Talukder,,"Hashem Talukder, ","হাশেম তালুকদার, ",,বাংলাদেশ,রাজশাহী বিভাগ,housenumber,,,,Bangladesh,Rajshahi,Sirajganj,SirajganjSadar,KaliaHaripur,36301006366e9204060f3328112ba6aa
371445546.0,893cf52864bffff,24.441293,89.6890726,,,,,,বাংলাদেশ,রাজশাহী বিভাগ,housenumber,,,,Bangladesh,Rajshahi,Sirajganj,SirajganjSadar,KaliaHaripur,36301006366e9204060f3328112ba6aa
432862417.0,893cf52b3a7ffff,24.45185914,89.6801713,Youth Development Office,,"Youth Development Office, ","যুব উন্নয়ন অফিস, ",,বাংলাদেশ,রাজশাহী বিভাগ,housenumber,,,,Bangladesh,Rajshahi,Sirajganj,SirajganjSadar,Shialkul,e12a4a2e7cd4b17f2d7e0616642c8822
432863630.0,893cf52b3a7ffff,24.45267653,89.680224,youth development,,"youth development, ","যুব উন্নয়ন, ",,বাংলাদেশ,রাজশাহী বিভাগ,housenumber,,,,Bangladesh,Rajshahi,Sirajganj,SirajganjSadar,Shialkul,e12a4a2e7cd4b17f2d7e0616642c8822
432864024.0,893cf52b3a7ffff,24.45199297,89.68005643,ladies hostel,,"ladies hostel, ","মহিলা হোস্টেল, ",,বাংলাদেশ,রাজশাহী বিভাগ,housenumber,,,,Bangladesh,Rajshahi,Sirajganj,SirajganjSadar,Shialkul,e12a4a2e7cd4b17f2d7e0616642c8822
446465652.0,893cf52864fffff,24.44255028,89.69204921,kobrthen,,"kobrthen, ","কোব্রথেন, ",,বাংলাদেশ,রাজশাহী বিভাগ,housenumber,,,,Bangladesh,Rajshahi,Sirajganj,SirajganjSadar,SirajganjPaurashava,c2ac43e6a1366cc3da97c656372101dc
446465655.0,893cf52864bffff,24.44206812,89.69061474,motif stor,,"motif stor, ","মোটিফ স্টোর, ",,বাংলাদেশ,রাজশাহী বিভাগ,housenumber,,,,Bangladesh,Rajshahi,Sirajganj,SirajganjSadar,KaliaHaripur,36301006366e9204060f3328112ba6aa
481244646.0,893cf52a35bffff,24.4890467,89.69931822,,,,,,বাংলাদেশ,রাজশাহী বিভাগ,housenumber,,,,Bangladesh,Rajshahi,Sirajganj,SirajganjSadar,Khoksabari,ba7340b3ab266c24ed1f2017eb6e9ca5
481244647.0,893cf52a35bffff,24.4881966,89.69952696,,,,,,বাংলাদেশ,রাজশাহী বিভাগ,housenumber,,,,Bangladesh,Rajshahi,Sirajganj,SirajganjSadar,Khoksabari,ba7340b3ab266c24ed1f2017eb6e9ca5
481244648.0,893cf52a35bffff,24.48755438,89.69958115,,,,,,বাংলাদেশ,রাজশাহী বিভাগ,housenumber,,,,Bangladesh,Rajshahi,Sirajganj,SirajganjSadar,Khoksabari,ba7340b3ab266c24ed1f2017eb6e9ca5
329189251.0,893cf56442fffff,24.31703257926287,89.66978334733074,Adachaki Mollabari Road,,"Adachaki Mollabari Road, Sirajganj District, Rajshahi Division, Bangladesh","আদাচাকি মোল্লাবারি রোড, সিরাজগঞ্জ জেলা, রাজশাহী বিভাগ, বাংলাদেশ",,বাংলাদেশ,রাজশাহী বিভাগ,street,,,,Bangladesh,Rajshahi,Sirajganj,Belkuchi,Bhangabari,2afa2715215fb395e3b5783ecc5c7b3f
409216441.0,893cf5644cbffff,24.316317176424725,89.64725626693101,Chowbari to bolorampur road,,"Chowbari to bolorampur road, Sirajganj District, Rajshahi Division, Bangladesh","চৌবাড়ী থেকে বোলোরামপুর রোড, সিরাজগঞ্জ জেলা, রাজশাহী বিভাগ, বাংলাদেশ",,বাংলাদেশ,রাজশাহী বিভাগ,street,,,,Bangladesh,Rajshahi,Sirajganj,Kamarkhanda,RoyDaulatpur,f472a2fd53eae9aee46434744507b51f
347676471.0,893cf56408bffff,24.30848754610136,89.67100015337633,Adachaki to Dokhhin Baniagati Road,,"Adachaki to Dokhhin Baniagati Road, Sirajganj District, Rajshahi Division, Bangladesh","আদাচি থেকে ডকখিন বানিয়াগাতি রোড, সিরাজগঞ্জ জেলা, রাজশাহী বিভাগ, বাংলাদেশ",,বাংলাদেশ,রাজশাহী বিভাগ,street,,,,Bangladesh,Rajshahi,Sirajganj,Belkuchi,Bhangabari,2afa2715215fb395e3b5783ecc5c7b3f
497994448.0,893cf50c987ffff,24.53197747,89.51155514,Sholo Mile Masjid,['ষোল মাইল মসজিদ'],"Sholo Mile Masjid, Raiganj, Sirajganj District, Rajshahi Division, Bangladesh","শোলো মাইল মসজিদ, সিরাজগঞ্জ জেলা, রাজশাহী বিভাগ, বাংলাদেশ",Raiganj,বাংলাদেশ,রাজশাহী বিভাগ,local_admin,boundaries,['place_of_worship_muslim'],[],Bangladesh,Rajshahi,Sirajganj,Royganj,Chandaikona,45bd97eb56a0d9801d9c91657a3d4043
516985437.0,893cf56f373ffff,24.13114624,89.58590245,,,"Shahjadpur, Sirajganj District, Rajshahi Division, Bangladesh","সিরাজগঞ্জ জেলা, রাজশাহী বিভাগ, বাংলাদেশ",Shahjadpur,বাংলাদেশ,রাজশাহী বিভাগ,local_admin,boundaries,['islet'],[],Bangladesh,Rajshahi,Sirajganj,Shahjadpur,Potajia,67027532022ecf5c320a9da1614378b8
516990160.0,893cf56f303ffff,24.13739945,89.5863705,ডাচ-বাংলা ব্যাংক লিমিটেড এটিএম,['Dutch-Bangla Bank Limited ATM'],"Dutch-Bangla Bank Ltd ATM, Shahjadpur, Sirajganj District, Rajshahi Division, Bangladesh","ডাচ-বাংলা ব্যাংক লিমিটেড এটিএম, সিরাজগঞ্জ জেলা, রাজশাহী বিভাগ, বাংলাদেশ",Shahjadpur,বাংলাদেশ,রাজশাহী বিভাগ,local_admin,boundaries,['bank'],[],Bangladesh,Rajshahi,Sirajganj,Shahjadpur,Potajia,67027532022ecf5c320a9da1614378b8
516990164.0,893cf56f303ffff,24.13719358,89.58623749,ইসলামী ব্যাংক বাংলাদেশ লিমিটেড এটিএম,['Islami Bank Bangladesh Limited ATM'],"Islami Bank Bangladesh Limited ATM, Shahjadpur, Sirajganj District, Rajshahi Division, Bangladesh","ইসলামী ব্যাংক বাংলাদেশ লিমিটেড এটিএম, সিরাজগঞ্জ জেলা, রাজশাহী বিভাগ, বাংলাদেশ",Shahjadpur,বাংলাদেশ,রাজশাহী বিভাগ,local_admin,boundaries,['bank'],[],Bangladesh,Rajshahi,Sirajganj,Shahjadpur,Potajia,67027532022ecf5c320a9da1614378b8
516999759.0,893cf56f303ffff,24.136488,89.5851558,সোনালী ব্যাংক লিমিটেড,['Sonali Bank Limited'],"Sonali Bank Limited, Shahjadpur, Sirajganj District, Rajshahi Division, Bangladesh","সোনালী ব্যাংক লিমিটেড, সিরাজগঞ্জ জেলা, রাজশাহী বিভাগ, বাংলাদেশ",Shahjadpur,বাংলাদেশ,রাজশাহী বিভাগ,local_admin,boundaries,['bank'],[],Bangladesh,Rajshahi,Sirajganj,Shahjadpur,Potajia,67027532022ecf5c320a9da1614378b8
517594650.0,893cf56e20bffff,24.1768496,89.596694,Kali Mondir,,"Kali Mondir, Shahjadpur, Sirajganj District, Rajshahi Division, Bangladesh","কালী মন্ডির, সিরাজগঞ্জ জেলা, রাজশাহী বিভাগ, বাংলাদেশ",Shahjadpur,বাংলাদেশ,রাজশাহী বিভাগ,local_admin,boundaries,['place_of_worship'],[],Bangladesh,Rajshahi,Sirajganj,Shahjadpur,ShahjadpurPaurashava,016f08061f51ea5471b86a38b4e6867e
517596039.0,893cf562943ffff,24.3080639,89.56277445,Shyamoli Para Bus Stop শ্যামলী পাড়া,,"Shyamoli Para Bus Stop, Ullapara, Sirajganj District, Rajshahi Division, Bangladesh","শ্যামলী পাড়া, সিরাজগঞ্জ জেলা, রাজশাহী বিভাগ, বাংলাদেশ",Ullapara,বাংলাদেশ,রাজশাহী বিভাগ,local_admin,boundaries,['ticket'],[],Bangladesh,Rajshahi,Sirajganj,UllahPara,UllahPara,5f9ff64e7570c3ace44f23be862f3f13
517596047.0,893cf562957ffff,24.30975043,89.56256489,Ullapara Eye Clinic And Hospital,,"Ullapara Eye Clinic And Hospital, Ullapara, Sirajganj District, Rajshahi Division, Bangladesh","উলাপার আই ক্লিনিক এবং হাসপাতাল, সিরাজগঞ্জ জেলা, রাজশাহী বিভাগ, বাংলাদেশ",Ullapara,বাংলাদেশ,রাজশাহী বিভাগ,local_admin,boundaries,['hospital'],[],Bangladesh,Rajshahi,Sirajganj,UllahPara,UllahPara,5f9ff64e7570c3ace44f23be862f3f13
517619164.0,893cf56e20bffff,24.17726445,89.5955669,Choyani Para Two Dome Jame Mosque,,"Choyani Para Two Dome Jame Mosque, Shahjadpur, Sirajganj District, Rajshahi Division, Bangladesh","চয়ানি প্যারা দুই গম্বুজ জামে মসজিদ, সিরাজগঞ্জ জেলা, রাজশাহী বিভাগ, বাংলাদেশ",Shahjadpur,বাংলাদেশ,রাজশাহী বিভাগ,local_admin,boundaries,['place_of_worship_muslim'],[],Bangladesh,Rajshahi,Sirajganj,Shahjadpur,ShahjadpurPaurashava,016f08061f51ea5471b86a38b4e6867e
517619177.0,893cf56e257ffff,24.1771821,89.5946743,"ডাচ-বাংলা ব্যাংক এজেন্ট ব্যাংক, রবি ব্যবসায়ী","['Dutch Bangla Bank Agent Bank,Rabby Traders']","Dutch-Bangla Bank Agent Banking Robi businessman, Shahjadpur, Sirajganj District, Rajshahi Division, Bangladesh","ডাচ-বাংলা ব্যাংক এজেন্ট ব্যাংক রবি ব্যবসায়ী, সিরাজগঞ্জ জেলা, রাজশাহী বিভাগ, বাংলাদেশ",Shahjadpur,বাংলাদেশ,রাজশাহী বিভাগ,local_admin,boundaries,['bank'],[],Bangladesh,Rajshahi,Sirajganj,Shahjadpur,ShahjadpurPaurashava,016f08061f51ea5471b86a38b4e6867e
517619186.0,893cf56e257ffff,24.1775173,89.5944969,সোনালী ব্যাংক লিমিটেড,['Sonali Bank Limited'],"Sonali Bank Limited, Shahjadpur, Sirajganj District, Rajshahi Division, Bangladesh","সোনালী ব্যাংক লিমিটেড, সিরাজগঞ্জ জেলা, রাজশাহী বিভাগ, বাংলাদেশ",Shahjadpur,বাংলাদেশ,রাজশাহী বিভাগ,local_admin,boundaries,['bank'],[],Bangladesh,Rajshahi,Sirajganj,Shahjadpur,ShahjadpurPaurashava,016f08061f51ea5471b86a38b4e6867e
518293971.0,893cf574c0fffff,24.42141384,89.59954417,Banglo-1 (PGCL),,"Banglo-1 PGCL, Sirajganj District, Rajshahi Division, Bangladesh","বাংলো -১ পিজিসিএল, সিরাজগঞ্জ জেলা, রাজশাহী বিভাগ, বাংলাদেশ",,বাংলাদেশ,রাজশাহী বিভাগ,admin2,boundaries,['hotel'],[],Bangladesh,Rajshahi,Sirajganj,Royganj,Nalka,2d6ca154e06d44a419404e821fbf0bac
518293972.0,893cf574c0fffff,24.42127515,89.59963955,Banglo-2 (PGCL-2),,"Banglo-2 PGCL-2, Sirajganj District, Rajshahi Division, Bangladesh","বাংলো -২ পিজিসিএল -২, সিরাজগঞ্জ জেলা, রাজশাহী বিভাগ, বাংলাদেশ",,বাংলাদেশ,রাজশাহী বিভাগ,admin2,boundaries,['hotel'],[],Bangladesh,Rajshahi,Sirajganj,Royganj,Nalka,2d6ca154e06d44a419404e821fbf0bac
519047582.0,893cf56e257ffff,24.17595679,89.59340924,ঢাকা ব্যাংক লিমিটেড,['Dhaka Bank Limited'],"Dhaka Bank Limited, Shahjadpur, Sirajganj District, Rajshahi Division, Bangladesh","ঢাকা ব্যাংক লিমিটেড, সিরাজগঞ্জ জেলা, রাজশাহী বিভাগ, বাংলাদেশ",Shahjadpur,বাংলাদেশ,রাজশাহী বিভাগ,local_admin,boundaries,['bank'],[],Bangladesh,Rajshahi,Sirajganj,Shahjadpur,ShahjadpurPaurashava,016f08061f51ea5471b86a38b4e6867e
519294102.0,893cf56e247ffff,24.17618295,89.59438224,আল-আরাফাহ্ ইসলামী ব্যাংক লিমিটেড,['Al-Arafah Islami Bank Limited'],"Al-Arafah Islami Bank Limited, Shahjadpur, Sirajganj District, Rajshahi Division, Bangladesh","আল-আরাফাহ্ ইসলামী ব্যাংক লিমিটেড, সিরাজগঞ্জ জেলা, রাজশাহী বিভাগ, বাংলাদেশ",Shahjadpur,বাংলাদেশ,রাজশাহী বিভাগ,local_admin,boundaries,['bank'],[],Bangladesh,Rajshahi,Sirajganj,Shahjadpur,ShahjadpurPaurashava,016f08061f51ea5471b86a38b4e6867e
519295751.0,893cf56e247ffff,24.17620091,89.59526274,College Mosjid,,"College Mosjid, Shahjadpur, Sirajganj District, Rajshahi Division, Bangladesh","কলেজ মোসজিড, সিরাজগঞ্জ জেলা, রাজশাহী বিভাগ, বাংলাদেশ",Shahjadpur,বাংলাদেশ,রাজশাহী বিভাগ,local_admin,boundaries,['place_of_worship_muslim'],[],Bangladesh,Rajshahi,Sirajganj,Shahjadpur,ShahjadpurPaurashava,016f08061f51ea5471b86a38b4e6867e
519302817.0,893cf56e20bffff,24.17682538,89.59542689,Foysal Cafe ফয়সাল ক্যাফে,,"Foysal Cafe, Shahjadpur, Sirajganj District, Rajshahi Division, Bangladesh","ফয়সাল ক্যাফে, সিরাজগঞ্জ জেলা, রাজশাহী বিভাগ, বাংলাদেশ",Shahjadpur,বাংলাদেশ,রাজশাহী বিভাগ,local_admin,boundaries,['cafe'],[],Bangladesh,Rajshahi,Sirajganj,Shahjadpur,ShahjadpurPaurashava,016f08061f51ea5471b86a38b4e6867e
