osm_id,h3level9,lat,lon,name,alt_names,name_en,name_bn,local_admin_name,admin0_name,admin2_name,addr_level,poi_addr_match,poi_class,poi_keywords,country,division,district,thana,union,region_hash
4712024280.0,893ce235103ffff,25.0490654,90.9923328,Madhyanagar Bazar Post Office,,"Madhyanagar Bazar Post Office, Sunamganj District, Sylhet Division, Bangladesh","মধ্যযানগর বাজার ডাকঘর, সুনামগঞ্জ জেলা, সিলেট বিভাগ, বাংলাদেশ",,বাংলাদেশ,সিলেট বিভাগ,admin2,boundaries,['post_office'],[],Bangladesh,Sylhet,Sunamganj,Dharampasha,Madhyanagar,dba8eaff94791f8004eadb415132018e
5224266416.0,893ce22198fffff,24.8981652,91.0133229,Dharmapasha Bazar,,"Dharmapasha Bazar, Sunamganj District, Sylhet Division, Bangladesh","ধর্মপাশ বাজর, সুনামগঞ্জ জেলা, সিলেট বিভাগ, বাংলাদেশ",,বাংলাদেশ,সিলেট বিভাগ,admin2,boundaries,['variety_store'],[],Bangladesh,Sylhet,Sunamganj,Dharampasha,Dharmapasha,7e6dec982d9ffc8da70398cbf229ecd0
5224270880.0,893ce2219bbffff,24.8994151,91.0183999,,,"Sunamganj District, Sylhet Division, Bangladesh","সুনামগঞ্জ জেলা, সিলেট বিভাগ, বাংলাদেশ",,বাংলাদেশ,সিলেট বিভাগ,admin2,boundaries,['atm'],[],Bangladesh,Sylhet,Sunamganj,Dharampasha,Dharmapasha,7e6dec982d9ffc8da70398cbf229ecd0
5224281085.0,893ce2254a7ffff,24.9580796,91.0861811,Ferry Ghat,,"Ferry Ghat, Sunamganj District, Sylhet Division, Bangladesh","ফেরি ঘাট, সুনামগঞ্জ জেলা, সিলেট বিভাগ, বাংলাদেশ",,বাংলাদেশ,সিলেট বিভাগ,admin2,boundaries,['ferry_terminal'],[],Bangladesh,Sylhet,Sunamganj,Dharampasha,Joysree,1961cdd3d0883292198d0fb74a1f7ab6
6124526826.0,893ce234e27ffff,25.0849819,91.0615379,Shorif pur primary school,['logic_undp'],"Shorif pur primary school, Tahirpur, Sunamganj District, Sylhet Division, Bangladesh","শরিফ পুর প্রাথমিক বিদ্যালয়, সুনামগঞ্জ জেলা, সিলেট বিভাগ, বাংলাদেশ",Tahirpur,বাংলাদেশ,সিলেট বিভাগ,local_admin,boundaries,['school'],[],Bangladesh,Sylhet,Sunamganj,Tahirpur,DakshinSreepur,6b72da866ae3956d6516ccbbc62b3f3e
6124526827.0,893ce234e37ffff,25.0870661,91.0581851,Durlobpur Government Primary School,['logic_undp'],"Durlobpur Government Primary School, Tahirpur, Sunamganj District, Sylhet Division, Bangladesh","দুর্লোবপুর সরকারী প্রাথমিক বিদ্যালয়, সুনামগঞ্জ জেলা, সিলেট বিভাগ, বাংলাদেশ",Tahirpur,বাংলাদেশ,সিলেট বিভাগ,local_admin,boundaries,['school'],[],Bangladesh,Sylhet,Sunamganj,Tahirpur,DakshinSreepur,6b72da866ae3956d6516ccbbc62b3f3e
6124526828.0,893ce234c73ffff,25.0986916,91.0562995,"Mahmud pur government primay school,West para","['logic_undp', 'Sudden flood']","Mahmud pur government primay school West para, Tahirpur, Sunamganj District, Sylhet Division, Bangladesh","মাহমুদ পুর সরকার প্রাথমিক বিদ্যালয় পশ্চিম প্যারা, সুনামগঞ্জ জেলা, সিলেট বিভাগ, বাংলাদেশ",Tahirpur,বাংলাদেশ,সিলেট বিভাগ,local_admin,boundaries,['school'],[],Bangladesh,Sylhet,Sunamganj,Tahirpur,DakshinSreepur,6b72da866ae3956d6516ccbbc62b3f3e
6124526829.0,893ce234c73ffff,25.0998478,91.0579652,Mahmud pur government primay school,"['logic_undp', 'Sudden flood']","Mahmud pur government primay school, Tahirpur, Sunamganj District, Sylhet Division, Bangladesh","মাহমুদ পুর সরকার প্রাথমিক বিদ্যালয়, সুনামগঞ্জ জেলা, সিলেট বিভাগ, বাংলাদেশ",Tahirpur,বাংলাদেশ,সিলেট বিভাগ,local_admin,boundaries,['school'],[],Bangladesh,Sylhet,Sunamganj,Tahirpur,DakshinSreepur,6b72da866ae3956d6516ccbbc62b3f3e
6124739363.0,893ce234e27ffff,25.084994,91.0611945,Shorif pur Kali Mondir,['logic_undp'],"Shorif pur Kali Mondir, Tahirpur, Sunamganj District, Sylhet Division, Bangladesh","শরিফ পুর কালী মন্ডির, সুনামগঞ্জ জেলা, সিলেট বিভাগ, বাংলাদেশ",Tahirpur,বাংলাদেশ,সিলেট বিভাগ,local_admin,boundaries,['place_of_worship'],[],Bangladesh,Sylhet,Sunamganj,Tahirpur,DakshinSreepur,6b72da866ae3956d6516ccbbc62b3f3e
6124739364.0,893ce234e37ffff,25.0870698,91.0581891,Durlobpur Jame Mosque,['logic_undp'],"Durlobpur Jame Mosque, Tahirpur, Sunamganj District, Sylhet Division, Bangladesh","দুর্লোবপুর জামে মসজিদ, সুনামগঞ্জ জেলা, সিলেট বিভাগ, বাংলাদেশ",Tahirpur,বাংলাদেশ,সিলেট বিভাগ,local_admin,boundaries,['place_of_worship_muslim'],[],Bangladesh,Sylhet,Sunamganj,Tahirpur,DakshinSreepur,6b72da866ae3956d6516ccbbc62b3f3e
6124739365.0,893ce234c73ffff,25.0987147,91.0561319,Mahmud pur puran Jame Mosque,['logic_undp'],"Mahmud pur puran Jame Mosque, Tahirpur, Sunamganj District, Sylhet Division, Bangladesh","মাহমুদ পুর পুরান জামে মসজিদ, সুনামগঞ্জ জেলা, সিলেট বিভাগ, বাংলাদেশ",Tahirpur,বাংলাদেশ,সিলেট বিভাগ,local_admin,boundaries,['place_of_worship_muslim'],[],Bangladesh,Sylhet,Sunamganj,Tahirpur,DakshinSreepur,6b72da866ae3956d6516ccbbc62b3f3e
6124739366.0,893ce234c63ffff,25.0994786,91.0582615,Mahbub pur Jame Mosque,"['logic_undp', 'Sudden flood']","Mahbub pur Jame Mosque, Tahirpur, Sunamganj District, Sylhet Division, Bangladesh","মাহবুব পুর জামে মসজিদ, সুনামগঞ্জ জেলা, সিলেট বিভাগ, বাংলাদেশ",Tahirpur,বাংলাদেশ,সিলেট বিভাগ,local_admin,boundaries,['place_of_worship_muslim'],[],Bangladesh,Sylhet,Sunamganj,Tahirpur,DakshinSreepur,6b72da866ae3956d6516ccbbc62b3f3e
9838012398.0,893ce234947ffff,25.0905908,91.0975277,,,"Tahirpur, Sunamganj District, Sylhet Division, Bangladesh","সুনামগঞ্জ জেলা, সিলেট বিভাগ, বাংলাদেশ",Tahirpur,বাংলাদেশ,সিলেট বিভাগ,local_admin,boundaries,['ford'],[],Bangladesh,Sylhet,Sunamganj,Tahirpur,DakshinSreepur,6b72da866ae3956d6516ccbbc62b3f3e
9838037226.0,893ce2349dbffff,25.0962554,91.0839099,,,"Tahirpur, Sunamganj District, Sylhet Division, Bangladesh","সুনামগঞ্জ জেলা, সিলেট বিভাগ, বাংলাদেশ",Tahirpur,বাংলাদেশ,সিলেট বিভাগ,local_admin,boundaries,['ford'],[],Bangladesh,Sylhet,Sunamganj,Tahirpur,DakshinSreepur,6b72da866ae3956d6516ccbbc62b3f3e
9838051098.0,893ce234957ffff,25.0922134,91.0924262,,,"Tahirpur, Sunamganj District, Sylhet Division, Bangladesh","সুনামগঞ্জ জেলা, সিলেট বিভাগ, বাংলাদেশ",Tahirpur,বাংলাদেশ,সিলেট বিভাগ,local_admin,boundaries,['ford'],[],Bangladesh,Sylhet,Sunamganj,Tahirpur,DakshinSreepur,6b72da866ae3956d6516ccbbc62b3f3e
9843372892.0,893ce3d92abffff,25.1776037,91.0091309,,,"Sunamganj District, Sylhet Division, Bangladesh","সুনামগঞ্জ জেলা, সিলেট বিভাগ, বাংলাদেশ",,বাংলাদেশ,সিলেট বিভাগ,admin2,boundaries,['ford'],[],Bangladesh,Sylhet,Sunamganj,Dharampasha,UttarBangshikunda,ec57a59970f3ff411b006c3ed16feb22
9848677978.0,893ce234553ffff,25.1102861,91.0032127,,,"Sunamganj District, Sylhet Division, Bangladesh","সুনামগঞ্জ জেলা, সিলেট বিভাগ, বাংলাদেশ",,বাংলাদেশ,সিলেট বিভাগ,admin2,boundaries,['ford'],[],Bangladesh,Sylhet,Sunamganj,Dharampasha,DakshinBongshikunda,e3cf394e0841aad4629ebdc89470e523
539953584.0,893ce22198fffff,24.89876064,91.01524943,Hotel Khalek হোটেল খালেক,,"Hotel Khalek, Sunamganj District, Sylhet Division, Bangladesh","হোটেল খালেক, সুনামগঞ্জ জেলা, সিলেট বিভাগ, বাংলাদেশ",,বাংলাদেশ,সিলেট বিভাগ,admin2,boundaries,['hotel'],[],Bangladesh,Sylhet,Sunamganj,Dharampasha,Dharmapasha,7e6dec982d9ffc8da70398cbf229ecd0
539953870.0,893ce2219bbffff,24.89981617,91.01976359,বাংলাদেশ কৃষি ব্যাংক,['Bangladesh Krishi Bank'],"Bangladesh Agricultural Bank, Sunamganj District, Sylhet Division, Bangladesh","বাংলাদেশ কৃষি ব্যাংক, সুনামগঞ্জ জেলা, সিলেট বিভাগ, বাংলাদেশ",,বাংলাদেশ,সিলেট বিভাগ,admin2,boundaries,['bank'],[],Bangladesh,Sylhet,Sunamganj,Dharampasha,Dharmapasha,7e6dec982d9ffc8da70398cbf229ecd0
539953982.0,893ce22e487ffff,24.90749191,91.04081009,Mohodipur bazar,,"Mohodipur bazar, Sunamganj District, Sylhet Division, Bangladesh","মোহোদীপুর বাজার, সুনামগঞ্জ জেলা, সিলেট বিভাগ, বাংলাদেশ",,বাংলাদেশ,সিলেট বিভাগ,admin2,boundaries,['marketplace'],[],Bangladesh,Sylhet,Sunamganj,Dharampasha,Dharmapasha,7e6dec982d9ffc8da70398cbf229ecd0
653504841.0,893ce3cb257ffff,25.11458726,91.09907803,Dc Park,['logic_undp'],"Dc Park, Tahirpur, Sunamganj District, Sylhet Division, Bangladesh","ডিসি পার্ক, সুনামগঞ্জ জেলা, সিলেট বিভাগ, বাংলাদেশ",Tahirpur,বাংলাদেশ,সিলেট বিভাগ,local_admin,boundaries,['park'],[],Bangladesh,Sylhet,Sunamganj,Tahirpur,UttarSreepur,d4fc9b7aab742333597209f6bc0b524c
653532539.0,893ce234c77ffff,25.09952785,91.05998998,Mahmud pur Cemeteries,['logic_undp'],"Mahmud pur Cemeteries, Tahirpur, Sunamganj District, Sylhet Division, Bangladesh","মাহমুদ পুর কবরস্থান, সুনামগঞ্জ জেলা, সিলেট বিভাগ, বাংলাদেশ",Tahirpur,বাংলাদেশ,সিলেট বিভাগ,local_admin,boundaries,['cemetery'],[],Bangladesh,Sylhet,Sunamganj,Tahirpur,DakshinSreepur,6b72da866ae3956d6516ccbbc62b3f3e
1071939108.0,893ce226413ffff,25.0562717,91.0816168,,,"Sunamganj District, Sylhet Division, Bangladesh","সুনামগঞ্জ জেলা, সিলেট বিভাগ, বাংলাদেশ",,বাংলাদেশ,সিলেট বিভাগ,admin2,boundaries,['ford'],[],Bangladesh,Sylhet,Sunamganj,Dharampasha,Chamardani,0cd06fae2265b6daa547c7767b65e4ce
1081725501.0,893ce22521bffff,24.91146315,91.0860552,,,"Sunamganj District, Sylhet Division, Bangladesh","সুনামগঞ্জ জেলা, সিলেট বিভাগ, বাংলাদেশ",,বাংলাদেশ,সিলেট বিভাগ,admin2,boundaries,['ford'],[],Bangladesh,Sylhet,Sunamganj,Dharampasha,Dharmapasha,7e6dec982d9ffc8da70398cbf229ecd0
1081725503.0,893ce22521bffff,24.91251955,91.08727365,,,"Sunamganj District, Sylhet Division, Bangladesh","সুনামগঞ্জ জেলা, সিলেট বিভাগ, বাংলাদেশ",,বাংলাদেশ,সিলেট বিভাগ,admin2,boundaries,['ford'],[],Bangladesh,Sylhet,Sunamganj,Dharampasha,Dharmapasha,7e6dec982d9ffc8da70398cbf229ecd0
9843372882.0,893ce3d92d7ffff,25.1762747,90.9974937,,,"Sunamganj District, Sylhet Division, Bangladesh","সুনামগঞ্জ জেলা, সিলেট বিভাগ, বাংলাদেশ",,বাংলাদেশ,সিলেট বিভাগ,admin2,boundaries,['ford'],[],Bangladesh,Sylhet,Sunamganj,Dharampasha,UttarBangshikunda,ec57a59970f3ff411b006c3ed16feb22
9848677932.0,893ce234433ffff,25.1080761,90.9936604,,,"Sunamganj District, Sylhet Division, Bangladesh","সুনামগঞ্জ জেলা, সিলেট বিভাগ, বাংলাদেশ",,বাংলাদেশ,সিলেট বিভাগ,admin2,boundaries,['ford'],[],Bangladesh,Sylhet,Sunamganj,Dharampasha,DakshinBongshikunda,e3cf394e0841aad4629ebdc89470e523
9887597904.0,893ce222507ffff,25.0162846,90.9408761,,,"Sunamganj District, Sylhet Division, Bangladesh","সুনামগঞ্জ জেলা, সিলেট বিভাগ, বাংলাদেশ",,বাংলাদেশ,সিলেট বিভাগ,admin2,boundaries,['ford'],[],Bangladesh,Sylhet,Sunamganj,Dharampasha,Madhyanagar,dba8eaff94791f8004eadb415132018e
9887597905.0,893ce222517ffff,25.0166597,90.9388356,,,"Sunamganj District, Sylhet Division, Bangladesh","সুনামগঞ্জ জেলা, সিলেট বিভাগ, বাংলাদেশ",,বাংলাদেশ,সিলেট বিভাগ,admin2,boundaries,['ford'],[],Bangladesh,Sylhet,Sunamganj,Dharampasha,Madhyanagar,dba8eaff94791f8004eadb415132018e
442763622.0,893ce2351a3ffff,25.056203016211505,90.99793123852278,Dharmapasha Tahirpur Rd,,"Dharmapasha Tahirpur Rd, Sunamganj District, Sylhet Division, Bangladesh","ধর্মাপশা তাহিরপুর আরডি, সুনামগঞ্জ জেলা, সিলেট বিভাগ, বাংলাদেশ",,বাংলাদেশ,সিলেট বিভাগ,street,,,,Bangladesh,Sylhet,Sunamganj,Dharampasha,Madhyanagar,dba8eaff94791f8004eadb415132018e
653559248.0,893ce234e37ffff,25.08695119010882,91.05852998899113,kacha road from Durlobpur Manik's house to Shofikul's house,"['logic_undp', 'Sudden flood']","kacha road from Durlobpur Manik's house to Shofikul's house, Tahirpur, Sunamganj District, Sylhet Division, Bangladesh","দুর্লোবপুর মনিকের বাড়ি থেকে শোফিকুলের বাড়ি পর্যন্ত কাচা রোড, সুনামগঞ্জ জেলা, সিলেট বিভাগ, বাংলাদেশ",Tahirpur,বাংলাদেশ,সিলেট বিভাগ,street,,,,Bangladesh,Sylhet,Sunamganj,Tahirpur,DakshinSreepur,6b72da866ae3956d6516ccbbc62b3f3e
653559249.0,893ce234c7bffff,25.098020384406308,91.05593425867276,Mahmud pur theke UP porjonto pucca road,['logic_undp'],"Mahmud pur theke UP porjonto pucca road, Tahirpur, Sunamganj District, Sylhet Division, Bangladesh","মাহমুদ পুর থেক আপ পোরজান্টো পুকা রোড, সুনামগঞ্জ জেলা, সিলেট বিভাগ, বাংলাদেশ",Tahirpur,বাংলাদেশ,সিলেট বিভাগ,street,,,,Bangladesh,Sylhet,Sunamganj,Tahirpur,DakshinSreepur,6b72da866ae3956d6516ccbbc62b3f3e
232597962.0,893ce2255a3ffff,24.96436835664091,91.10639513535888,Mymensingh-Sunamganj Road,,"Mymensingh-Sunamganj Road, Sunamganj District, Sylhet Division, Bangladesh","মাইমেনসিংহ-সুনামগঞ্জ রোড, সুনামগঞ্জ জেলা, সিলেট বিভাগ, বাংলাদেশ",,বাংলাদেশ,সিলেট বিভাগ,street,,,,Bangladesh,Sylhet,Sunamganj,Dharampasha,UttarSukhairRajapur,cb2cb627f03b77d6458b357e58c80e37
3642855940.0,893ce235a9bffff,25.02581,91.0229961,Chamardani,,"Chamardani, Sunamganj District, Sylhet Division, Bangladesh","চামার্দানি, সুনামগঞ্জ জেলা, সিলেট বিভাগ, বাংলাদেশ",,বাংলাদেশ,সিলেট বিভাগ,locality,,,,Bangladesh,Sylhet,Sunamganj,Dharampasha,Chamardani,0cd06fae2265b6daa547c7767b65e4ce
3642846288.0,893ce3d927bffff,25.1637201,91.0081146,Uttar Bangshikunda,,"Uttar Bangshikunda, Sunamganj District, Sylhet Division, Bangladesh","উত্তর ব্যাঙ্গশিকুন্ডা, সুনামগঞ্জ জেলা, সিলেট বিভাগ, বাংলাদেশ",,বাংলাদেশ,সিলেট বিভাগ,locality,,,,Bangladesh,Sylhet,Sunamganj,Dharampasha,UttarBangshikunda,ec57a59970f3ff411b006c3ed16feb22
3642843366.0,893ce227307ffff,24.9734838,91.0879761,Joysree,,"Joysree, Sunamganj District, Sylhet Division, Bangladesh","আনন্দ, সুনামগঞ্জ জেলা, সিলেট বিভাগ, বাংলাদেশ",,বাংলাদেশ,সিলেট বিভাগ,locality,,,,Bangladesh,Sylhet,Sunamganj,Dharampasha,Joysree,1961cdd3d0883292198d0fb74a1f7ab6
4712024278.0,893ce235ebbffff,25.0395202,91.0115596,Tapirkona,,"Tapirkona, Sunamganj District, Sylhet Division, Bangladesh","তপিরকোনা, সুনামগঞ্জ জেলা, সিলেট বিভাগ, বাংলাদেশ",,বাংলাদেশ,সিলেট বিভাগ,locality,,,,Bangladesh,Sylhet,Sunamganj,Dharampasha,Chamardani,0cd06fae2265b6daa547c7767b65e4ce
3642843361.0,893ce22094bffff,24.934632,91.0467111,Dharmapasha,,"Dharmapasha, Sunamganj District, Sylhet Division, Bangladesh","ধর্মাপশা, সুনামগঞ্জ জেলা, সিলেট বিভাগ, বাংলাদেশ",,বাংলাদেশ,সিলেট বিভাগ,locality,,,,Bangladesh,Sylhet,Sunamganj,Dharampasha,Dharmapasha,7e6dec982d9ffc8da70398cbf229ecd0
9139175173.0,893ce2219d7ffff,24.8961259,91.0087839,ধর্মপাশা,"['ধর্মপাশা', 'Dharmapasha']","Religion, Dharmapasha, Sunamganj District, Sylhet Division, Bangladesh","ধর্মপাশা, সুনামগঞ্জ জেলা, সিলেট বিভাগ, বাংলাদেশ",,বাংলাদেশ,সিলেট বিভাগ,locality,,,,Bangladesh,Sylhet,Sunamganj,Dharampasha,Dharmapasha,7e6dec982d9ffc8da70398cbf229ecd0
3642855954.0,893ce222873ffff,24.9844347,91.0018002,Palkurati,,"Palkurati, Sunamganj District, Sylhet Division, Bangladesh","পালকুরতী, সুনামগঞ্জ জেলা, সিলেট বিভাগ, বাংলাদেশ",,বাংলাদেশ,সিলেট বিভাগ,locality,,,,Bangladesh,Sylhet,Sunamganj,Dharampasha,Paikurati,0c3733b854939e6d70119bca4c54d0b4
3642846279.0,893ce23440bffff,25.1054019,90.9854449,Dakshin Bangshikunda,,"Dakshin Bangshikunda, Sunamganj District, Sylhet Division, Bangladesh","দক্ষিণদীন ব্যাঙ্গশিকুন্ডা, সুনামগঞ্জ জেলা, সিলেট বিভাগ, বাংলাদেশ",,বাংলাদেশ,সিলেট বিভাগ,locality,,,,Bangladesh,Sylhet,Sunamganj,Dharampasha,DakshinBongshikunda,e3cf394e0841aad4629ebdc89470e523
4712024279.0,893ce235103ffff,25.0494051,90.9934846,Madhyanagar Bazar,,"Madhyanagar Bazar, Sunamganj District, Sylhet Division, Bangladesh","মধ্যযানগর বাজার, সুনামগঞ্জ জেলা, সিলেট বিভাগ, বাংলাদেশ",,বাংলাদেশ,সিলেট বিভাগ,locality,,,,Bangladesh,Sylhet,Sunamganj,Dharampasha,Madhyanagar,dba8eaff94791f8004eadb415132018e
3642857275.0,893ce220383ffff,24.9308815,90.9761787,Selhorash,,"Selhorash, Sunamganj District, Sylhet Division, Bangladesh","সেলহোরাশ, সুনামগঞ্জ জেলা, সিলেট বিভাগ, বাংলাদেশ",,বাংলাদেশ,সিলেট বিভাগ,locality,,,,Bangladesh,Sylhet,Sunamganj,Dharampasha,Selborash,2002126bf330bff45f8d92fef704f733
3642846284.0,893ce2351c3ffff,25.0496993,90.9820782,Madhyanagar,,"Madhyanagar, Sunamganj District, Sylhet Division, Bangladesh","মধ্যযানগর, সুনামগঞ্জ জেলা, সিলেট বিভাগ, বাংলাদেশ",,বাংলাদেশ,সিলেট বিভাগ,locality,,,,Bangladesh,Sylhet,Sunamganj,Dharampasha,Madhyanagar,dba8eaff94791f8004eadb415132018e
2332856931.0,893ce3c9c57ffff,25.0979172,91.1854831,Tahirpur Upazila Health Complex,['logic_undp'],"Tahirpur Upazila Health Complex, Tahirpur, Sunamganj District, Sylhet Division, Bangladesh","তাহিরপুর উপজিলা স্বাস্থ্য কমপ্লেক্স, সুনামগঞ্জ জেলা, সিলেট বিভাগ, বাংলাদেশ",Tahirpur,বাংলাদেশ,সিলেট বিভাগ,local_admin,boundaries,['hospital'],[],Bangladesh,Sylhet,Sunamganj,Tahirpur,Tahirpur,f1ecf83e6fb4b6c142553e322eec0698
2332856859.0,893ce3cd24fffff,25.1014026,91.3039972,,,"Bishwambarpur, Sunamganj District, Sylhet Division, Bangladesh","সুনামগঞ্জ জেলা, সিলেট বিভাগ, বাংলাদেশ",Bishwambarpur,বাংলাদেশ,সিলেট বিভাগ,local_admin,boundaries,['hospital'],[],Bangladesh,Sylhet,Sunamganj,Bishwambarpur,Palash,136329d3d646fe87440a9bb3b3258c38
2617281051.0,893ce3508d3ffff,25.0299998,91.3599632,,,"Sunamganj, Sunamganj District, Sylhet Division, Bangladesh","সুনামগঞ্জ জেলা, সিলেট বিভাগ, বাংলাদেশ",Sunamganj,বাংলাদেশ,সিলেট বিভাগ,local_admin,boundaries,['ferry_terminal'],[],Bangladesh,Sylhet,Sunamganj,SunamganjSadar,Gourararang,dbfc7b9a8d5c2d11045a82e7a4d5f7c9
4632059334.0,893ce357627ffff,25.0732857,91.3990791,,,"Sunamganj, Sunamganj District, Sylhet Division, Bangladesh","সুনামগঞ্জ জেলা, সিলেট বিভাগ, বাংলাদেশ",Sunamganj,বাংলাদেশ,সিলেট বিভাগ,local_admin,boundaries,['ferry_terminal'],[],Bangladesh,Sylhet,Sunamganj,SunamganjSadar,Surma,7c9dde5114407a87ea8ada7b77c5607f
4632059339.0,893ce357637ffff,25.0747646,91.3970678,,,"Sunamganj, Sunamganj District, Sylhet Division, Bangladesh","সুনামগঞ্জ জেলা, সিলেট বিভাগ, বাংলাদেশ",Sunamganj,বাংলাদেশ,সিলেট বিভাগ,local_admin,boundaries,['ferry_terminal'],[],Bangladesh,Sylhet,Sunamganj,SunamganjSadar,Surma,7c9dde5114407a87ea8ada7b77c5607f
5103430875.0,893ce357627ffff,25.0715032,91.3990688,DESHBONDHU SWEETS,,"DESHBONDHU SWEETS, Sunamganj, Sunamganj District, Sylhet Division, Bangladesh","দেশবন্দু মিষ্টি, সুনামগঞ্জ জেলা, সিলেট বিভাগ, বাংলাদেশ",Sunamganj,বাংলাদেশ,সিলেট বিভাগ,local_admin,boundaries,['restaurant'],[],Bangladesh,Sylhet,Sunamganj,SunamganjSadar,Surma,7c9dde5114407a87ea8ada7b77c5607f
2332872344.0,893ce2249a7ffff,24.9987899,91.2356038,Jamalganj Upazila Health Complex,,"Jamalganj Upazila Health Complex, Jamalganj, Sunamganj District, Sylhet Division, Bangladesh","জামালগঞ্জ উপজিলা স্বাস্থ্য কমপ্লেক্স, সুনামগঞ্জ জেলা, সিলেট বিভাগ, বাংলাদেশ",Jamalganj,বাংলাদেশ,সিলেট বিভাগ,local_admin,boundaries,['hospital'],[],Bangladesh,Sylhet,Sunamganj,Jamalganj,Jamalganj,0458355502a4c6b24eb61908e5e9e204
3143795901.0,893ce35acbbffff,24.9506321,91.2813261,,,"Jamalganj, Sunamganj District, Sylhet Division, Bangladesh","সুনামগঞ্জ জেলা, সিলেট বিভাগ, বাংলাদেশ",Jamalganj,বাংলাদেশ,সিলেট বিভাগ,local_admin,boundaries,['ford'],[],Bangladesh,Sylhet,Sunamganj,Jamalganj,Vimkhali,94d4e06b2d2875d43bf153d05d5a9c64
4632066869.0,893ce352253ffff,25.0569752,91.2624598,,,"Bishwambarpur, Sunamganj District, Sylhet Division, Bangladesh","সুনামগঞ্জ জেলা, সিলেট বিভাগ, বাংলাদেশ",Bishwambarpur,বাংলাদেশ,সিলেট বিভাগ,local_admin,boundaries,['ferry_terminal'],[],Bangladesh,Sylhet,Sunamganj,Bishwambarpur,Fatehpur,982d0cd2e7f1d613a3d125a9cb7b7acc
5219238348.0,893ce342247ffff,24.9482132,91.3964812,Vai Vai Enterprise,,"Vai Vai Enterprise, Sunamganj, Sunamganj District, Sylhet Division, Bangladesh","ভাই ভাই এন্টারপ্রাইজ, সুনামগঞ্জ জেলা, সিলেট বিভাগ, বাংলাদেশ",Sunamganj,বাংলাদেশ,সিলেট বিভাগ,local_admin,boundaries,['cafe'],[],Bangladesh,Sylhet,Sunamganj,DakshinSunamganj,Joykalas,3c6b44326ece6c6476aeb17458585c6d
4632066870.0,893ce352243ffff,25.0562171,91.2631974,,,"Bishwambarpur, Sunamganj District, Sylhet Division, Bangladesh","সুনামগঞ্জ জেলা, সিলেট বিভাগ, বাংলাদেশ",Bishwambarpur,বাংলাদেশ,সিলেট বিভাগ,local_admin,boundaries,['ferry_terminal'],[],Bangladesh,Sylhet,Sunamganj,Bishwambarpur,Fatehpur,982d0cd2e7f1d613a3d125a9cb7b7acc
5219272266.0,893ce342627ffff,24.9718667,91.39271,Derai Point,,"Derai Point, Sunamganj, Sunamganj District, Sylhet Division, Bangladesh","ডেরাই পয়েন্ট, সুনামগঞ্জ জেলা, সিলেট বিভাগ, বাংলাদেশ",Sunamganj,বাংলাদেশ,সিলেট বিভাগ,local_admin,boundaries,['fuel'],[],Bangladesh,Sylhet,Sunamganj,SunamganjSadar,Lakshmansree,df8fee834ec3655cd41ca43f499df9d3
4632077020.0,893ce353263ffff,25.0039208,91.2376465,,,"Jamalganj, Sunamganj District, Sylhet Division, Bangladesh","সুনামগঞ্জ জেলা, সিলেট বিভাগ, বাংলাদেশ",Jamalganj,বাংলাদেশ,সিলেট বিভাগ,local_admin,boundaries,['ferry_terminal'],[],Bangladesh,Sylhet,Sunamganj,Jamalganj,Jamalganj,0458355502a4c6b24eb61908e5e9e204
5219313645.0,893ce342417ffff,24.9956293,91.3851888,নীলপুর বাজার জামে মসজিদ,,"Nilpur Bazar Jame Mosque, Sunamganj, Sunamganj District, Sylhet Division, Bangladesh","নীলপুর বাজার জামে মসজিদ, সুনামগঞ্জ জেলা, সিলেট বিভাগ, বাংলাদেশ",Sunamganj,বাংলাদেশ,সিলেট বিভাগ,local_admin,boundaries,['place_of_worship_muslim'],[],Bangladesh,Sylhet,Sunamganj,SunamganjSadar,Lakshmansree,df8fee834ec3655cd41ca43f499df9d3
5219321142.0,893ce350d2bffff,25.0472831,91.3887316,B. Baria Restaurant,,"B. Baria Restaurant, Sunamganj, Sunamganj District, Sylhet Division, Bangladesh","বি। বারিয়া রেস্তোঁরা, সুনামগঞ্জ জেলা, সিলেট বিভাগ, বাংলাদেশ",Sunamganj,বাংলাদেশ,সিলেট বিভাগ,local_admin,boundaries,['restaurant'],[],Bangladesh,Sylhet,Sunamganj,SunamganjSadar,Lakshmansree,df8fee834ec3655cd41ca43f499df9d3
5219328308.0,893ce350d23ffff,25.0512203,91.3887661,,,"Sunamganj, Sunamganj District, Sylhet Division, Bangladesh","সুনামগঞ্জ জেলা, সিলেট বিভাগ, বাংলাদেশ",Sunamganj,বাংলাদেশ,সিলেট বিভাগ,local_admin,boundaries,['atm'],[],Bangladesh,Sylhet,Sunamganj,SunamganjSadar,Lakshmansree,df8fee834ec3655cd41ca43f499df9d3
5219328316.0,893ce3572dbffff,25.05554,91.3899329,শ্রী শ্রী শসান কালি মন্দির,,"Sri Sri Sri Sasan Kali Temple, Sunamganj, Sunamganj District, Sylhet Division, Bangladesh","শ্রী শ্রী শসান কালি মন্দির, সুনামগঞ্জ জেলা, সিলেট বিভাগ, বাংলাদেশ",Sunamganj,বাংলাদেশ,সিলেট বিভাগ,local_admin,boundaries,['place_of_worship'],[],Bangladesh,Sylhet,Sunamganj,SunamganjSadar,Lakshmansree,df8fee834ec3655cd41ca43f499df9d3
5219335615.0,893ce3572dbffff,25.0574181,91.3899643,Faija Enterprise Rod & Cement Seller,,"Faija Enterprise Rod & Cement Seller, Sunamganj, Sunamganj District, Sylhet Division, Bangladesh","ফাইজা এন্টারপ্রাইজ রড এবং সিমেন্ট বিক্রেতা, সুনামগঞ্জ জেলা, সিলেট বিভাগ, বাংলাদেশ",Sunamganj,বাংলাদেশ,সিলেট বিভাগ,local_admin,boundaries,['supermarket'],[],Bangladesh,Sylhet,Sunamganj,SunamganjSadar,Lakshmansree,df8fee834ec3655cd41ca43f499df9d3
5219335663.0,893ce3572dbffff,25.0562776,91.3892063,Mallikpur Masjid Market,,"Mallikpur Masjid Market, Sunamganj, Sunamganj District, Sylhet Division, Bangladesh","মল্লিকপুর মসজিদ বাজার, সুনামগঞ্জ জেলা, সিলেট বিভাগ, বাংলাদেশ",Sunamganj,বাংলাদেশ,সিলেট বিভাগ,local_admin,boundaries,['marketplace'],[],Bangladesh,Sylhet,Sunamganj,SunamganjSadar,Lakshmansree,df8fee834ec3655cd41ca43f499df9d3
5219431496.0,893ce3572dbffff,25.0582905,91.3903057,Tahirpur Restaurant,,"Tahirpur Restaurant, Sunamganj, Sunamganj District, Sylhet Division, Bangladesh","তাহিরপুর রেস্তোঁরা, সুনামগঞ্জ জেলা, সিলেট বিভাগ, বাংলাদেশ",Sunamganj,বাংলাদেশ,সিলেট বিভাগ,local_admin,boundaries,['restaurant'],[],Bangladesh,Sylhet,Sunamganj,SunamganjSadar,Lakshmansree,df8fee834ec3655cd41ca43f499df9d3
5219447237.0,893ce3572d3ffff,25.0592715,91.3902914,নিরিবিলি রেস্টুরেন্ট এন্ড ফাস্ট ফুড,,"Niribili Restaurant & Fast Food, Sunamganj, Sunamganj District, Sylhet Division, Bangladesh","নিরিবিলি রেস্টুরেন্ট এন্ড ফাস্ট ফুড, সুনামগঞ্জ জেলা, সিলেট বিভাগ, বাংলাদেশ",Sunamganj,বাংলাদেশ,সিলেট বিভাগ,local_admin,boundaries,['restaurant'],[],Bangladesh,Sylhet,Sunamganj,SunamganjSadar,Lakshmansree,df8fee834ec3655cd41ca43f499df9d3
5219472200.0,893ce357293ffff,25.0675424,91.3949422,"RHD Inspection Banglo, Sunamganj",,"RHD Inspection Banglo Sunamganj, Sunamganj, Sunamganj District, Sylhet Division, Bangladesh","আরএইচডি পরিদর্শন বাংলো সুনামগঞ্জ, সুনামগঞ্জ জেলা, সিলেট বিভাগ, বাংলাদেশ",Sunamganj,বাংলাদেশ,সিলেট বিভাগ,local_admin,boundaries,['guest_house'],[],Bangladesh,Sylhet,Sunamganj,SunamganjSadar,Lakshmansree,df8fee834ec3655cd41ca43f499df9d3
6123508245.0,893ce34b16fffff,24.7689959,91.3538665,Noruttom pur Brac primary School,['logic_undp'],"Noruttom pur Brac primary School, Derai Upazila, Sunamganj District, Sylhet Division, Bangladesh","নোরট্টম পুর ব্র্যাক প্রাথমিক বিদ্যালয়, দিরাই উপজেলা, সুনামগঞ্জ জেলা, সিলেট বিভাগ, বাংলাদেশ",দিরাই উপজেলা,বাংলাদেশ,সিলেট বিভাগ,local_admin,boundaries,['school'],[],Bangladesh,Sylhet,Sunamganj,Derai,DeraiPaurashava,8b69234ae284f37b21e5fcd668374fd7
5103430898.0,893ce3cf6cfffff,25.1779814,91.2486233,Shimul Bagan,,"Shimul Bagan, Tahirpur, Sunamganj District, Sylhet Division, Bangladesh","শিমুল বাগান, সুনামগঞ্জ জেলা, সিলেট বিভাগ, বাংলাদেশ",Tahirpur,বাংলাদেশ,সিলেট বিভাগ,local_admin,boundaries,['attraction'],[],Bangladesh,Sylhet,Sunamganj,Tahirpur,UttarBadaghat,760bb8e06cde2404d5c7c61cbfc2517c
6123508246.0,893ce349493ffff,24.745986,91.3246143,Chondopur Government primary School,['logic_undp'],"Chondopur Government primary School, Derai Upazila, Sunamganj District, Sylhet Division, Bangladesh","চন্ডোপুর সরকারী প্রাথমিক বিদ্যালয়, দিরাই উপজেলা, সুনামগঞ্জ জেলা, সিলেট বিভাগ, বাংলাদেশ",দিরাই উপজেলা,বাংলাদেশ,সিলেট বিভাগ,local_admin,boundaries,['school'],[],Bangladesh,Sylhet,Sunamganj,Derai,DeraiSarmangal,7365bf0922fbe0ba070bf4d9550ca14b
5103430899.0,893ce3ca92fffff,25.1921691,91.2509062,Barek Tila,,"Barek Tila, Tahirpur, Sunamganj District, Sylhet Division, Bangladesh","বেয়ার্ক টিলা, সুনামগঞ্জ জেলা, সিলেট বিভাগ, বাংলাদেশ",Tahirpur,বাংলাদেশ,সিলেট বিভাগ,local_admin,boundaries,['attraction'],[],Bangladesh,Sylhet,Sunamganj,Tahirpur,UttarBadaghat,760bb8e06cde2404d5c7c61cbfc2517c
6123508247.0,893ce34b273ffff,24.746461,91.3155913,Dhonpur Haji House Moktob,['logic_undp'],"Dhonpur Haji House Moktob, Derai Upazila, Sunamganj District, Sylhet Division, Bangladesh","ধোনপুর হাজী হাউস মোকটোব, দিরাই উপজেলা, সুনামগঞ্জ জেলা, সিলেট বিভাগ, বাংলাদেশ",দিরাই উপজেলা,বাংলাদেশ,সিলেট বিভাগ,local_admin,boundaries,['educational_institution'],[],Bangladesh,Sylhet,Sunamganj,Derai,DeraiSarmangal,7365bf0922fbe0ba070bf4d9550ca14b
6123729210.0,893ce358e0bffff,24.8675197,91.3044387,Vatipara bazar,['logic_undp'],"Vatipara bazar, Derai Upazila, Sunamganj District, Sylhet Division, Bangladesh","ভাতিপারা বাজার, দিরাই উপজেলা, সুনামগঞ্জ জেলা, সিলেট বিভাগ, বাংলাদেশ",দিরাই উপজেলা,বাংলাদেশ,সিলেট বিভাগ,local_admin,boundaries,['marketplace'],[],Bangladesh,Sylhet,Sunamganj,Derai,BhatiPara,98d77adb7d2b8a01f7d0970f65a48cac
5103430914.0,893ce3ca8b7ffff,25.1973302,91.2209883,Rajai,,"Rajai, Tahirpur, Sunamganj District, Sylhet Division, Bangladesh","রাজাই, সুনামগঞ্জ জেলা, সিলেট বিভাগ, বাংলাদেশ",Tahirpur,বাংলাদেশ,সিলেট বিভাগ,local_admin,boundaries,['marketplace'],[],Bangladesh,Sylhet,Sunamganj,Tahirpur,UttarBadal,80e273a2346828c89ef9e23bde09a8cb
6123729211.0,893ce358e03ffff,24.8689044,91.3045031,Shahjalal Bazar,['logic_undp'],"Shahjalal Bazar, Derai Upazila, Sunamganj District, Sylhet Division, Bangladesh","শাহজালাল বাজার, দিরাই উপজেলা, সুনামগঞ্জ জেলা, সিলেট বিভাগ, বাংলাদেশ",দিরাই উপজেলা,বাংলাদেশ,সিলেট বিভাগ,local_admin,boundaries,['marketplace'],[],Bangladesh,Sylhet,Sunamganj,Derai,BhatiPara,98d77adb7d2b8a01f7d0970f65a48cac
6123813839.0,893ce34a593ffff,24.8541347,91.3591343,Sharifpur Madrasha,['logic_undp'],"Sharifpur Madrasha, Derai Upazila, Sunamganj District, Sylhet Division, Bangladesh","শরীফপুর মাদ্রাশা, দিরাই উপজেলা, সুনামগঞ্জ জেলা, সিলেট বিভাগ, বাংলাদেশ",দিরাই উপজেলা,বাংলাদেশ,সিলেট বিভাগ,local_admin,boundaries,['educational_institution'],[],Bangladesh,Sylhet,Sunamganj,Derai,BhatiPara,98d77adb7d2b8a01f7d0970f65a48cac
6123813840.0,893ce358b67ffff,24.8551885,91.354946,West Sharifpur govt. primary school,['logic_undp'],"West Sharifpur govt. primary school, Derai Upazila, Sunamganj District, Sylhet Division, Bangladesh","পশ্চিম শরীফপুর সরকার।প্রাথমিক বিদ্যালয়, দিরাই উপজেলা, সুনামগঞ্জ জেলা, সিলেট বিভাগ, বাংলাদেশ",দিরাই উপজেলা,বাংলাদেশ,সিলেট বিভাগ,local_admin,boundaries,['educational_institution'],[],Bangladesh,Sylhet,Sunamganj,Derai,BhatiPara,98d77adb7d2b8a01f7d0970f65a48cac
6123813841.0,893ce358857ffff,24.8726836,91.325423,Pangaon govt. primary school,['logic_undp'],"Pangaon govt. primary school, Derai Upazila, Sunamganj District, Sylhet Division, Bangladesh","পাঙ্গাঁও সরকারপ্রাথমিক বিদ্যালয়, দিরাই উপজেলা, সুনামগঞ্জ জেলা, সিলেট বিভাগ, বাংলাদেশ",দিরাই উপজেলা,বাংলাদেশ,সিলেট বিভাগ,local_admin,boundaries,['educational_institution'],[],Bangladesh,Sylhet,Sunamganj,Derai,BhatiPara,98d77adb7d2b8a01f7d0970f65a48cac
6123813842.0,893ce3588cbffff,24.8739806,91.3180831,Dattogram secondary school,['logic_undp'],"Dattogram secondary school, Derai Upazila, Sunamganj District, Sylhet Division, Bangladesh","ড্যাটোগ্রাম মাধ্যমিক বিদ্যালয়, দিরাই উপজেলা, সুনামগঞ্জ জেলা, সিলেট বিভাগ, বাংলাদেশ",দিরাই উপজেলা,বাংলাদেশ,সিলেট বিভাগ,local_admin,boundaries,['educational_institution'],[],Bangladesh,Sylhet,Sunamganj,Derai,BhatiPara,98d77adb7d2b8a01f7d0970f65a48cac
6123813843.0,893ce3588c3ffff,24.87747,91.3188073,Dottogram govt. primary school,"['logic_undp', 'Sudden flood']","Dottogram govt. primary school, Derai Upazila, Sunamganj District, Sylhet Division, Bangladesh","ডটগ্রাম সরকারপ্রাথমিক বিদ্যালয়, দিরাই উপজেলা, সুনামগঞ্জ জেলা, সিলেট বিভাগ, বাংলাদেশ",দিরাই উপজেলা,বাংলাদেশ,সিলেট বিভাগ,local_admin,boundaries,['educational_institution'],[],Bangladesh,Sylhet,Sunamganj,Derai,BhatiPara,98d77adb7d2b8a01f7d0970f65a48cac
6123813844.0,893ce358bc3ffff,24.8602409,91.3358715,Sutargaon govt. primary school,['logic_undp'],"Sutargaon govt. primary school, Derai Upazila, Sunamganj District, Sylhet Division, Bangladesh","সুতারগাঁও সরকারপ্রাথমিক বিদ্যালয়, দিরাই উপজেলা, সুনামগঞ্জ জেলা, সিলেট বিভাগ, বাংলাদেশ",দিরাই উপজেলা,বাংলাদেশ,সিলেট বিভাগ,local_admin,boundaries,['educational_institution'],[],Bangladesh,Sylhet,Sunamganj,Derai,BhatiPara,98d77adb7d2b8a01f7d0970f65a48cac
6123813845.0,893ce35880fffff,24.8727541,91.3313466,Sharifpur govt. primary school,['logic_undp'],"Sharifpur govt. primary school, Derai Upazila, Sunamganj District, Sylhet Division, Bangladesh","শরীফপুর সরকারপ্রাথমিক বিদ্যালয়, দিরাই উপজেলা, সুনামগঞ্জ জেলা, সিলেট বিভাগ, বাংলাদেশ",দিরাই উপজেলা,বাংলাদেশ,সিলেট বিভাগ,local_admin,boundaries,['educational_institution'],[],Bangladesh,Sylhet,Sunamganj,DakshinSunamganj,Patharia,91ec727fb7efdf599d3d8960bec7833a
6123813847.0,893ce358c67ffff,24.8858331,91.3168064,Dholposhi govt. primary school,['logic_undp'],"Dholposhi govt. primary school, Sunamganj, Sunamganj District, Sylhet Division, Bangladesh","ধোলপোশি সরকারপ্রাথমিক বিদ্যালয়, সুনামগঞ্জ জেলা, সিলেট বিভাগ, বাংলাদেশ",Sunamganj,বাংলাদেশ,সিলেট বিভাগ,local_admin,boundaries,['educational_institution'],[],Bangladesh,Sylhet,Sunamganj,DakshinSunamganj,Patharia,91ec727fb7efdf599d3d8960bec7833a
6123813848.0,893ce358c2bffff,24.8890278,91.3189119,Dholkotob govt. primary school,['logic_undp'],"Dholkotob govt. primary school, Sunamganj, Sunamganj District, Sylhet Division, Bangladesh","ধোলকোটব সরকারপ্রাথমিক বিদ্যালয়, সুনামগঞ্জ জেলা, সিলেট বিভাগ, বাংলাদেশ",Sunamganj,বাংলাদেশ,সিলেট বিভাগ,local_admin,boundaries,['educational_institution'],[],Bangladesh,Sylhet,Sunamganj,DakshinSunamganj,Shimulbak,7c004a20a120da87cafe6a773de7cffe
6123813849.0,893ce358c63ffff,24.8845192,91.3134402,Dholkotob Madrasha,['logic_undp'],"Dholkotob Madrasha, Sunamganj, Sunamganj District, Sylhet Division, Bangladesh","ধোলকোটব মাদ্রাশা, সুনামগঞ্জ জেলা, সিলেট বিভাগ, বাংলাদেশ",Sunamganj,বাংলাদেশ,সিলেট বিভাগ,local_admin,boundaries,['educational_institution'],[],Bangladesh,Sylhet,Sunamganj,Derai,BhatiPara,98d77adb7d2b8a01f7d0970f65a48cac
6123813850.0,893ce358e0fffff,24.8681573,91.3055169,Vatipara high school,"['logic_undp', ""Nor'wester""]","Vatipara high school, Derai Upazila, Sunamganj District, Sylhet Division, Bangladesh","ভাতিপারা উচ্চ বিদ্যালয়, দিরাই উপজেলা, সুনামগঞ্জ জেলা, সিলেট বিভাগ, বাংলাদেশ",দিরাই উপজেলা,বাংলাদেশ,সিলেট বিভাগ,local_admin,boundaries,['educational_institution'],[],Bangladesh,Sylhet,Sunamganj,Derai,BhatiPara,98d77adb7d2b8a01f7d0970f65a48cac
6123813851.0,893ce358e03ffff,24.8690042,91.3053292,Modhurapur govt. primary school,['logic_undp'],"Modhurapur govt. primary school, Derai Upazila, Sunamganj District, Sylhet Division, Bangladesh","মোদুরপুর সরকারপ্রাথমিক বিদ্যালয়, দিরাই উপজেলা, সুনামগঞ্জ জেলা, সিলেট বিভাগ, বাংলাদেশ",দিরাই উপজেলা,বাংলাদেশ,সিলেট বিভাগ,local_admin,boundaries,['educational_institution'],[],Bangladesh,Sylhet,Sunamganj,Derai,BhatiPara,98d77adb7d2b8a01f7d0970f65a48cac
6123813852.0,893ce358e0bffff,24.8674711,91.3040954,Vatipara gov. high scholl,['logic_undp'],"Vatipara gov. high scholl, Derai Upazila, Sunamganj District, Sylhet Division, Bangladesh","ভাতিপারা সরকারউচ্চ বিদ্যালয, দিরাই উপজেলা, সুনামগঞ্জ জেলা, সিলেট বিভাগ, বাংলাদেশ",দিরাই উপজেলা,বাংলাদেশ,সিলেট বিভাগ,local_admin,boundaries,['educational_institution'],[],Bangladesh,Sylhet,Sunamganj,Derai,BhatiPara,98d77adb7d2b8a01f7d0970f65a48cac
6124006743.0,893ce34a59bffff,24.8513504,91.3582277,Sharifpur jame mosque,['logic_undp'],"Sharifpur jame mosque, Derai Upazila, Sunamganj District, Sylhet Division, Bangladesh","শরীফপুর জামে মসজিদ, দিরাই উপজেলা, সুনামগঞ্জ জেলা, সিলেট বিভাগ, বাংলাদেশ",দিরাই উপজেলা,বাংলাদেশ,সিলেট বিভাগ,local_admin,boundaries,['place_of_worship_muslim'],[],Bangladesh,Sylhet,Sunamganj,Derai,BhatiPara,98d77adb7d2b8a01f7d0970f65a48cac
6124006745.0,893ce34a59bffff,24.8533814,91.3575867,Sharifpur old jame mosque,['logic_undp'],"Sharifpur old jame mosque, Derai Upazila, Sunamganj District, Sylhet Division, Bangladesh","শরীফপুর পুরাতন জামে মসজিদ, দিরাই উপজেলা, সুনামগঞ্জ জেলা, সিলেট বিভাগ, বাংলাদেশ",দিরাই উপজেলা,বাংলাদেশ,সিলেট বিভাগ,local_admin,boundaries,['place_of_worship_muslim'],[],Bangladesh,Sylhet,Sunamganj,Derai,BhatiPara,98d77adb7d2b8a01f7d0970f65a48cac
6124006746.0,893ce34a5d3ffff,24.8478918,91.3511708,Patna and Tegorhati jame mosque,['logic_undp'],"Patna and Tegorhati jame mosque, Derai Upazila, Sunamganj District, Sylhet Division, Bangladesh","পাটনা এবং তেগোরহতি জামে মসজিদ, দিরাই উপজেলা, সুনামগঞ্জ জেলা, সিলেট বিভাগ, বাংলাদেশ",দিরাই উপজেলা,বাংলাদেশ,সিলেট বিভাগ,local_admin,boundaries,['place_of_worship_muslim'],[],Bangladesh,Sylhet,Sunamganj,Derai,BhatiPara,98d77adb7d2b8a01f7d0970f65a48cac
6124006748.0,893ce3588cfffff,24.8740365,91.3221359,Mohadeb Mondir Dottogram,['logic_undp'],"Mohadeb Mondir Dottogram, Derai Upazila, Sunamganj District, Sylhet Division, Bangladesh","মহাদেব মন্ডির ডটোগ্রাম, দিরাই উপজেলা, সুনামগঞ্জ জেলা, সিলেট বিভাগ, বাংলাদেশ",দিরাই উপজেলা,বাংলাদেশ,সিলেট বিভাগ,local_admin,boundaries,['place_of_worship'],[],Bangladesh,Sylhet,Sunamganj,Derai,BhatiPara,98d77adb7d2b8a01f7d0970f65a48cac
6124006749.0,893ce358bc3ffff,24.8612362,91.337344,Chatalpar jame mosque,"['logic_undp', 'Sudden flood']","Chatalpar jame mosque, Derai Upazila, Sunamganj District, Sylhet Division, Bangladesh","চ্যাটাল্পার জামে মসজিদ, দিরাই উপজেলা, সুনামগঞ্জ জেলা, সিলেট বিভাগ, বাংলাদেশ",দিরাই উপজেলা,বাংলাদেশ,সিলেট বিভাগ,local_admin,boundaries,['place_of_worship_muslim'],[],Bangladesh,Sylhet,Sunamganj,Derai,BhatiPara,98d77adb7d2b8a01f7d0970f65a48cac
6124006750.0,893ce3588c3ffff,24.8755331,91.3180697,"Hindo der deb sthan, Dottogram",['logic_undp'],"Hindo der deb sthan Dottogram, Derai Upazila, Sunamganj District, Sylhet Division, Bangladesh","হিন্দো ডের দেব স্টহান ডটোগ্রাম, দিরাই উপজেলা, সুনামগঞ্জ জেলা, সিলেট বিভাগ, বাংলাদেশ",দিরাই উপজেলা,বাংলাদেশ,সিলেট বিভাগ,local_admin,boundaries,['place_of_worship_muslim'],[],Bangladesh,Sylhet,Sunamganj,Derai,BhatiPara,98d77adb7d2b8a01f7d0970f65a48cac
6124006758.0,893ce358e03ffff,24.8686051,91.3046801,Modhurapur Mosque,['logic_undp'],"Modhurapur Mosque, Derai Upazila, Sunamganj District, Sylhet Division, Bangladesh","মোদুরপুর মসজিদ, দিরাই উপজেলা, সুনামগঞ্জ জেলা, সিলেট বিভাগ, বাংলাদেশ",দিরাই উপজেলা,বাংলাদেশ,সিলেট বিভাগ,local_admin,boundaries,['place_of_worship_muslim'],[],Bangladesh,Sylhet,Sunamganj,Derai,BhatiPara,98d77adb7d2b8a01f7d0970f65a48cac
6124006759.0,893ce358c2bffff,24.8889426,91.3188288,Dholkotob jame mosque,"['logic_undp', 'Flood']","Dholkotob jame mosque, Sunamganj, Sunamganj District, Sylhet Division, Bangladesh","ধোলকোটব জামে মসজিদ, সুনামগঞ্জ জেলা, সিলেট বিভাগ, বাংলাদেশ",Sunamganj,বাংলাদেশ,সিলেট বিভাগ,local_admin,boundaries,['place_of_worship_muslim'],[],Bangladesh,Sylhet,Sunamganj,DakshinSunamganj,Shimulbak,7c004a20a120da87cafe6a773de7cffe
6124006760.0,893ce358c6fffff,24.8824047,91.3169083,"Dholposhi jame mosque, south para",['logic_undp'],"Dholposhi jame mosque south para, Derai Upazila, Sunamganj District, Sylhet Division, Bangladesh","ধোলপোশি জামে মসজিদ দক্ষিণ প্যারা, দিরাই উপজেলা, সুনামগঞ্জ জেলা, সিলেট বিভাগ, বাংলাদেশ",দিরাই উপজেলা,বাংলাদেশ,সিলেট বিভাগ,local_admin,boundaries,['place_of_worship_muslim'],[],Bangladesh,Sylhet,Sunamganj,Derai,BhatiPara,98d77adb7d2b8a01f7d0970f65a48cac
6124006761.0,893ce358c67ffff,24.8834704,91.3170022,Hindo debosthan,['logic_undp'],"Hindo debosthan, Derai Upazila, Sunamganj District, Sylhet Division, Bangladesh","হিন্দো ডিবোথান, দিরাই উপজেলা, সুনামগঞ্জ জেলা, সিলেট বিভাগ, বাংলাদেশ",দিরাই উপজেলা,বাংলাদেশ,সিলেট বিভাগ,local_admin,boundaries,['place_of_worship'],[],Bangladesh,Sylhet,Sunamganj,DakshinSunamganj,Patharia,91ec727fb7efdf599d3d8960bec7833a
6124006763.0,893ce358e0bffff,24.8675027,91.3040793,Vatipara mosque,['logic_undp'],"Vatipara mosque, Derai Upazila, Sunamganj District, Sylhet Division, Bangladesh","ভাতিপারা মসজিদ, দিরাই উপজেলা, সুনামগঞ্জ জেলা, সিলেট বিভাগ, বাংলাদেশ",দিরাই উপজেলা,বাংলাদেশ,সিলেট বিভাগ,local_admin,boundaries,['place_of_worship_muslim'],[],Bangladesh,Sylhet,Sunamganj,Derai,BhatiPara,98d77adb7d2b8a01f7d0970f65a48cac
6125482290.0,893ce358863ffff,24.8687073,91.3316685,Pangaon ferry ghat,['logic_undp'],"Pangaon ferry ghat, Derai Upazila, Sunamganj District, Sylhet Division, Bangladesh","পাঙ্গাও ফেরি ঘাট, দিরাই উপজেলা, সুনামগঞ্জ জেলা, সিলেট বিভাগ, বাংলাদেশ",দিরাই উপজেলা,বাংলাদেশ,সিলেট বিভাগ,local_admin,boundaries,['ferry_terminal'],[],Bangladesh,Sylhet,Sunamganj,Derai,BhatiPara,98d77adb7d2b8a01f7d0970f65a48cac
6126637770.0,893ce3486d7ffff,24.7679243,91.3553604,Noruttompur Hojrot Sha Jalal Roh:Jame Mosque,['logic_undp'],"Noruttompur Hojrot Sha Jalal Roh:Jame Mosque, Derai Upazila, Sunamganj District, Sylhet Division, Bangladesh","নোরুটম্পুর হোজরোট শ জালাল রোহ: জামে মসজিদ, দিরাই উপজেলা, সুনামগঞ্জ জেলা, সিলেট বিভাগ, বাংলাদেশ",দিরাই উপজেলা,বাংলাদেশ,সিলেট বিভাগ,local_admin,boundaries,['place_of_worship_muslim'],[],Bangladesh,Sylhet,Sunamganj,Derai,DeraiPaurashava,8b69234ae284f37b21e5fcd668374fd7
6126637771.0,893ce34b22bffff,24.7474987,91.3232142,Dhonpur Karar Par Mosque,"['logic_undp', 'Flood']","Dhonpur Karar Par Mosque, Derai Upazila, Sunamganj District, Sylhet Division, Bangladesh","ধোনপুর করার পার মসজিদ, দিরাই উপজেলা, সুনামগঞ্জ জেলা, সিলেট বিভাগ, বাংলাদেশ",দিরাই উপজেলা,বাংলাদেশ,সিলেট বিভাগ,local_admin,boundaries,['place_of_worship_muslim'],[],Bangladesh,Sylhet,Sunamganj,Derai,DeraiSarmangal,7365bf0922fbe0ba070bf4d9550ca14b
6126637772.0,893ce349493ffff,24.7458813,91.3248128,Chondonpur Jame Mosque,['logic_undp'],"Chondonpur Jame Mosque, Derai Upazila, Sunamganj District, Sylhet Division, Bangladesh","কনডনপুর জামে মসজিদ, দিরাই উপজেলা, সুনামগঞ্জ জেলা, সিলেট বিভাগ, বাংলাদেশ",দিরাই উপজেলা,বাংলাদেশ,সিলেট বিভাগ,local_admin,boundaries,['place_of_worship_muslim'],[],Bangladesh,Sylhet,Sunamganj,Derai,DeraiSarmangal,7365bf0922fbe0ba070bf4d9550ca14b
6126637773.0,893ce349493ffff,24.7454087,91.3249093,Karar par Jame Mosque,"['logic_undp', 'Flood']","Karar par Jame Mosque, Derai Upazila, Sunamganj District, Sylhet Division, Bangladesh","করার পার জামে মসজিদ, দিরাই উপজেলা, সুনামগঞ্জ জেলা, সিলেট বিভাগ, বাংলাদেশ",দিরাই উপজেলা,বাংলাদেশ,সিলেট বিভাগ,local_admin,boundaries,['place_of_worship_muslim'],[],Bangladesh,Sylhet,Sunamganj,Derai,DeraiSarmangal,7365bf0922fbe0ba070bf4d9550ca14b
6126637774.0,893ce34b277ffff,24.7456523,91.3204032,Dhonpur Panje Ghana Jme Mosque,['logic_undp'],"Dhonpur Panje Ghana Jme Mosque, Derai Upazila, Sunamganj District, Sylhet Division, Bangladesh","ধোনপুর পাঞ্জে ঘানা জেমে মসজিদ, দিরাই উপজেলা, সুনামগঞ্জ জেলা, সিলেট বিভাগ, বাংলাদেশ",দিরাই উপজেলা,বাংলাদেশ,সিলেট বিভাগ,local_admin,boundaries,['place_of_worship_muslim'],[],Bangladesh,Sylhet,Sunamganj,Derai,DeraiSarmangal,7365bf0922fbe0ba070bf4d9550ca14b
6126637775.0,893ce34b273ffff,24.7463685,91.3164014,Dhonpur Purbo para Baitush Salam Jame Mosque,['logic_undp'],"Dhonpur Purbo para Baitush Salam Jame Mosque, Derai Upazila, Sunamganj District, Sylhet Division, Bangladesh","ধোনপুর পুর্বো প্যারা বেতুশ সালাম জামে মসজিদ, দিরাই উপজেলা, সুনামগঞ্জ জেলা, সিলেট বিভাগ, বাংলাদেশ",দিরাই উপজেলা,বাংলাদেশ,সিলেট বিভাগ,local_admin,boundaries,['place_of_worship_muslim'],[],Bangladesh,Sylhet,Sunamganj,Derai,DeraiSarmangal,7365bf0922fbe0ba070bf4d9550ca14b
6280914135.0,893cc486253ffff,24.6442868,91.3015473,"Protap pur South para mohadeb , land area- 5 decimal, length 20 feet, width- 20 feet, Pucca boundary around.",['logic_undp'],"Protap pur South para mohadeb land area- 5 decimal length 20 feet width- 20 feet Pucca boundary around., Sulla, Sunamganj District, Sylhet Division, Bangladesh","প্রোটাপ পুর দক্ষিণ প্যারা মহাদেব ভূমি অঞ্চল- 5 দশমিক দৈর্ঘ্য 20 ফুট প্রস্থ- 20 ফুট পুকা সীমানা চারপাশে।, সুনামগঞ্জ জেলা, সিলেট বিভাগ, বাংলাদেশ",Sulla,বাংলাদেশ,সিলেট বিভাগ,local_admin,boundaries,['place_of_worship'],[],Bangladesh,Sylhet,Sunamganj,Sulla,Bahara,4743bbfc3f11fb6cc27d4217317cb7c1
6280914139.0,893cc4871a3ffff,24.6333109,91.3053238,"Loripasha govt primary school. length 100 feet, width 50 feet. , one floor pucca building with 4 room",['logic_undp'],"Loripasha govt primary school. length 100 feet width 50 feet. one floor pucca building with 4 room, Sulla, Sunamganj District, Sylhet Division, Bangladesh","লরিপাশা গভর্নমেন্ট প্রাথমিক বিদ্যালয়।দৈর্ঘ্য 100 ফুট প্রস্থ 50 ফুট।4 কক্ষ সহ এক তল পুকা বিল্ডিং, সুনামগঞ্জ জেলা, সিলেট বিভাগ, বাংলাদেশ",Sulla,বাংলাদেশ,সিলেট বিভাগ,local_admin,boundaries,['school'],[],Bangladesh,Sylhet,Sunamganj,Sulla,Bahara,4743bbfc3f11fb6cc27d4217317cb7c1
6281151376.0,893ce34963bffff,24.7125292,91.3315987,Achanpur community clinic,['logic_undp'],"Achanpur community clinic, Sulla, Sunamganj District, Sylhet Division, Bangladesh","আখানপুর সম্প্রদায় ক্লিনিক, সুনামগঞ্জ জেলা, সিলেট বিভাগ, বাংলাদেশ",Sulla,বাংলাদেশ,সিলেট বিভাগ,local_admin,boundaries,['clinic'],[],Bangladesh,Sylhet,Sunamganj,Sulla,Habibpur,44bf22df3c7936119b6bf7c0eae0f2a3
9665824387.0,893ce308d5bffff,25.134073,91.7161371,,,"Dowarabazar, Sunamganj District, Sylhet Division, Bangladesh","সুনামগঞ্জ জেলা, সিলেট বিভাগ, বাংলাদেশ",Dowarabazar,বাংলাদেশ,সিলেট বিভাগ,local_admin,boundaries,['ford'],[],Bangladesh,Sylhet,Sunamganj,Chhatak,DakshinIslampur,b4982308ec079a128a644886320df02b
5224343586.0,893ce2249d7ffff,24.99228,91.2168584,Noyahalot Durgha Mandir,,"Noyahalot Durgha Mandir, Jamalganj, Sunamganj District, Sylhet Division, Bangladesh","নোয়াহালোট দুর্গা মন্দির, সুনামগঞ্জ জেলা, সিলেট বিভাগ, বাংলাদেশ",Jamalganj,বাংলাদেশ,সিলেট বিভাগ,local_admin,boundaries,['place_of_worship'],[],Bangladesh,Sylhet,Sunamganj,Jamalganj,Jamalganj,0458355502a4c6b24eb61908e5e9e204
5224343898.0,893ce224873ffff,24.9776073,91.202136,আবুর হাটি জামে মসজিদ,,"Abu Hatti Jame Mosque, Jamalganj, Sunamganj District, Sylhet Division, Bangladesh","আবুর হাটি জামে মসজিদ, সুনামগঞ্জ জেলা, সিলেট বিভাগ, বাংলাদেশ",Jamalganj,বাংলাদেশ,সিলেট বিভাগ,local_admin,boundaries,['place_of_worship_muslim'],[],Bangladesh,Sylhet,Sunamganj,Jamalganj,Jamalganj,0458355502a4c6b24eb61908e5e9e204
5224344046.0,893ce224873ffff,24.9781014,91.2005118,আল মক্কা ট্রেডার্স,,"Al -Mecca Traders, Jamalganj, Sunamganj District, Sylhet Division, Bangladesh","আল মক্কা ট্রেডার্স, সুনামগঞ্জ জেলা, সিলেট বিভাগ, বাংলাদেশ",Jamalganj,বাংলাদেশ,সিলেট বিভাগ,local_admin,boundaries,['marketplace'],[],Bangladesh,Sylhet,Sunamganj,Jamalganj,Jamalganj,0458355502a4c6b24eb61908e5e9e204
5224345589.0,893ce224847ffff,24.9780066,91.2004528,চানপুর বাজার।,,"Chanpur Bazar., Jamalganj, Sunamganj District, Sylhet Division, Bangladesh","চানপুর বাজার।, সুনামগঞ্জ জেলা, সিলেট বিভাগ, বাংলাদেশ",Jamalganj,বাংলাদেশ,সিলেট বিভাগ,local_admin,boundaries,['marketplace'],[],Bangladesh,Sylhet,Sunamganj,Jamalganj,Jamalganj,0458355502a4c6b24eb61908e5e9e204
5224350399.0,893ce2249bbffff,24.9951765,91.2282983,আবুর হাটি জামে মসজিদ,,"Abu Hatti Jame Mosque, Jamalganj, Sunamganj District, Sylhet Division, Bangladesh","আবুর হাটি জামে মসজিদ, সুনামগঞ্জ জেলা, সিলেট বিভাগ, বাংলাদেশ",Jamalganj,বাংলাদেশ,সিলেট বিভাগ,local_admin,boundaries,['place_of_worship_muslim'],[],Bangladesh,Sylhet,Sunamganj,Jamalganj,Jamalganj,0458355502a4c6b24eb61908e5e9e204
6909920065.0,893ce3521b3ffff,25.1004687,91.3034196,,,"Bishwambarpur, Sunamganj District, Sylhet Division, Bangladesh","সুনামগঞ্জ জেলা, সিলেট বিভাগ, বাংলাদেশ",Bishwambarpur,বাংলাদেশ,সিলেট বিভাগ,local_admin,boundaries,['school'],[],Bangladesh,Sylhet,Sunamganj,Bishwambarpur,Palash,136329d3d646fe87440a9bb3b3258c38
5224365861.0,893ce353263ffff,25.0030059,91.2361842,Jamalganj Ferry Ghat জামালগঞ্জ ফেরিঘাটে,,"Jamalganj Ferry Ghat, Jamalganj, Sunamganj District, Sylhet Division, Bangladesh","জামালগঞ্জ ফেরিঘাটে, সুনামগঞ্জ জেলা, সিলেট বিভাগ, বাংলাদেশ",Jamalganj,বাংলাদেশ,সিলেট বিভাগ,local_admin,boundaries,['ferry_terminal'],[],Bangladesh,Sylhet,Sunamganj,Jamalganj,Jamalganj,0458355502a4c6b24eb61908e5e9e204
5224378836.0,893ce3514d7ffff,25.0005853,91.2397779,Bash Bazar ব্যাশ বাজার,,"Bash Bazar, Jamalganj, Sunamganj District, Sylhet Division, Bangladesh","ব্যাশ বাজার, সুনামগঞ্জ জেলা, সিলেট বিভাগ, বাংলাদেশ",Jamalganj,বাংলাদেশ,সিলেট বিভাগ,local_admin,boundaries,['variety_store'],[],Bangladesh,Sylhet,Sunamganj,Jamalganj,SachnaBazar,ee03e650fc3379ea4f621d8852df28f6
5224380993.0,893ce353263ffff,25.004376,91.237631,Sachnabazer Mach Bazer,,"Sachnabazer Mach Bazer, Jamalganj, Sunamganj District, Sylhet Division, Bangladesh","শচনা বাজর মাচ বাজার, সুনামগঞ্জ জেলা, সিলেট বিভাগ, বাংলাদেশ",Jamalganj,বাংলাদেশ,সিলেট বিভাগ,local_admin,boundaries,['variety_store'],[],Bangladesh,Sylhet,Sunamganj,Jamalganj,Jamalganj,0458355502a4c6b24eb61908e5e9e204
5224387321.0,893ce353267ffff,25.0041891,91.2380647,The Mobile Channel,,"The Mobile Channel, Jamalganj, Sunamganj District, Sylhet Division, Bangladesh","মোবাইল চ্যানেল, সুনামগঞ্জ জেলা, সিলেট বিভাগ, বাংলাদেশ",Jamalganj,বাংলাদেশ,সিলেট বিভাগ,local_admin,boundaries,['mobile_phone'],[],Bangladesh,Sylhet,Sunamganj,Jamalganj,SachnaBazar,ee03e650fc3379ea4f621d8852df28f6
8386157625.0,893ce3508c3ffff,25.028154,91.3623074,,,"Sunamganj, Sunamganj District, Sylhet Division, Bangladesh","সুনামগঞ্জ জেলা, সিলেট বিভাগ, বাংলাদেশ",Sunamganj,বাংলাদেশ,সিলেট বিভাগ,local_admin,boundaries,['ferry_terminal'],[],Bangladesh,Sylhet,Sunamganj,SunamganjSadar,Lakshmansree,df8fee834ec3655cd41ca43f499df9d3
5224388132.0,893ce353277ffff,25.0064245,91.2381409,,,"Jamalganj, Sunamganj District, Sylhet Division, Bangladesh","সুনামগঞ্জ জেলা, সিলেট বিভাগ, বাংলাদেশ",Jamalganj,বাংলাদেশ,সিলেট বিভাগ,local_admin,boundaries,['atm'],[],Bangladesh,Sylhet,Sunamganj,Jamalganj,Jamalganj,0458355502a4c6b24eb61908e5e9e204
5224399065.0,893ce350443ffff,25.0399565,91.2825827,Niamatpur Bazar নিয়ামতপুর বাজার,,"Niamatpur Bazar, Sunamganj, Sunamganj District, Sylhet Division, Bangladesh","নিয়ামতপুর বাজার, সুনামগঞ্জ জেলা, সিলেট বিভাগ, বাংলাদেশ",Sunamganj,বাংলাদেশ,সিলেট বিভাগ,local_admin,boundaries,['marketplace'],[],Bangladesh,Sylhet,Sunamganj,SunamganjSadar,Gourararang,dbfc7b9a8d5c2d11045a82e7a4d5f7c9
5777577273.0,893ce352483ffff,25.1065381,91.2528813,Balijuri Bazar,"['logic_undp', 'Flood']","Balijuri Bazar, Tahirpur, Sunamganj District, Sylhet Division, Bangladesh","বালিজুরি বাজার, সুনামগঞ্জ জেলা, সিলেট বিভাগ, বাংলাদেশ",Tahirpur,বাংলাদেশ,সিলেট বিভাগ,local_admin,boundaries,['marketplace'],[],Bangladesh,Sylhet,Sunamganj,Tahirpur,Balijuri,9f5a2965a4b5ff5b76d18d0ba9c1190f
5777577275.0,893ce3c9997ffff,25.1028645,91.2292134,Anwarpur Bazar,"['logic_undp', 'flood']","Anwarpur Bazar, Tahirpur, Sunamganj District, Sylhet Division, Bangladesh","আনওয়ারপুর বাজার, সুনামগঞ্জ জেলা, সিলেট বিভাগ, বাংলাদেশ",Tahirpur,বাংলাদেশ,সিলেট বিভাগ,local_admin,boundaries,['marketplace'],[],Bangladesh,Sylhet,Sunamganj,Tahirpur,Balijuri,9f5a2965a4b5ff5b76d18d0ba9c1190f
5779675553.0,893ce3c8b43ffff,25.1127545,91.2582377,Mosque,"['logic_undp', 'Flood']","Mosque, Bishwambarpur, Sunamganj District, Sylhet Division, Bangladesh","মসজিদ, সুনামগঞ্জ জেলা, সিলেট বিভাগ, বাংলাদেশ",Bishwambarpur,বাংলাদেশ,সিলেট বিভাগ,local_admin,boundaries,['place_of_worship_muslim'],[],Bangladesh,Sylhet,Sunamganj,Tahirpur,Balijuri,9f5a2965a4b5ff5b76d18d0ba9c1190f
5779675554.0,893ce352487ffff,25.1083245,91.2563494,Menjargaon Jami Mosque,['logic_undp'],"Menjargaon Jami Mosque, Bishwambarpur, Sunamganj District, Sylhet Division, Bangladesh","মেনজারগাঁও জামি মসজিদ, সুনামগঞ্জ জেলা, সিলেট বিভাগ, বাংলাদেশ",Bishwambarpur,বাংলাদেশ,সিলেট বিভাগ,local_admin,boundaries,['place_of_worship_muslim'],[],Bangladesh,Sylhet,Sunamganj,Tahirpur,Balijuri,9f5a2965a4b5ff5b76d18d0ba9c1190f
5779675555.0,893ce352487ffff,25.1078084,91.2561791,Menjargaon Govt Primary School,"['logic_undp', 'Flood']","Menjargaon Govt Primary School, Bishwambarpur, Sunamganj District, Sylhet Division, Bangladesh","মেনজারগাঁও সরকার প্রাথমিক বিদ্যালয়, সুনামগঞ্জ জেলা, সিলেট বিভাগ, বাংলাদেশ",Bishwambarpur,বাংলাদেশ,সিলেট বিভাগ,local_admin,boundaries,['school'],[],Bangladesh,Sylhet,Sunamganj,Tahirpur,Balijuri,9f5a2965a4b5ff5b76d18d0ba9c1190f
5779675556.0,893ce352483ffff,25.1075965,91.2533104,Balijuri Hossainia Anawarul Ulum Senior Madrasha,['logic_undp'],"Balijuri Hossainia Anawarul Ulum Senior Madrasha, Bishwambarpur, Sunamganj District, Sylhet Division, Bangladesh","বালিজুরি হোসাইনিয়া আনোয়ারুল উলুম সিনিয়র মাদ্রাসাহ, সুনামগঞ্জ জেলা, সিলেট বিভাগ, বাংলাদেশ",Bishwambarpur,বাংলাদেশ,সিলেট বিভাগ,local_admin,boundaries,['school'],[],Bangladesh,Sylhet,Sunamganj,Tahirpur,Balijuri,9f5a2965a4b5ff5b76d18d0ba9c1190f
5779675557.0,893ce352483ffff,25.1072267,91.2534157,Balijuri Noyahati Mosque,['logic_undp'],"Balijuri Noyahati Mosque, Tahirpur, Sunamganj District, Sylhet Division, Bangladesh","বালিজুরি নয়াহাটি মসজিদ, সুনামগঞ্জ জেলা, সিলেট বিভাগ, বাংলাদেশ",Tahirpur,বাংলাদেশ,সিলেট বিভাগ,local_admin,boundaries,['place_of_worship_muslim'],[],Bangladesh,Sylhet,Sunamganj,Tahirpur,Balijuri,9f5a2965a4b5ff5b76d18d0ba9c1190f
5779675558.0,893ce352483ffff,25.1061276,91.2540206,Noyahati Govt Primary School,"['logic_undp', 'Flood']","Noyahati Govt Primary School, Tahirpur, Sunamganj District, Sylhet Division, Bangladesh","নোয়াহাতি সরকার প্রাথমিক বিদ্যালয়, সুনামগঞ্জ জেলা, সিলেট বিভাগ, বাংলাদেশ",Tahirpur,বাংলাদেশ,সিলেট বিভাগ,local_admin,boundaries,['school'],[],Bangladesh,Sylhet,Sunamganj,Tahirpur,Balijuri,9f5a2965a4b5ff5b76d18d0ba9c1190f
5779675559.0,893ce3c8ac7ffff,25.1143549,91.2325931,Borkhola Govt Primary School,"['logic_undp', 'Flood']","Borkhola Govt Primary School, Tahirpur, Sunamganj District, Sylhet Division, Bangladesh","বোরখোলা সরকার প্রাথমিক বিদ্যালয়, সুনামগঞ্জ জেলা, সিলেট বিভাগ, বাংলাদেশ",Tahirpur,বাংলাদেশ,সিলেট বিভাগ,local_admin,boundaries,['school'],[],Bangladesh,Sylhet,Sunamganj,Tahirpur,Balijuri,9f5a2965a4b5ff5b76d18d0ba9c1190f
5779675560.0,893ce3c8a77ffff,25.1101145,91.243743,Kandarpara Jami Mosque,"['logic_undp', 'Flood']","Kandarpara Jami Mosque, Bishwambarpur, Sunamganj District, Sylhet Division, Bangladesh","কন্দরপেরা জামি মসজিদ, সুনামগঞ্জ জেলা, সিলেট বিভাগ, বাংলাদেশ",Bishwambarpur,বাংলাদেশ,সিলেট বিভাগ,local_admin,boundaries,['place_of_worship_muslim'],[],Bangladesh,Sylhet,Sunamganj,Tahirpur,Balijuri,9f5a2965a4b5ff5b76d18d0ba9c1190f
5779675561.0,893ce3c8acfffff,25.1115231,91.2317696,Fajilpur Jami Mosque,"['logic_undp', 'Flood']","Fajilpur Jami Mosque, Tahirpur, Sunamganj District, Sylhet Division, Bangladesh","ফাজিলপুর জামি মসজিদ, সুনামগঞ্জ জেলা, সিলেট বিভাগ, বাংলাদেশ",Tahirpur,বাংলাদেশ,সিলেট বিভাগ,local_admin,boundaries,['place_of_worship_muslim'],[],Bangladesh,Sylhet,Sunamganj,Tahirpur,Balijuri,9f5a2965a4b5ff5b76d18d0ba9c1190f
5779675562.0,893ce3c9da3ffff,25.1144642,91.2190399,Dokkhin kul Bormon Para Durga Mondir,"['logic_undp', 'Flood']","Dokkhin kul Bormon Para Durga Mondir, Tahirpur, Sunamganj District, Sylhet Division, Bangladesh","ডকখিন কুল বোরমন প্যারা দুর্গা মন্ডির, সুনামগঞ্জ জেলা, সিলেট বিভাগ, বাংলাদেশ",Tahirpur,বাংলাদেশ,সিলেট বিভাগ,local_admin,boundaries,['place_of_worship'],[],Bangladesh,Sylhet,Sunamganj,Tahirpur,Balijuri,9f5a2965a4b5ff5b76d18d0ba9c1190f
5779675563.0,893ce3c8e23ffff,25.1294723,91.2283766,12 No Govt Primary School Mahtabpur,['Flood'],"12 No Govt Primary School Mahtabpur, Tahirpur, Sunamganj District, Sylhet Division, Bangladesh","12 কোনও সরকারী প্রাথমিক বিদ্যালয় মাহতবপুর, সুনামগঞ্জ জেলা, সিলেট বিভাগ, বাংলাদেশ",Tahirpur,বাংলাদেশ,সিলেট বিভাগ,local_admin,boundaries,['school'],[],Bangladesh,Sylhet,Sunamganj,Tahirpur,UttarBadaghat,760bb8e06cde2404d5c7c61cbfc2517c
5779675564.0,893ce3c8e73ffff,25.1238967,91.2205071,Firijpur Govt Primary School,"['logic_undp', 'Flood']","Firijpur Govt Primary School, Tahirpur, Sunamganj District, Sylhet Division, Bangladesh","ফিরিজপুর সরকার প্রাথমিক বিদ্যালয়, সুনামগঞ্জ জেলা, সিলেট বিভাগ, বাংলাদেশ",Tahirpur,বাংলাদেশ,সিলেট বিভাগ,local_admin,boundaries,['school'],[],Bangladesh,Sylhet,Sunamganj,Tahirpur,Balijuri,9f5a2965a4b5ff5b76d18d0ba9c1190f
5779675565.0,893ce3c8ad3ffff,25.1159214,91.2258071,Mahtabpur Poschim Para Jami Mosque,"['logic_undp', 'Flood']","Mahtabpur Poschim Para Jami Mosque, Tahirpur, Sunamganj District, Sylhet Division, Bangladesh","মাহতাবপুর পোসচিম প্যারা জামি মসজিদ, সুনামগঞ্জ জেলা, সিলেট বিভাগ, বাংলাদেশ",Tahirpur,বাংলাদেশ,সিলেট বিভাগ,local_admin,boundaries,['place_of_worship_muslim'],[],Bangladesh,Sylhet,Sunamganj,Tahirpur,Balijuri,9f5a2965a4b5ff5b76d18d0ba9c1190f
5779675566.0,893ce3c9da7ffff,25.1160526,91.2224302,Firijpur Jami Mosque,"['logic_undp', 'Flood and Riverbank Erosion']","Firijpur Jami Mosque, Tahirpur, Sunamganj District, Sylhet Division, Bangladesh","ফিরিজপুর জামি মসজিদ, সুনামগঞ্জ জেলা, সিলেট বিভাগ, বাংলাদেশ",Tahirpur,বাংলাদেশ,সিলেট বিভাগ,local_admin,boundaries,['place_of_worship_muslim'],[],Bangladesh,Sylhet,Sunamganj,Tahirpur,Balijuri,9f5a2965a4b5ff5b76d18d0ba9c1190f
5779675567.0,893ce3c9dabffff,25.1129318,91.2197453,Kormokar Para Kali Mondir,"['logic_undp', 'Flood']","Kormokar Para Kali Mondir, Tahirpur, Sunamganj District, Sylhet Division, Bangladesh","কোরমোকার প্যারা কালী মন্ডির, সুনামগঞ্জ জেলা, সিলেট বিভাগ, বাংলাদেশ",Tahirpur,বাংলাদেশ,সিলেট বিভাগ,local_admin,boundaries,['place_of_worship'],[],Bangladesh,Sylhet,Sunamganj,Tahirpur,Balijuri,9f5a2965a4b5ff5b76d18d0ba9c1190f
5779675568.0,893ce3c9dafffff,25.1132281,91.220389,Dokkhinkul Poschimhati Jami Mosque,"['logic_undp', 'Flood']","Dokkhinkul Poschimhati Jami Mosque, Tahirpur, Sunamganj District, Sylhet Division, Bangladesh","ডকখিংকুল পোসচিমহতি জামি মসজিদ, সুনামগঞ্জ জেলা, সিলেট বিভাগ, বাংলাদেশ",Tahirpur,বাংলাদেশ,সিলেট বিভাগ,local_admin,boundaries,['place_of_worship_muslim'],[],Bangladesh,Sylhet,Sunamganj,Tahirpur,Balijuri,9f5a2965a4b5ff5b76d18d0ba9c1190f
5779675570.0,893ce3c9dafffff,25.1134685,91.2231356,S E S D P Model High School,['logic_undp'],"S E S D P Model High School, Tahirpur, Sunamganj District, Sylhet Division, Bangladesh","এস ই এস ডি পি মডেল হাই স্কুল, সুনামগঞ্জ জেলা, সিলেট বিভাগ, বাংলাদেশ",Tahirpur,বাংলাদেশ,সিলেট বিভাগ,local_admin,boundaries,['school'],[],Bangladesh,Sylhet,Sunamganj,Tahirpur,Balijuri,9f5a2965a4b5ff5b76d18d0ba9c1190f
5779675571.0,893ce3c9987ffff,25.102329,91.2310253,Sri Sri Loknath Mondir,"['logic_undp', 'Flood']","Sri Sri Loknath Mondir, Tahirpur, Sunamganj District, Sylhet Division, Bangladesh","শ্রী শ্রী লোকনাথ মন্ডির, সুনামগঞ্জ জেলা, সিলেট বিভাগ, বাংলাদেশ",Tahirpur,বাংলাদেশ,সিলেট বিভাগ,local_admin,boundaries,['place_of_worship'],[],Bangladesh,Sylhet,Sunamganj,Tahirpur,Balijuri,9f5a2965a4b5ff5b76d18d0ba9c1190f
5779675572.0,893ce3c9997ffff,25.102018,91.2289734,Hosenpur Govt Primary School,"['logic_undp', 'flood']","Hosenpur Govt Primary School, Tahirpur, Sunamganj District, Sylhet Division, Bangladesh","হোসেনপুর সরকারী প্রাথমিক বিদ্যালয়, সুনামগঞ্জ জেলা, সিলেট বিভাগ, বাংলাদেশ",Tahirpur,বাংলাদেশ,সিলেট বিভাগ,local_admin,boundaries,['school'],[],Bangladesh,Sylhet,Sunamganj,Tahirpur,Balijuri,9f5a2965a4b5ff5b76d18d0ba9c1190f
5779675573.0,893ce3c9983ffff,25.1006809,91.2282559,Hosenpur Jami Mosque,"['logic_undp', 'flood']","Hosenpur Jami Mosque, Tahirpur, Sunamganj District, Sylhet Division, Bangladesh","হোসেনপুর জামি মসজিদ, সুনামগঞ্জ জেলা, সিলেট বিভাগ, বাংলাদেশ",Tahirpur,বাংলাদেশ,সিলেট বিভাগ,local_admin,boundaries,['place_of_worship_muslim'],[],Bangladesh,Sylhet,Sunamganj,Tahirpur,Balijuri,9f5a2965a4b5ff5b76d18d0ba9c1190f
9707464032.0,893ce34b2afffff,24.7556069,91.3229601,Alor Disharee Madhyamik Biddyalay,,"Alor Disharee Madhyamik Biddyalay, Derai Upazila, Sunamganj District, Sylhet Division, Bangladesh","আলোর দিশারি মধ্যমিক বিদ্যালয়, দিরাই উপজেলা, সুনামগঞ্জ জেলা, সিলেট বিভাগ, বাংলাদেশ",দিরাই উপজেলা,বাংলাদেশ,সিলেট বিভাগ,local_admin,boundaries,"['educational_institution', 'school']",[],Bangladesh,Sylhet,Sunamganj,Derai,DeraiSarmangal,7365bf0922fbe0ba070bf4d9550ca14b
5779675575.0,893ce3c99bbffff,25.099294,91.2335184,Lohacura kali Mondir,"['logic_undp', 'Riverbank Erosion']","Lohacura kali Mondir, Tahirpur, Sunamganj District, Sylhet Division, Bangladesh","লোহাকুরা কালী মন্ডির, সুনামগঞ্জ জেলা, সিলেট বিভাগ, বাংলাদেশ",Tahirpur,বাংলাদেশ,সিলেট বিভাগ,local_admin,boundaries,['place_of_worship'],[],Bangladesh,Sylhet,Sunamganj,Tahirpur,Balijuri,9f5a2965a4b5ff5b76d18d0ba9c1190f
9707464034.0,893ce3484c7ffff,24.7866468,91.36362,Govt. Derai Girls High School,,"Govt. Derai Girls High School, Derai Upazila, Sunamganj District, Sylhet Division, Bangladesh","সরকারডেরাই গার্লস হাই স্কুল, দিরাই উপজেলা, সুনামগঞ্জ জেলা, সিলেট বিভাগ, বাংলাদেশ",দিরাই উপজেলা,বাংলাদেশ,সিলেট বিভাগ,local_admin,boundaries,"['educational_institution', 'school']",[],Bangladesh,Sylhet,Sunamganj,Derai,DeraiPaurashava,8b69234ae284f37b21e5fcd668374fd7
5779675576.0,893ce3c998fffff,25.0965438,91.2302448,Borokola Durga Kali Mondir,"['logic_undp', 'flood']","Borokola Durga Kali Mondir, Tahirpur, Sunamganj District, Sylhet Division, Bangladesh","বোরোকোলা দুর্গা কালী মন্ডির, সুনামগঞ্জ জেলা, সিলেট বিভাগ, বাংলাদেশ",Tahirpur,বাংলাদেশ,সিলেট বিভাগ,local_admin,boundaries,['place_of_worship'],[],Bangladesh,Sylhet,Sunamganj,Tahirpur,Balijuri,9f5a2965a4b5ff5b76d18d0ba9c1190f
9707464035.0,893ce34a323ffff,24.808858,91.3860645,Matiapur Sesdp Model School,,"Matiapur Sesdp Model School, Derai Upazila, Sunamganj District, Sylhet Division, Bangladesh","মাতিয়াপুর এসইএসডিপি মডেল স্কুল, দিরাই উপজেলা, সুনামগঞ্জ জেলা, সিলেট বিভাগ, বাংলাদেশ",দিরাই উপজেলা,বাংলাদেশ,সিলেট বিভাগ,local_admin,boundaries,"['educational_institution', 'school']",[],Bangladesh,Sylhet,Sunamganj,Derai,Karimpur,80de460ca44fd3065d2345fb60f817c1
5779675577.0,893ce3c998fffff,25.0961072,91.2312171,Anwarpur Govt Primary School,"['logic_undp', 'Flood']","Anwarpur Govt Primary School, Tahirpur, Sunamganj District, Sylhet Division, Bangladesh","আনওয়ারপুর সরকার প্রাথমিক বিদ্যালয়, সুনামগঞ্জ জেলা, সিলেট বিভাগ, বাংলাদেশ",Tahirpur,বাংলাদেশ,সিলেট বিভাগ,local_admin,boundaries,['school'],[],Bangladesh,Sylhet,Sunamganj,Tahirpur,Balijuri,9f5a2965a4b5ff5b76d18d0ba9c1190f
9707464036.0,893ce34ae47ffff,24.80788,91.3992489,Rajani Gonj High School,,"Rajani Gonj High School, Derai Upazila, Sunamganj District, Sylhet Division, Bangladesh","রাজানী গঞ্জ উচ্চ বিদ্যালয়, দিরাই উপজেলা, সুনামগঞ্জ জেলা, সিলেট বিভাগ, বাংলাদেশ",দিরাই উপজেলা,বাংলাদেশ,সিলেট বিভাগ,local_admin,boundaries,"['educational_institution', 'school']",[],Bangladesh,Sylhet,Sunamganj,Derai,Karimpur,80de460ca44fd3065d2345fb60f817c1
5779675578.0,893ce3c99afffff,25.0975185,91.2400872,Patari Jami Mosque,['logic_undp'],"Patari Jami Mosque, Tahirpur, Sunamganj District, Sylhet Division, Bangladesh","প্যাটারি জামি মসজিদ, সুনামগঞ্জ জেলা, সিলেট বিভাগ, বাংলাদেশ",Tahirpur,বাংলাদেশ,সিলেট বিভাগ,local_admin,boundaries,['place_of_worship_muslim'],[],Bangladesh,Sylhet,Sunamganj,Tahirpur,Balijuri,9f5a2965a4b5ff5b76d18d0ba9c1190f
5779675579.0,893ce3c9917ffff,25.0960319,91.2332489,Lohacura Jami Mosque,['logic_undp'],"Lohacura Jami Mosque, Tahirpur, Sunamganj District, Sylhet Division, Bangladesh","লোহাকুরা জামি মসজিদ, সুনামগঞ্জ জেলা, সিলেট বিভাগ, বাংলাদেশ",Tahirpur,বাংলাদেশ,সিলেট বিভাগ,local_admin,boundaries,['place_of_worship_muslim'],[],Bangladesh,Sylhet,Sunamganj,Tahirpur,Balijuri,9f5a2965a4b5ff5b76d18d0ba9c1190f
9707654271.0,893ce343597ffff,24.9577199,91.367032,Gagli Narainpur Junior School,,"Gagli Narainpur Junior School, Sunamganj, Sunamganj District, Sylhet Division, Bangladesh","গাগলি নারাইনপুর জুনিয়র স্কুল, সুনামগঞ্জ জেলা, সিলেট বিভাগ, বাংলাদেশ",Sunamganj,বাংলাদেশ,সিলেট বিভাগ,local_admin,boundaries,"['educational_institution', 'school']",[],Bangladesh,Sylhet,Sunamganj,DakshinSunamganj,Joykalas,3c6b44326ece6c6476aeb17458585c6d
5779675580.0,893ce3c9917ffff,25.0956226,91.233733,Lohacura Dokkhin Para Maktob,"['logic_undp', 'Riverbank Erosion']","Lohacura Dokkhin Para Maktob, Tahirpur, Sunamganj District, Sylhet Division, Bangladesh","লোহাকুরা ডকখিন প্যারা ম্যাকটোব, সুনামগঞ্জ জেলা, সিলেট বিভাগ, বাংলাদেশ",Tahirpur,বাংলাদেশ,সিলেট বিভাগ,local_admin,boundaries,['school'],[],Bangladesh,Sylhet,Sunamganj,Tahirpur,Balijuri,9f5a2965a4b5ff5b76d18d0ba9c1190f
9707654272.0,893ce34308fffff,24.9303707,91.3634311,Noakhali Saptogram High School,,"Noakhali Saptogram High School, Sunamganj, Sunamganj District, Sylhet Division, Bangladesh","নখালি স্যাপটোগ্রাম উচ্চ বিদ্যালয়, সুনামগঞ্জ জেলা, সিলেট বিভাগ, বাংলাদেশ",Sunamganj,বাংলাদেশ,সিলেট বিভাগ,local_admin,boundaries,"['educational_institution', 'school']",[],Bangladesh,Sylhet,Sunamganj,DakshinSunamganj,Joykalas,3c6b44326ece6c6476aeb17458585c6d
9832901587.0,893ce308aa7ffff,25.1072591,91.7190391,,,"Dowarabazar, Sunamganj District, Sylhet Division, Bangladesh","সুনামগঞ্জ জেলা, সিলেট বিভাগ, বাংলাদেশ",Dowarabazar,বাংলাদেশ,সিলেট বিভাগ,local_admin,boundaries,['ford'],[],Bangladesh,Sylhet,Sunamganj,Chhatak,DakshinIslampur,b4982308ec079a128a644886320df02b
9707654273.0,893ce35a957ffff,24.9314007,91.3184982,Satgaon Jibdara High School,,"Satgaon Jibdara High School, Jamalganj, Sunamganj District, Sylhet Division, Bangladesh","সাতগাঁও জিবদার উচ্চ বিদ্যালয়, সুনামগঞ্জ জেলা, সিলেট বিভাগ, বাংলাদেশ",Jamalganj,বাংলাদেশ,সিলেট বিভাগ,local_admin,boundaries,"['educational_institution', 'school']",[],Bangladesh,Sylhet,Sunamganj,DakshinSunamganj,Shimulbak,7c004a20a120da87cafe6a773de7cffe
5779675581.0,893ce352443ffff,25.0912661,91.2532085,Puran Varanga Govt Primary School,"['logic_undp', 'Flood']","Puran Varanga Govt Primary School, Tahirpur, Sunamganj District, Sylhet Division, Bangladesh","পুরাণ বরঙ্গা গোভ্ট প্রাথমিক বিদ্যালয়, সুনামগঞ্জ জেলা, সিলেট বিভাগ, বাংলাদেশ",Tahirpur,বাংলাদেশ,সিলেট বিভাগ,local_admin,boundaries,['school'],[],Bangladesh,Sylhet,Sunamganj,Tahirpur,Balijuri,9f5a2965a4b5ff5b76d18d0ba9c1190f
9707654274.0,893ce351b8fffff,24.9687753,91.3508171,Astrogram Rasgobinda High School,,"Astrogram Rasgobinda High School, Jamalganj, Sunamganj District, Sylhet Division, Bangladesh","অ্যাস্ট্রোগ্রাম রাসগোবিন্ডা উচ্চ বিদ্যালয়, সুনামগঞ্জ জেলা, সিলেট বিভাগ, বাংলাদেশ",Jamalganj,বাংলাদেশ,সিলেট বিভাগ,local_admin,boundaries,"['educational_institution', 'school']",[],Bangladesh,Sylhet,Sunamganj,SunamganjSadar,Katair,5e7f7194f4abe65ed29d8d50f32b9c84
9832901836.0,893ce308e23ffff,25.11348,91.7032029,,,"Dowarabazar, Sunamganj District, Sylhet Division, Bangladesh","সুনামগঞ্জ জেলা, সিলেট বিভাগ, বাংলাদেশ",Dowarabazar,বাংলাদেশ,সিলেট বিভাগ,local_admin,boundaries,['ford'],[],Bangladesh,Sylhet,Sunamganj,Chhatak,DakshinIslampur,b4982308ec079a128a644886320df02b
5779675582.0,893ce3526dbffff,25.0763821,91.2373459,Anwarpur Durga Mondir,['logic_undp'],"Anwarpur Durga Mondir, Tahirpur, Sunamganj District, Sylhet Division, Bangladesh","আনওয়ারপুর দুর্গা মন্ডির, সুনামগঞ্জ জেলা, সিলেট বিভাগ, বাংলাদেশ",Tahirpur,বাংলাদেশ,সিলেট বিভাগ,local_admin,boundaries,['place_of_worship'],[],Bangladesh,Sylhet,Sunamganj,Bishwambarpur,Fatehpur,982d0cd2e7f1d613a3d125a9cb7b7acc
5781372417.0,893ce3c9d2bffff,25.1045647,91.2210596,Anwarpur Play Ground,"['logic_undp', 'flood']","Anwarpur Play Ground, Tahirpur, Sunamganj District, Sylhet Division, Bangladesh","আনওয়ারপুর খেলার মাঠ, সুনামগঞ্জ জেলা, সিলেট বিভাগ, বাংলাদেশ",Tahirpur,বাংলাদেশ,সিলেট বিভাগ,local_admin,boundaries,['playground'],[],Bangladesh,Sylhet,Sunamganj,Tahirpur,Balijuri,9f5a2965a4b5ff5b76d18d0ba9c1190f
9707709773.0,893ce3519a7ffff,24.9938344,91.368873,,,"Sunamganj, Sunamganj District, Sylhet Division, Bangladesh","সুনামগঞ্জ জেলা, সিলেট বিভাগ, বাংলাদেশ",Sunamganj,বাংলাদেশ,সিলেট বিভাগ,local_admin,boundaries,['educational_institution'],[],Bangladesh,Sylhet,Sunamganj,SunamganjSadar,Mohanpur,27238d4bd65fbc50ec222e2c00e2f74c
9707709775.0,893ce350ea7ffff,25.0305529,91.3574857,,,"Sunamganj, Sunamganj District, Sylhet Division, Bangladesh","সুনামগঞ্জ জেলা, সিলেট বিভাগ, বাংলাদেশ",Sunamganj,বাংলাদেশ,সিলেট বিভাগ,local_admin,boundaries,['educational_institution'],[],Bangladesh,Sylhet,Sunamganj,SunamganjSadar,Gourararang,dbfc7b9a8d5c2d11045a82e7a4d5f7c9
5781372419.0,893ce3c8a67ffff,25.1077659,91.2472996,Sastho Poribar Kollan Kendro,"['logic_undp', 'Flood']","Sastho Poribar Kollan Kendro, Bishwambarpur, Sunamganj District, Sylhet Division, Bangladesh","স্যাসথো পোরিবার কলান কেন্ড্রো, সুনামগঞ্জ জেলা, সিলেট বিভাগ, বাংলাদেশ",Bishwambarpur,বাংলাদেশ,সিলেট বিভাগ,local_admin,boundaries,['clinic'],[],Bangladesh,Sylhet,Sunamganj,Tahirpur,Balijuri,9f5a2965a4b5ff5b76d18d0ba9c1190f
9707709776.0,893ce350c27ffff,25.0436467,91.3686546,,,"Sunamganj, Sunamganj District, Sylhet Division, Bangladesh","সুনামগঞ্জ জেলা, সিলেট বিভাগ, বাংলাদেশ",Sunamganj,বাংলাদেশ,সিলেট বিভাগ,local_admin,boundaries,['educational_institution'],[],Bangladesh,Sylhet,Sunamganj,SunamganjSadar,Gourararang,dbfc7b9a8d5c2d11045a82e7a4d5f7c9
5781372420.0,893ce352457ffff,25.0951745,91.2512076,Community Clinic Puran Varanga,"['logic_undp', 'Flood']","Community Clinic Puran Varanga, Tahirpur, Sunamganj District, Sylhet Division, Bangladesh","কমিউনিটি ক্লিনিক পুরাণ বরঙ্গা, সুনামগঞ্জ জেলা, সিলেট বিভাগ, বাংলাদেশ",Tahirpur,বাংলাদেশ,সিলেট বিভাগ,local_admin,boundaries,['clinic'],[],Bangladesh,Sylhet,Sunamganj,Tahirpur,Balijuri,9f5a2965a4b5ff5b76d18d0ba9c1190f
5784884673.0,893ce3c8a0fffff,25.112684,91.240523,Kandarpara Tubewell,"['logic_undp', 'Flood']","Kandarpara Tubewell, Tahirpur, Sunamganj District, Sylhet Division, Bangladesh","কন্দরপেরা টিউবেল, সুনামগঞ্জ জেলা, সিলেট বিভাগ, বাংলাদেশ",Tahirpur,বাংলাদেশ,সিলেট বিভাগ,local_admin,boundaries,['drinking_water'],[],Bangladesh,Sylhet,Sunamganj,Tahirpur,Balijuri,9f5a2965a4b5ff5b76d18d0ba9c1190f
9707709780.0,893ce35762bffff,25.0698511,91.3941229,,,"Sunamganj, Sunamganj District, Sylhet Division, Bangladesh","সুনামগঞ্জ জেলা, সিলেট বিভাগ, বাংলাদেশ",Sunamganj,বাংলাদেশ,সিলেট বিভাগ,local_admin,boundaries,['educational_institution'],[],Bangladesh,Sylhet,Sunamganj,SunamganjSadar,Lakshmansree,df8fee834ec3655cd41ca43f499df9d3
5784885371.0,893ce3526afffff,25.0820692,91.259391,Mohiburer Barir Tubewell,"['logic_undp', 'Flood']","Mohiburer Barir Tubewell, Tahirpur, Sunamganj District, Sylhet Division, Bangladesh","মিবিবুরার বারির টিউবেল, সুনামগঞ্জ জেলা, সিলেট বিভাগ, বাংলাদেশ",Tahirpur,বাংলাদেশ,সিলেট বিভাগ,local_admin,boundaries,['drinking_water'],[],Bangladesh,Sylhet,Sunamganj,Tahirpur,Balijuri,9f5a2965a4b5ff5b76d18d0ba9c1190f
9707709781.0,893ce35760fffff,25.0686764,91.3884779,,,"Sunamganj, Sunamganj District, Sylhet Division, Bangladesh","সুনামগঞ্জ জেলা, সিলেট বিভাগ, বাংলাদেশ",Sunamganj,বাংলাদেশ,সিলেট বিভাগ,local_admin,boundaries,['educational_institution'],[],Bangladesh,Sylhet,Sunamganj,SunamganjSadar,Lakshmansree,df8fee834ec3655cd41ca43f499df9d3
5790001029.0,893ce3c9d0fffff,25.1060123,91.2158024,KashPara Jami Mosque,['logic_undp'],"KashPara Jami Mosque, Tahirpur, Sunamganj District, Sylhet Division, Bangladesh","কাশপুর জামি মসজিদ, সুনামগঞ্জ জেলা, সিলেট বিভাগ, বাংলাদেশ",Tahirpur,বাংলাদেশ,সিলেট বিভাগ,local_admin,boundaries,['place_of_worship_muslim'],[],Bangladesh,Sylhet,Sunamganj,Tahirpur,Balijuri,9f5a2965a4b5ff5b76d18d0ba9c1190f
5790001031.0,893ce3c9dc7ffff,25.107795,91.2088287,Rosulpur Kali Temple,['logic_undp'],"Rosulpur Kali Temple, Tahirpur, Sunamganj District, Sylhet Division, Bangladesh","রসুলপুর কালী মন্দির, সুনামগঞ্জ জেলা, সিলেট বিভাগ, বাংলাদেশ",Tahirpur,বাংলাদেশ,সিলেট বিভাগ,local_admin,boundaries,['place_of_worship'],[],Bangladesh,Sylhet,Sunamganj,Tahirpur,DakshinBadal,db978204fca6ca46d14fd28dbd384120
9707709782.0,893ce352937ffff,25.0905074,91.3770384,,,"Bishwambarpur, Sunamganj District, Sylhet Division, Bangladesh","সুনামগঞ্জ জেলা, সিলেট বিভাগ, বাংলাদেশ",Bishwambarpur,বাংলাদেশ,সিলেট বিভাগ,local_admin,boundaries,['educational_institution'],[],Bangladesh,Sylhet,Sunamganj,Bishwambarpur,Sholukabad,587bd4178c1e3b355d81441ae81da3a1
5790001032.0,893ce3c9dc7ffff,25.108016,91.2085497,Rosulpur purbo Para Jami Mosque,"['logic_undp', 'flood']","Rosulpur purbo Para Jami Mosque, Tahirpur, Sunamganj District, Sylhet Division, Bangladesh","রোজুলপুর পুর্বো প্যারা জামি মসজিদ, সুনামগঞ্জ জেলা, সিলেট বিভাগ, বাংলাদেশ",Tahirpur,বাংলাদেশ,সিলেট বিভাগ,local_admin,boundaries,['place_of_worship_muslim'],[],Bangladesh,Sylhet,Sunamganj,Tahirpur,DakshinBadal,db978204fca6ca46d14fd28dbd384120
5790001033.0,893ce3c9dc7ffff,25.1083099,91.2066293,Rosulpur Jami Mosque,['logic_undp'],"Rosulpur Jami Mosque, Tahirpur, Sunamganj District, Sylhet Division, Bangladesh","রোজুলপুর জামি মসজিদ, সুনামগঞ্জ জেলা, সিলেট বিভাগ, বাংলাদেশ",Tahirpur,বাংলাদেশ,সিলেট বিভাগ,local_admin,boundaries,['place_of_worship_muslim'],[],Bangladesh,Sylhet,Sunamganj,Tahirpur,DakshinBadal,db978204fca6ca46d14fd28dbd384120
5790001036.0,893ce3c9dc3ffff,25.1085285,91.2026784,Rosulpur Jami Mosque,['logic_undp'],"Rosulpur Jami Mosque, Tahirpur, Sunamganj District, Sylhet Division, Bangladesh","রোজুলপুর জামি মসজিদ, সুনামগঞ্জ জেলা, সিলেট বিভাগ, বাংলাদেশ",Tahirpur,বাংলাদেশ,সিলেট বিভাগ,local_admin,boundaries,['place_of_worship_muslim'],[],Bangladesh,Sylhet,Sunamganj,Tahirpur,Tahirpur,f1ecf83e6fb4b6c142553e322eec0698
9833851424.0,893ce3576cfffff,25.0691097,91.3784814,,,"Sunamganj, Sunamganj District, Sylhet Division, Bangladesh","সুনামগঞ্জ জেলা, সিলেট বিভাগ, বাংলাদেশ",Sunamganj,বাংলাদেশ,সিলেট বিভাগ,local_admin,boundaries,['ford'],[],Bangladesh,Sylhet,Sunamganj,SunamganjSadar,Gourararang,dbfc7b9a8d5c2d11045a82e7a4d5f7c9
9833851463.0,893ce352b07ffff,25.068326,91.3656601,,,"Bishwambarpur, Sunamganj District, Sylhet Division, Bangladesh","সুনামগঞ্জ জেলা, সিলেট বিভাগ, বাংলাদেশ",Bishwambarpur,বাংলাদেশ,সিলেট বিভাগ,local_admin,boundaries,['ford'],[],Bangladesh,Sylhet,Sunamganj,Bishwambarpur,Sholukabad,587bd4178c1e3b355d81441ae81da3a1
5790001037.0,893ce3c9ddbffff,25.1083561,91.2003891,Zeti Roulpur Primary School,"['logic_undp', 'flood']","Zeti Roulpur Primary School, Tahirpur, Sunamganj District, Sylhet Division, Bangladesh","জেটি রোলপুর প্রাথমিক বিদ্যালয়, সুনামগঞ্জ জেলা, সিলেট বিভাগ, বাংলাদেশ",Tahirpur,বাংলাদেশ,সিলেট বিভাগ,local_admin,boundaries,['school'],[],Bangladesh,Sylhet,Sunamganj,Tahirpur,Tahirpur,f1ecf83e6fb4b6c142553e322eec0698
5790001169.0,893ce3c817bffff,25.1352953,91.2037861,Pagol Pur Eid Gha Math,"['logic_undp', 'Flood']","Pagol Pur Eid Gha Math, Tahirpur, Sunamganj District, Sylhet Division, Bangladesh","প্যাগল পুর Eid দ ঘা গণিত, সুনামগঞ্জ জেলা, সিলেট বিভাগ, বাংলাদেশ",Tahirpur,বাংলাদেশ,সিলেট বিভাগ,local_admin,boundaries,['place_of_worship_muslim'],[],Bangladesh,Sylhet,Sunamganj,Tahirpur,DakshinBadal,db978204fca6ca46d14fd28dbd384120
9848265087.0,893ce357693ffff,25.0818516,91.3777394,,,"Bishwambarpur, Sunamganj District, Sylhet Division, Bangladesh","সুনামগঞ্জ জেলা, সিলেট বিভাগ, বাংলাদেশ",Bishwambarpur,বাংলাদেশ,সিলেট বিভাগ,local_admin,boundaries,['ford'],[],Bangladesh,Sylhet,Sunamganj,Bishwambarpur,Sholukabad,587bd4178c1e3b355d81441ae81da3a1
5790001170.0,893ce3c816bffff,25.1335694,91.2044406,Pagol Pur Jami Mosque,['logic_undp'],"Pagol Pur Jami Mosque, Tahirpur, Sunamganj District, Sylhet Division, Bangladesh","প্যাগল পুর জামি মসজিদ, সুনামগঞ্জ জেলা, সিলেট বিভাগ, বাংলাদেশ",Tahirpur,বাংলাদেশ,সিলেট বিভাগ,local_admin,boundaries,['place_of_worship_muslim'],[],Bangladesh,Sylhet,Sunamganj,Tahirpur,UttarBadaghat,760bb8e06cde2404d5c7c61cbfc2517c
9848267331.0,893ce35293bffff,25.0860139,91.3746025,,,"Bishwambarpur, Sunamganj District, Sylhet Division, Bangladesh","সুনামগঞ্জ জেলা, সিলেট বিভাগ, বাংলাদেশ",Bishwambarpur,বাংলাদেশ,সিলেট বিভাগ,local_admin,boundaries,['ford'],[],Bangladesh,Sylhet,Sunamganj,Bishwambarpur,Sholukabad,587bd4178c1e3b355d81441ae81da3a1
9864185076.0,893ce349617ffff,24.7168565,91.3296676,,,"Sulla, Sunamganj District, Sylhet Division, Bangladesh","সুনামগঞ্জ জেলা, সিলেট বিভাগ, বাংলাদেশ",Sulla,বাংলাদেশ,সিলেট বিভাগ,local_admin,boundaries,['ford'],[],Bangladesh,Sylhet,Sunamganj,Sulla,Habibpur,44bf22df3c7936119b6bf7c0eae0f2a3
9868263935.0,893ce34a12fffff,24.8284619,91.3941378,,,"Derai Upazila, Sunamganj District, Sylhet Division, Bangladesh","দিরাই উপজেলা, সুনামগঞ্জ জেলা, সিলেট বিভাগ, বাংলাদেশ",দিরাই উপজেলা,বাংলাদেশ,সিলেট বিভাগ,local_admin,boundaries,['ford'],[],Bangladesh,Sylhet,Sunamganj,Derai,Karimpur,80de460ca44fd3065d2345fb60f817c1
5888196004.0,893ce3c8a03ffff,25.114763,91.2381399,B I B D B Porichalito School,"['logic_undp', 'flood']","B I B D B Porichalito School, Tahirpur, Sunamganj District, Sylhet Division, Bangladesh","বি আই বি ডি বি পোরিচালিটো স্কুল, সুনামগঞ্জ জেলা, সিলেট বিভাগ, বাংলাদেশ",Tahirpur,বাংলাদেশ,সিলেট বিভাগ,local_admin,boundaries,['school'],[],Bangladesh,Sylhet,Sunamganj,Tahirpur,Balijuri,9f5a2965a4b5ff5b76d18d0ba9c1190f
9868263956.0,893ce34ae83ffff,24.8214478,91.3968429,,,"Derai Upazila, Sunamganj District, Sylhet Division, Bangladesh","দিরাই উপজেলা, সুনামগঞ্জ জেলা, সিলেট বিভাগ, বাংলাদেশ",দিরাই উপজেলা,বাংলাদেশ,সিলেট বিভাগ,local_admin,boundaries,['ford'],[],Bangladesh,Sylhet,Sunamganj,Derai,Karimpur,80de460ca44fd3065d2345fb60f817c1
5888196005.0,893ce3c8a2fffff,25.1110058,91.2521625,Balijuri Purbopara Jami Mosque,"['logic_undp', 'flood']","Balijuri Purbopara Jami Mosque, Bishwambarpur, Sunamganj District, Sylhet Division, Bangladesh","বালিজুরি পার্বোপারা জামি মসজিদ, সুনামগঞ্জ জেলা, সিলেট বিভাগ, বাংলাদেশ",Bishwambarpur,বাংলাদেশ,সিলেট বিভাগ,local_admin,boundaries,['place_of_worship_muslim'],[],Bangladesh,Sylhet,Sunamganj,Tahirpur,Balijuri,9f5a2965a4b5ff5b76d18d0ba9c1190f
5888196010.0,893ce352493ffff,25.1083852,91.2490296,Balijuri Govt Primary School,['logic_undp'],"Balijuri Govt Primary School, Bishwambarpur, Sunamganj District, Sylhet Division, Bangladesh","বালিজুরি সরকার প্রাথমিক বিদ্যালয়, সুনামগঞ্জ জেলা, সিলেট বিভাগ, বাংলাদেশ",Bishwambarpur,বাংলাদেশ,সিলেট বিভাগ,local_admin,boundaries,['school'],[],Bangladesh,Sylhet,Sunamganj,Tahirpur,Balijuri,9f5a2965a4b5ff5b76d18d0ba9c1190f
9868263957.0,893ce34ae13ffff,24.817035,91.3978219,,,"Derai Upazila, Sunamganj District, Sylhet Division, Bangladesh","দিরাই উপজেলা, সুনামগঞ্জ জেলা, সিলেট বিভাগ, বাংলাদেশ",দিরাই উপজেলা,বাংলাদেশ,সিলেট বিভাগ,local_admin,boundaries,['ford'],[],Bangladesh,Sylhet,Sunamganj,Derai,Karimpur,80de460ca44fd3065d2345fb60f817c1
9868263958.0,893ce34ae1bffff,24.8124701,91.3988289,,,"Derai Upazila, Sunamganj District, Sylhet Division, Bangladesh","দিরাই উপজেলা, সুনামগঞ্জ জেলা, সিলেট বিভাগ, বাংলাদেশ",দিরাই উপজেলা,বাংলাদেশ,সিলেট বিভাগ,local_admin,boundaries,['ford'],[],Bangladesh,Sylhet,Sunamganj,Derai,Karimpur,80de460ca44fd3065d2345fb60f817c1
5888196011.0,893ce352493ffff,25.1082091,91.2492912,Hazi Alahi Box High School,['logic_undp'],"Hazi Alahi Box High School, Bishwambarpur, Sunamganj District, Sylhet Division, Bangladesh","হাজী আলাহি বক্স উচ্চ বিদ্যালয়, সুনামগঞ্জ জেলা, সিলেট বিভাগ, বাংলাদেশ",Bishwambarpur,বাংলাদেশ,সিলেট বিভাগ,local_admin,boundaries,['school'],[],Bangladesh,Sylhet,Sunamganj,Tahirpur,Balijuri,9f5a2965a4b5ff5b76d18d0ba9c1190f
9868263959.0,893ce34ae4fffff,24.8058855,91.3986076,,,"Derai Upazila, Sunamganj District, Sylhet Division, Bangladesh","দিরাই উপজেলা, সুনামগঞ্জ জেলা, সিলেট বিভাগ, বাংলাদেশ",দিরাই উপজেলা,বাংলাদেশ,সিলেট বিভাগ,local_admin,boundaries,['ford'],[],Bangladesh,Sylhet,Sunamganj,Derai,Karimpur,80de460ca44fd3065d2345fb60f817c1
5888196016.0,893ce3526d3ffff,25.0804294,91.2374318,Anwarpur Durga Mondir,['logic_undp'],"Anwarpur Durga Mondir, Tahirpur, Sunamganj District, Sylhet Division, Bangladesh","আনওয়ারপুর দুর্গা মন্ডির, সুনামগঞ্জ জেলা, সিলেট বিভাগ, বাংলাদেশ",Tahirpur,বাংলাদেশ,সিলেট বিভাগ,local_admin,boundaries,['place_of_worship'],[],Bangladesh,Sylhet,Sunamganj,Bishwambarpur,Fatehpur,982d0cd2e7f1d613a3d125a9cb7b7acc
9868263960.0,893ce34a333ffff,24.8095599,91.3857574,,,"Derai Upazila, Sunamganj District, Sylhet Division, Bangladesh","দিরাই উপজেলা, সুনামগঞ্জ জেলা, সিলেট বিভাগ, বাংলাদেশ",দিরাই উপজেলা,বাংলাদেশ,সিলেট বিভাগ,local_admin,boundaries,['ford'],[],Bangladesh,Sylhet,Sunamganj,Derai,Karimpur,80de460ca44fd3065d2345fb60f817c1
5888319173.0,893ce3c8e7bffff,25.1212254,91.2220144,Mahtabpur Eidgah Ground,"['logic_undp', 'Flood']","Mahtabpur Eidgah Ground, Tahirpur, Sunamganj District, Sylhet Division, Bangladesh","মাহতাবপুর Eid দগাহ গ্রাউন্ড, সুনামগঞ্জ জেলা, সিলেট বিভাগ, বাংলাদেশ",Tahirpur,বাংলাদেশ,সিলেট বিভাগ,local_admin,boundaries,['place_of_worship_muslim'],[],Bangladesh,Sylhet,Sunamganj,Tahirpur,Balijuri,9f5a2965a4b5ff5b76d18d0ba9c1190f
6102554805.0,893cc496a1bffff,24.7522097,91.2452316,Noagoan Bazer,['logic_undp'],"Noagoan Bazer, Derai Upazila, Sunamganj District, Sylhet Division, Bangladesh","নোগান বাজার, দিরাই উপজেলা, সুনামগঞ্জ জেলা, সিলেট বিভাগ, বাংলাদেশ",দিরাই উপজেলা,বাংলাদেশ,সিলেট বিভাগ,local_admin,boundaries,['marketplace'],[],Bangladesh,Sylhet,Sunamganj,Derai,CharnarChar,f4f460a4a148899400ec08d8724e48a9
9868306272.0,893ce34800fffff,24.7691558,91.3900719,,,"Derai Upazila, Sunamganj District, Sylhet Division, Bangladesh","দিরাই উপজেলা, সুনামগঞ্জ জেলা, সিলেট বিভাগ, বাংলাদেশ",দিরাই উপজেলা,বাংলাদেশ,সিলেট বিভাগ,local_admin,boundaries,['ford'],[],Bangladesh,Sylhet,Sunamganj,Derai,Karimpur,80de460ca44fd3065d2345fb60f817c1
6102554806.0,893cc494183ffff,24.7396599,91.2351465,Shamarchar Bazer,['logic_undp'],"Shamarchar Bazer, Derai Upazila, Sunamganj District, Sylhet Division, Bangladesh","শামারচার বাজর, দিরাই উপজেলা, সুনামগঞ্জ জেলা, সিলেট বিভাগ, বাংলাদেশ",দিরাই উপজেলা,বাংলাদেশ,সিলেট বিভাগ,local_admin,boundaries,['marketplace'],[],Bangladesh,Sylhet,Sunamganj,Sulla,Atgaon,32048c30df919ee10f942b9541a41d94
9868306280.0,893ce34800bffff,24.7673315,91.3869293,,,"Derai Upazila, Sunamganj District, Sylhet Division, Bangladesh","দিরাই উপজেলা, সুনামগঞ্জ জেলা, সিলেট বিভাগ, বাংলাদেশ",দিরাই উপজেলা,বাংলাদেশ,সিলেট বিভাগ,local_admin,boundaries,['ford'],[],Bangladesh,Sylhet,Sunamganj,Derai,Karimpur,80de460ca44fd3065d2345fb60f817c1
9868475156.0,893ce3491afffff,24.7323418,91.3837194,,,"Derai Upazila, Sunamganj District, Sylhet Division, Bangladesh","দিরাই উপজেলা, সুনামগঞ্জ জেলা, সিলেট বিভাগ, বাংলাদেশ",দিরাই উপজেলা,বাংলাদেশ,সিলেট বিভাগ,local_admin,boundaries,['ford'],[],Bangladesh,Sylhet,Sunamganj,Derai,Taral,52afa58d5b4941efd4722e0436e4b8be
6102554808.0,893cc496bcbffff,24.7568254,91.2617379,Charnerchar Bazer link Tower.,['logic_undp'],"Charnerchar Bazer link Tower., Derai Upazila, Sunamganj District, Sylhet Division, Bangladesh","চারনারচার বাজর লিংক টাওয়ার।, দিরাই উপজেলা, সুনামগঞ্জ জেলা, সিলেট বিভাগ, বাংলাদেশ",দিরাই উপজেলা,বাংলাদেশ,সিলেট বিভাগ,local_admin,boundaries,['water_tower'],[],Bangladesh,Sylhet,Sunamganj,Derai,CharnarChar,f4f460a4a148899400ec08d8724e48a9
9877349873.0,893ce35016fffff,25.0293004,91.3380187,,,"Sunamganj, Sunamganj District, Sylhet Division, Bangladesh","সুনামগঞ্জ জেলা, সিলেট বিভাগ, বাংলাদেশ",Sunamganj,বাংলাদেশ,সিলেট বিভাগ,local_admin,boundaries,['ford'],[],Bangladesh,Sylhet,Sunamganj,SunamganjSadar,Gourararang,dbfc7b9a8d5c2d11045a82e7a4d5f7c9
6120346834.0,893cc49453bffff,24.7445635,91.2284437,Daudpur fish market,"['logic_undp', 'Sudden Flood']","Daudpur fish market, Derai Upazila, Sunamganj District, Sylhet Division, Bangladesh","দাউদপুর ফিশ মার্কেট, দিরাই উপজেলা, সুনামগঞ্জ জেলা, সিলেট বিভাগ, বাংলাদেশ",দিরাই উপজেলা,বাংলাদেশ,সিলেট বিভাগ,local_admin,boundaries,['marketplace'],[],Bangladesh,Sylhet,Sunamganj,Sulla,Atgaon,32048c30df919ee10f942b9541a41d94
9880055657.0,893ce358a5bffff,24.8454418,91.3135458,,,"Derai Upazila, Sunamganj District, Sylhet Division, Bangladesh","দিরাই উপজেলা, সুনামগঞ্জ জেলা, সিলেট বিভাগ, বাংলাদেশ",দিরাই উপজেলা,বাংলাদেশ,সিলেট বিভাগ,local_admin,boundaries,['ford'],[],Bangladesh,Sylhet,Sunamganj,Derai,Rajanagar,1f9ab86b5ecad7c72c953ff02dacf776
6120346835.0,893cc49453bffff,24.7447291,91.2284437,Daudpur bazar,"['logic_undp', 'Sudden Flood']","Daudpur bazar, Derai Upazila, Sunamganj District, Sylhet Division, Bangladesh","দাউদপুর বাজার, দিরাই উপজেলা, সুনামগঞ্জ জেলা, সিলেট বিভাগ, বাংলাদেশ",দিরাই উপজেলা,বাংলাদেশ,সিলেট বিভাগ,local_admin,boundaries,['marketplace'],[],Bangladesh,Sylhet,Sunamganj,Sulla,Atgaon,32048c30df919ee10f942b9541a41d94
6123138144.0,893cc494c9bffff,24.7448777,91.259678,Milon Bazer,['logic_undp'],"Milon Bazer, Derai Upazila, Sunamganj District, Sylhet Division, Bangladesh","মিলন বাজার, দিরাই উপজেলা, সুনামগঞ্জ জেলা, সিলেট বিভাগ, বাংলাদেশ",দিরাই উপজেলা,বাংলাদেশ,সিলেট বিভাগ,local_admin,boundaries,['marketplace'],[],Bangladesh,Sylhet,Sunamganj,Derai,CharnarChar,f4f460a4a148899400ec08d8724e48a9
9880055666.0,893ce359dbbffff,24.8540764,91.3009543,,,"Derai Upazila, Sunamganj District, Sylhet Division, Bangladesh","দিরাই উপজেলা, সুনামগঞ্জ জেলা, সিলেট বিভাগ, বাংলাদেশ",দিরাই উপজেলা,বাংলাদেশ,সিলেট বিভাগ,local_admin,boundaries,['ford'],[],Bangladesh,Sylhet,Sunamganj,Derai,Rafinagar,8c14b3ee54071b25229dc366c17cee8a
6123187949.0,893cc496a4bffff,24.743689,91.2414222,Shamarchar Hizbul Madrasa and Mosjid,['logic_undp'],"Shamarchar Hizbul Madrasa and Mosjid, Derai Upazila, Sunamganj District, Sylhet Division, Bangladesh","শামারচার হিজবুল মাদ্রাস এবং মসজিদ, দিরাই উপজেলা, সুনামগঞ্জ জেলা, সিলেট বিভাগ, বাংলাদেশ",দিরাই উপজেলা,বাংলাদেশ,সিলেট বিভাগ,local_admin,boundaries,['place_of_worship_muslim'],[],Bangladesh,Sylhet,Sunamganj,Derai,CharnarChar,f4f460a4a148899400ec08d8724e48a9
9894358427.0,893ce35026bffff,24.9993576,91.3020001,,,"Jamalganj, Sunamganj, Sunamganj District, Sylhet Division, Bangladesh","সুনামগঞ্জ জেলা, সিলেট বিভাগ, বাংলাদেশ",Sunamganj,বাংলাদেশ,সিলেট বিভাগ,local_admin,boundaries,['ford'],[],Bangladesh,Sylhet,Sunamganj,Jamalganj,SachnaBazar,ee03e650fc3379ea4f621d8852df28f6
9900055763.0,893ce3430d3ffff,24.9291075,91.3543929,,,"Sunamganj, Sunamganj District, Sylhet Division, Bangladesh","সুনামগঞ্জ জেলা, সিলেট বিভাগ, বাংলাদেশ",Sunamganj,বাংলাদেশ,সিলেট বিভাগ,local_admin,boundaries,['ford'],[],Bangladesh,Sylhet,Sunamganj,DakshinSunamganj,Joykalas,3c6b44326ece6c6476aeb17458585c6d
6123187950.0,893cc496bcfffff,24.7588056,91.2654287,Charnerchar Govt. Primary School,['logic_undp'],"Charnerchar Govt. Primary School, Sulla, Sunamganj District, Sylhet Division, Bangladesh","চারনারচার গভঃপ্রাথমিক বিদ্যালয়, সুনামগঞ্জ জেলা, সিলেট বিভাগ, বাংলাদেশ",Sulla,বাংলাদেশ,সিলেট বিভাগ,local_admin,boundaries,['school'],[],Bangladesh,Sylhet,Sunamganj,Sulla,Habibpur,44bf22df3c7936119b6bf7c0eae0f2a3
6123187951.0,893cc496bcbffff,24.7581528,91.2618533,Charnerchar S D P highschool,"['logic_undp', 'flash flood']","Charnerchar S D P highschool, Derai Upazila, Sunamganj District, Sylhet Division, Bangladesh","চারনারচার এস ডি পি হাই স্কুল, দিরাই উপজেলা, সুনামগঞ্জ জেলা, সিলেট বিভাগ, বাংলাদেশ",দিরাই উপজেলা,বাংলাদেশ,সিলেট বিভাগ,local_admin,boundaries,['school'],[],Bangladesh,Sylhet,Sunamganj,Derai,CharnarChar,f4f460a4a148899400ec08d8724e48a9
9909359702.0,893ce358983ffff,24.8892079,91.3490081,,,"Sunamganj, Sunamganj District, Sylhet Division, Bangladesh","সুনামগঞ্জ জেলা, সিলেট বিভাগ, বাংলাদেশ",Sunamganj,বাংলাদেশ,সিলেট বিভাগ,local_admin,boundaries,['ford'],[],Bangladesh,Sylhet,Sunamganj,DakshinSunamganj,Patharia,91ec727fb7efdf599d3d8960bec7833a
6123187952.0,893cc496bcbffff,24.7575147,91.2617755,Kalampur Govt. Primary School,"['logic_undp', 'flash flood']","Kalampur Govt. Primary School, Derai Upazila, Sunamganj District, Sylhet Division, Bangladesh","কালামপুর সরকারপ্রাথমিক বিদ্যালয়, দিরাই উপজেলা, সুনামগঞ্জ জেলা, সিলেট বিভাগ, বাংলাদেশ",দিরাই উপজেলা,বাংলাদেশ,সিলেট বিভাগ,local_admin,boundaries,['school'],[],Bangladesh,Sylhet,Sunamganj,Derai,CharnarChar,f4f460a4a148899400ec08d8724e48a9
6123187953.0,893cc49686bffff,24.7643311,91.2577322,Kartikpur Govt. Primary School,['logic_undp'],"Kartikpur Govt. Primary School, Derai Upazila, Sunamganj District, Sylhet Division, Bangladesh","কার্তিকপুর সরকারপ্রাথমিক বিদ্যালয়, দিরাই উপজেলা, সুনামগঞ্জ জেলা, সিলেট বিভাগ, বাংলাদেশ",দিরাই উপজেলা,বাংলাদেশ,সিলেট বিভাগ,local_admin,boundaries,['school'],[],Bangladesh,Sylhet,Sunamganj,Derai,CharnarChar,f4f460a4a148899400ec08d8724e48a9
9909359731.0,893ce358953ffff,24.8774487,91.3465359,,,"Sunamganj, Sunamganj District, Sylhet Division, Bangladesh","সুনামগঞ্জ জেলা, সিলেট বিভাগ, বাংলাদেশ",Sunamganj,বাংলাদেশ,সিলেট বিভাগ,local_admin,boundaries,['ford'],[],Bangladesh,Sylhet,Sunamganj,DakshinSunamganj,Patharia,91ec727fb7efdf599d3d8960bec7833a
9909381133.0,893ce358977ffff,24.8779516,91.3594366,,,"Sunamganj, Sunamganj District, Sylhet Division, Bangladesh","সুনামগঞ্জ জেলা, সিলেট বিভাগ, বাংলাদেশ",Sunamganj,বাংলাদেশ,সিলেট বিভাগ,local_admin,boundaries,['ford'],[],Bangladesh,Sylhet,Sunamganj,DakshinSunamganj,Patharia,91ec727fb7efdf599d3d8960bec7833a
6123187954.0,893cc496abbffff,24.7603644,91.2477368,Alipur Govt. Primary School,['logic_undp'],"Alipur Govt. Primary School, Derai Upazila, Sunamganj District, Sylhet Division, Bangladesh","আলিপুর সরকারপ্রাথমিক বিদ্যালয়, দিরাই উপজেলা, সুনামগঞ্জ জেলা, সিলেট বিভাগ, বাংলাদেশ",দিরাই উপজেলা,বাংলাদেশ,সিলেট বিভাগ,local_admin,boundaries,['school'],[],Bangladesh,Sylhet,Sunamganj,Derai,CharnarChar,f4f460a4a148899400ec08d8724e48a9
9913419802.0,893ce341253ffff,24.8475191,91.3831918,,,"Sunamganj, Sunamganj District, Sylhet Division, Bangladesh","সুনামগঞ্জ জেলা, সিলেট বিভাগ, বাংলাদেশ",Sunamganj,বাংলাদেশ,সিলেট বিভাগ,local_admin,boundaries,['ford'],[],Bangladesh,Sylhet,Sunamganj,DakshinSunamganj,PaschimBirgaon,a8b18ee29fffc44c81c0eb60068c6c92
6123187955.0,893cc496a2fffff,24.7502732,91.2612283,Kartikpur East Haty Anondo School,['logic_undp'],"Kartikpur East Haty Anondo School, Derai Upazila, Sunamganj District, Sylhet Division, Bangladesh","কার্তিকপুর ইস্ট হ্যাটি আনন্ডো স্কুল, দিরাই উপজেলা, সুনামগঞ্জ জেলা, সিলেট বিভাগ, বাংলাদেশ",দিরাই উপজেলা,বাংলাদেশ,সিলেট বিভাগ,local_admin,boundaries,['school'],[],Bangladesh,Sylhet,Sunamganj,Derai,CharnarChar,f4f460a4a148899400ec08d8724e48a9
9913419822.0,893ce34a197ffff,24.8418804,91.3805015,,,"Sunamganj, Sunamganj District, Sylhet Division, Bangladesh","সুনামগঞ্জ জেলা, সিলেট বিভাগ, বাংলাদেশ",Sunamganj,বাংলাদেশ,সিলেট বিভাগ,local_admin,boundaries,['ford'],[],Bangladesh,Sylhet,Sunamganj,DakshinSunamganj,PaschimBirgaon,a8b18ee29fffc44c81c0eb60068c6c92
6123187956.0,893cc496a2bffff,24.7513376,91.2555018,Myti FI.VDB.half building School,['logic_undp'],"Myti FI.VDB.half building School, Derai Upazila, Sunamganj District, Sylhet Division, Bangladesh","Myti fi.vdb.half বিল্ডিং স্কুল, দিরাই উপজেলা, সুনামগঞ্জ জেলা, সিলেট বিভাগ, বাংলাদেশ",দিরাই উপজেলা,বাংলাদেশ,সিলেট বিভাগ,local_admin,boundaries,['school'],[],Bangladesh,Sylhet,Sunamganj,Derai,CharnarChar,f4f460a4a148899400ec08d8724e48a9
9913419823.0,893ce34a197ffff,24.841921,91.3804511,,,"Sunamganj, Sunamganj District, Sylhet Division, Bangladesh","সুনামগঞ্জ জেলা, সিলেট বিভাগ, বাংলাদেশ",Sunamganj,বাংলাদেশ,সিলেট বিভাগ,local_admin,boundaries,['ford'],[],Bangladesh,Sylhet,Sunamganj,DakshinSunamganj,PaschimBirgaon,a8b18ee29fffc44c81c0eb60068c6c92
6123187957.0,893cc496a1bffff,24.751401,91.244384,Noagoan Islampur Non-Govt. Primary School,['logic_undp'],"Noagoan Islampur Non-Govt. Primary School, Derai Upazila, Sunamganj District, Sylhet Division, Bangladesh","নোগান ইসলাম্পুর নন-গভট।প্রাথমিক বিদ্যালয়, দিরাই উপজেলা, সুনামগঞ্জ জেলা, সিলেট বিভাগ, বাংলাদেশ",দিরাই উপজেলা,বাংলাদেশ,সিলেট বিভাগ,local_admin,boundaries,['school'],[],Bangladesh,Sylhet,Sunamganj,Derai,CharnarChar,f4f460a4a148899400ec08d8724e48a9
9913419824.0,893ce34a197ffff,24.840353,91.3811011,,,"Sunamganj, Sunamganj District, Sylhet Division, Bangladesh","সুনামগঞ্জ জেলা, সিলেট বিভাগ, বাংলাদেশ",Sunamganj,বাংলাদেশ,সিলেট বিভাগ,local_admin,boundaries,['ford'],[],Bangladesh,Sylhet,Sunamganj,DakshinSunamganj,PaschimBirgaon,a8b18ee29fffc44c81c0eb60068c6c92
6123187958.0,893cc496a03ffff,24.7552105,91.2470931,"BRAC Primary School,Kamalpur.",['logic_undp'],"BRAC Primary School Kamalpur., Derai Upazila, Sunamganj District, Sylhet Division, Bangladesh","ব্র্যাক প্রাথমিক বিদ্যালয় কামালপুর।, দিরাই উপজেলা, সুনামগঞ্জ জেলা, সিলেট বিভাগ, বাংলাদেশ",দিরাই উপজেলা,বাংলাদেশ,সিলেট বিভাগ,local_admin,boundaries,['school'],[],Bangladesh,Sylhet,Sunamganj,Derai,CharnarChar,f4f460a4a148899400ec08d8724e48a9
9916643514.0,893ce35a9d3ffff,24.9380432,91.3107248,,,"Jamalganj, Sunamganj District, Sylhet Division, Bangladesh","সুনামগঞ্জ জেলা, সিলেট বিভাগ, বাংলাদেশ",Jamalganj,বাংলাদেশ,সিলেট বিভাগ,local_admin,boundaries,['hospital'],[],Bangladesh,Sylhet,Sunamganj,DakshinSunamganj,Shimulbak,7c004a20a120da87cafe6a773de7cffe
6123187959.0,893cc496a8bffff,24.7572005,91.2433648,Kanupur Govt. Primary School,['logic_undp'],"Kanupur Govt. Primary School, Derai Upazila, Sunamganj District, Sylhet Division, Bangladesh","কানুপুর সরকারপ্রাথমিক বিদ্যালয়, দিরাই উপজেলা, সুনামগঞ্জ জেলা, সিলেট বিভাগ, বাংলাদেশ",দিরাই উপজেলা,বাংলাদেশ,সিলেট বিভাগ,local_admin,boundaries,['school'],[],Bangladesh,Sylhet,Sunamganj,Derai,CharnarChar,f4f460a4a148899400ec08d8724e48a9
9917478728.0,893ce351cb7ffff,25.0038915,91.3226821,,,"Sunamganj, Sunamganj District, Sylhet Division, Bangladesh","সুনামগঞ্জ জেলা, সিলেট বিভাগ, বাংলাদেশ",Sunamganj,বাংলাদেশ,সিলেট বিভাগ,local_admin,boundaries,['ford'],[],Bangladesh,Sylhet,Sunamganj,SunamganjSadar,Mohanpur,27238d4bd65fbc50ec222e2c00e2f74c
6123187960.0,893cc496ad7ffff,24.7576145,91.2381747,Sada Nandapur Govt. Primary School,"['logic_undp', 'flash flood']","Sada Nandapur Govt. Primary School, Derai Upazila, Sunamganj District, Sylhet Division, Bangladesh","সাদ নন্দপুর সরকারপ্রাথমিক বিদ্যালয়, দিরাই উপজেলা, সুনামগঞ্জ জেলা, সিলেট বিভাগ, বাংলাদেশ",দিরাই উপজেলা,বাংলাদেশ,সিলেট বিভাগ,local_admin,boundaries,['school'],[],Bangladesh,Sylhet,Sunamganj,Derai,CharnarChar,f4f460a4a148899400ec08d8724e48a9
9964626611.0,893ce351a47ffff,24.9497488,91.3260987,,,"Jamalganj, Sunamganj District, Sylhet Division, Bangladesh","সুনামগঞ্জ জেলা, সিলেট বিভাগ, বাংলাদেশ",Jamalganj,বাংলাদেশ,সিলেট বিভাগ,local_admin,boundaries,['ford'],[],Bangladesh,Sylhet,Sunamganj,SunamganjSadar,Katair,5e7f7194f4abe65ed29d8d50f32b9c84
6123187961.0,893cc496e6bffff,24.757427,91.2338322,Alangjury Govt. Primary School,"['logic_undp', 'flash flood']","Alangjury Govt. Primary School, Derai Upazila, Sunamganj District, Sylhet Division, Bangladesh","আলংজুরি সরকারপ্রাথমিক বিদ্যালয়, দিরাই উপজেলা, সুনামগঞ্জ জেলা, সিলেট বিভাগ, বাংলাদেশ",দিরাই উপজেলা,বাংলাদেশ,সিলেট বিভাগ,local_admin,boundaries,['school'],[],Bangladesh,Sylhet,Sunamganj,Derai,CharnarChar,f4f460a4a148899400ec08d8724e48a9
6123187962.0,893cc496adbffff,24.75324,91.233505,"Hafijia Madrasa ,Perua",['logic_undp'],"Hafijia Madrasa Perua, Derai Upazila, Sunamganj District, Sylhet Division, Bangladesh","হাফিজিয়া মাদ্রাসার পেরুয়া, দিরাই উপজেলা, সুনামগঞ্জ জেলা, সিলেট বিভাগ, বাংলাদেশ",দিরাই উপজেলা,বাংলাদেশ,সিলেট বিভাগ,local_admin,boundaries,['kindergarten'],[],Bangladesh,Sylhet,Sunamganj,Derai,CharnarChar,f4f460a4a148899400ec08d8724e48a9
6123187963.0,893cc496a57ffff,24.7506385,91.2423295,Shamarchar Govt. Primary School,"['logic_undp', 'flash flood']","Shamarchar Govt. Primary School, Derai Upazila, Sunamganj District, Sylhet Division, Bangladesh","শামারচার সরকারপ্রাথমিক বিদ্যালয়, দিরাই উপজেলা, সুনামগঞ্জ জেলা, সিলেট বিভাগ, বাংলাদেশ",দিরাই উপজেলা,বাংলাদেশ,সিলেট বিভাগ,local_admin,boundaries,['school'],[],Bangladesh,Sylhet,Sunamganj,Derai,CharnarChar,f4f460a4a148899400ec08d8724e48a9
6123187964.0,893cc496ac7ffff,24.7545455,91.2402052,Sherpur Moktab,['logic_undp'],"Sherpur Moktab, Derai Upazila, Sunamganj District, Sylhet Division, Bangladesh","শেরপুর মোকেটব, দিরাই উপজেলা, সুনামগঞ্জ জেলা, সিলেট বিভাগ, বাংলাদেশ",দিরাই উপজেলা,বাংলাদেশ,সিলেট বিভাগ,local_admin,boundaries,['kindergarten'],[],Bangladesh,Sylhet,Sunamganj,Derai,CharnarChar,f4f460a4a148899400ec08d8724e48a9
6123187966.0,893cc494537ffff,24.7500588,91.2334433,Perua Govt. Primary School,['logic_undp'],"Perua Govt. Primary School, Derai Upazila, Sunamganj District, Sylhet Division, Bangladesh","পেরুয়া সরকারপ্রাথমিক বিদ্যালয়, দিরাই উপজেলা, সুনামগঞ্জ জেলা, সিলেট বিভাগ, বাংলাদেশ",দিরাই উপজেলা,বাংলাদেশ,সিলেট বিভাগ,local_admin,boundaries,['school'],[],Bangladesh,Sylhet,Sunamganj,Derai,CharnarChar,f4f460a4a148899400ec08d8724e48a9
6123187967.0,893cc494c9bffff,24.7462077,91.2578139,NoarChar Govt.Primary School.,"['logic_undp', 'flash flood']","NoarChar Govt.Primary School., Derai Upazila, Sunamganj District, Sylhet Division, Bangladesh","নওরচার গভর্নমেন্ট.প্রিমারি স্কুল।, দিরাই উপজেলা, সুনামগঞ্জ জেলা, সিলেট বিভাগ, বাংলাদেশ",দিরাই উপজেলা,বাংলাদেশ,সিলেট বিভাগ,local_admin,boundaries,['school'],[],Bangladesh,Sylhet,Sunamganj,Derai,CharnarChar,f4f460a4a148899400ec08d8724e48a9
6123187968.0,893cc494c9bffff,24.7459958,91.2581196,Seven Village Noachar Kaomi Madrasa,['logic_undp'],"Seven Village Noachar Kaomi Madrasa, Derai Upazila, Sunamganj District, Sylhet Division, Bangladesh","সাতটি গ্রাম নোচর কাওমি মাদ্রাস, দিরাই উপজেলা, সুনামগঞ্জ জেলা, সিলেট বিভাগ, বাংলাদেশ",দিরাই উপজেলা,বাংলাদেশ,সিলেট বিভাগ,local_admin,boundaries,['school'],[],Bangladesh,Sylhet,Sunamganj,Derai,CharnarChar,f4f460a4a148899400ec08d8724e48a9
6123187969.0,893cc496a4bffff,24.7432115,91.2420505,Loularchar Govt. primary School.Situated about 4 satangsaw land area of Dirai Samarchar main road,"['logic_undp', 'flood']","Loularchar Govt. primary School.Situated about 4 satangsaw land area of Dirai Samarchar main road, Derai Upazila, Sunamganj District, Sylhet Division, Bangladesh","লৌলারচার গভর্নমেন্ট।প্রাথমিক বিদ্যালয়। দিরাই সমারচার মেইন রোডের প্রায় 4 সাতাঙ্গস জমির অঞ্চল, দিরাই উপজেলা, সুনামগঞ্জ জেলা, সিলেট বিভাগ, বাংলাদেশ",দিরাই উপজেলা,বাংলাদেশ,সিলেট বিভাগ,local_admin,boundaries,['school'],[],Bangladesh,Sylhet,Sunamganj,Derai,CharnarChar,f4f460a4a148899400ec08d8724e48a9
6123187970.0,893cc4945a7ffff,24.7542289,91.2311903,Manikda Govt. Primary School,['logic_undp'],"Manikda Govt. Primary School, Derai Upazila, Sunamganj District, Sylhet Division, Bangladesh","মানিকদা সরকারপ্রাথমিক বিদ্যালয়, দিরাই উপজেলা, সুনামগঞ্জ জেলা, সিলেট বিভাগ, বাংলাদেশ",দিরাই উপজেলা,বাংলাদেশ,সিলেট বিভাগ,local_admin,boundaries,['school'],[],Bangladesh,Sylhet,Sunamganj,Derai,CharnarChar,f4f460a4a148899400ec08d8724e48a9
5224284888.0,893ce225d4bffff,24.9449445,91.1646361,গোলকপুর বাজার,,"Golakpur Bazar, Jamalganj, Sunamganj District, Sylhet Division, Bangladesh","গোলকপুর বাজার, সুনামগঞ্জ জেলা, সিলেট বিভাগ, বাংলাদেশ",Jamalganj,বাংলাদেশ,সিলেট বিভাগ,local_admin,boundaries,['variety_store'],[],Bangladesh,Sylhet,Sunamganj,Dharampasha,UttarSukhairRajapur,cb2cb627f03b77d6458b357e58c80e37
6123345334.0,893cc494193ffff,24.7401373,91.2346905,Shamarchar Bazer ferry Ghat,"['logic_undp', 'river erosion']","Shamarchar Bazer ferry Ghat, Derai Upazila, Sunamganj District, Sylhet Division, Bangladesh","শামারচার বাজর ফেরি ঘাট, দিরাই উপজেলা, সুনামগঞ্জ জেলা, সিলেট বিভাগ, বাংলাদেশ",দিরাই উপজেলা,বাংলাদেশ,সিলেট বিভাগ,local_admin,boundaries,['ferry_terminal'],[],Bangladesh,Sylhet,Sunamganj,Derai,CharnarChar,f4f460a4a148899400ec08d8724e48a9
6123345342.0,893cc494c8bffff,24.7425587,91.259973,Loularchar Commuinity Clinic,['logic_undp'],"Loularchar Commuinity Clinic, Derai Upazila, Sunamganj District, Sylhet Division, Bangladesh","লৌলারচার কমিউনিটি ক্লিনিক, দিরাই উপজেলা, সুনামগঞ্জ জেলা, সিলেট বিভাগ, বাংলাদেশ",দিরাই উপজেলা,বাংলাদেশ,সিলেট বিভাগ,local_admin,boundaries,['clinic'],[],Bangladesh,Sylhet,Sunamganj,Derai,CharnarChar,f4f460a4a148899400ec08d8724e48a9
5224343306.0,893ce2258abffff,24.9382723,91.1671026,সংবাদপুর বাজার(মান্নানঘাঁট),,"Newspur Bazar Mannanghant, Jamalganj, Sunamganj District, Sylhet Division, Bangladesh","সংবাদপুর বাজার মান্নানঘাঁট, সুনামগঞ্জ জেলা, সিলেট বিভাগ, বাংলাদেশ",Jamalganj,বাংলাদেশ,সিলেট বিভাগ,local_admin,boundaries,['mall'],[],Bangladesh,Sylhet,Sunamganj,Dharampasha,UttarSukhairRajapur,cb2cb627f03b77d6458b357e58c80e37
5224343711.0,893ce225d83ffff,24.9627629,91.1659163,উজান লালপুর,,"Ujan Lalpur, Jamalganj, Sunamganj District, Sylhet Division, Bangladesh","উজান লালপুর, সুনামগঞ্জ জেলা, সিলেট বিভাগ, বাংলাদেশ",Jamalganj,বাংলাদেশ,সিলেট বিভাগ,local_admin,boundaries,['marketplace'],[],Bangladesh,Sylhet,Sunamganj,Jamalganj,Jamalganj,0458355502a4c6b24eb61908e5e9e204
6123345366.0,893cc496a0bffff,24.7494645,91.2452853,Shamarchar commuinity Clinic,['logic_undp'],"Shamarchar commuinity Clinic, Derai Upazila, Sunamganj District, Sylhet Division, Bangladesh","শামারচার কমিউনিটি ক্লিনিক, দিরাই উপজেলা, সুনামগঞ্জ জেলা, সিলেট বিভাগ, বাংলাদেশ",দিরাই উপজেলা,বাংলাদেশ,সিলেট বিভাগ,local_admin,boundaries,['clinic'],[],Bangladesh,Sylhet,Sunamganj,Derai,CharnarChar,f4f460a4a148899400ec08d8724e48a9
5224344548.0,893ce224e2bffff,24.9719423,91.1850322,Laxmipur bazar,,"Laxmipur bazar, Jamalganj, Sunamganj District, Sylhet Division, Bangladesh","লক্ষ্মীপুর বাজার, সুনামগঞ্জ জেলা, সিলেট বিভাগ, বাংলাদেশ",Jamalganj,বাংলাদেশ,সিলেট বিভাগ,local_admin,boundaries,['marketplace'],[],Bangladesh,Sylhet,Sunamganj,Jamalganj,Jamalganj,0458355502a4c6b24eb61908e5e9e204
6123345378.0,893cc496bcfffff,24.7588324,91.2661341,4 no. Charnerchar Union Parishad,['logic_undp'],"4 no. Charnerchar Union Parishad, Sulla, Sunamganj District, Sylhet Division, Bangladesh","4 না।চারনারচার ইউনিয়ন পরিশাদ, সুনামগঞ্জ জেলা, সিলেট বিভাগ, বাংলাদেশ",Sulla,বাংলাদেশ,সিলেট বিভাগ,local_admin,boundaries,['government'],[],Bangladesh,Sylhet,Sunamganj,Sulla,Habibpur,44bf22df3c7936119b6bf7c0eae0f2a3
6123345380.0,893cc494c9bffff,24.7459227,91.2589565,Kartikpur Commuinity Clinic,['logic_undp'],"Kartikpur Commuinity Clinic, Derai Upazila, Sunamganj District, Sylhet Division, Bangladesh","কার্তিকপুর সম্প্রদায় ক্লিনিক, দিরাই উপজেলা, সুনামগঞ্জ জেলা, সিলেট বিভাগ, বাংলাদেশ",দিরাই উপজেলা,বাংলাদেশ,সিলেট বিভাগ,local_admin,boundaries,['clinic'],[],Bangladesh,Sylhet,Sunamganj,Derai,CharnarChar,f4f460a4a148899400ec08d8724e48a9
6123345383.0,893cc496a2bffff,24.7495229,91.2562528,Kartikpur Shantipur Eidagh Math,['logic_undp'],"Kartikpur Shantipur Eidagh Math, Derai Upazila, Sunamganj District, Sylhet Division, Bangladesh","কার্তিকপুর শান্তিপুর Eid দাগ গণিত, দিরাই উপজেলা, সুনামগঞ্জ জেলা, সিলেট বিভাগ, বাংলাদেশ",দিরাই উপজেলা,বাংলাদেশ,সিলেট বিভাগ,local_admin,boundaries,['place_of_worship_muslim'],[],Bangladesh,Sylhet,Sunamganj,Derai,CharnarChar,f4f460a4a148899400ec08d8724e48a9
6123348685.0,893cc496aafffff,24.7577607,91.2552792,"Government Football field,kamalpur.","['logic_undp', 'flash flood']","Government Football field kamalpur., Derai Upazila, Sunamganj District, Sylhet Division, Bangladesh","সরকারী ফুটবল মাঠ কমলপুর।, দিরাই উপজেলা, সুনামগঞ্জ জেলা, সিলেট বিভাগ, বাংলাদেশ",দিরাই উপজেলা,বাংলাদেশ,সিলেট বিভাগ,local_admin,boundaries,['playground'],[],Bangladesh,Sylhet,Sunamganj,Derai,CharnarChar,f4f460a4a148899400ec08d8724e48a9
6123512870.0,893cc496a8fffff,24.7589882,91.2456608,"Shib Mondir,Shibtala,Kalampur.","['logic_undp', 'flash flood']","Shib Mondir Shibtala Kalampur., Derai Upazila, Sunamganj District, Sylhet Division, Bangladesh","শিব মন্ডির শিবতালা কালপুর।, দিরাই উপজেলা, সুনামগঞ্জ জেলা, সিলেট বিভাগ, বাংলাদেশ",দিরাই উপজেলা,বাংলাদেশ,সিলেট বিভাগ,local_admin,boundaries,['place_of_worship_muslim'],[],Bangladesh,Sylhet,Sunamganj,Derai,CharnarChar,f4f460a4a148899400ec08d8724e48a9
6123512871.0,893cc496bd3ffff,24.763007,91.2594634,Kartikpur East Jame Mosjid,['logic_undp'],"Kartikpur East Jame Mosjid, Derai Upazila, Sunamganj District, Sylhet Division, Bangladesh","কার্তিকপুর পূর্ব জামে মোসজিড, দিরাই উপজেলা, সুনামগঞ্জ জেলা, সিলেট বিভাগ, বাংলাদেশ",দিরাই উপজেলা,বাংলাদেশ,সিলেট বিভাগ,local_admin,boundaries,['place_of_worship_muslim'],[],Bangladesh,Sylhet,Sunamganj,Derai,CharnarChar,f4f460a4a148899400ec08d8724e48a9
6123512872.0,893cc496bdbffff,24.7610135,91.2600173,Sree Sree Bisway karma Dev Mondir,['logic_undp'],"Sree Sree Bisway karma Dev Mondir, Derai Upazila, Sunamganj District, Sylhet Division, Bangladesh","শ্রী শ্রী বিজাকারমা দেব মন্দির, দিরাই উপজেলা, সুনামগঞ্জ জেলা, সিলেট বিভাগ, বাংলাদেশ",দিরাই উপজেলা,বাংলাদেশ,সিলেট বিভাগ,local_admin,boundaries,['place_of_worship'],[],Bangladesh,Sylhet,Sunamganj,Derai,CharnarChar,f4f460a4a148899400ec08d8724e48a9
6123512873.0,893cc496a13ffff,24.7554528,91.245237,Kamalpur Noagoan Eidgaha Math,['logic_undp'],"Kamalpur Noagoan Eidgaha Math, Derai Upazila, Sunamganj District, Sylhet Division, Bangladesh","কমলপুর নোগান ইদগাহা গণিত, দিরাই উপজেলা, সুনামগঞ্জ জেলা, সিলেট বিভাগ, বাংলাদেশ",দিরাই উপজেলা,বাংলাদেশ,সিলেট বিভাগ,local_admin,boundaries,['place_of_worship_muslim'],[],Bangladesh,Sylhet,Sunamganj,Derai,CharnarChar,f4f460a4a148899400ec08d8724e48a9
