,osm_id,h3level9,lat,lon,name,name_en,name_bn,need_translate_en2bn,need_translate_bn2en,alt_names,local_admin_name,admin0_name,admin2_name,addr_level,poi_addr_match,poi_class,poi_keywords,country,division,district,thana,union,region_hash
2155,2343344187,893cd5863bbffff,22.496529,90.7192273,Burhanuddin Upazila Health Complex,"Burhanuddin Upazila Health Complex, Borhanuddin Subdistrict, Bhola District, Barishal Division, Bangladesh","বোরহানউদ্দিন উপজেলা, ভোলা জেলা, বরিশাল বিভাগ, বাংলাদেশ","Burhanuddin Upazila Health Complex, ",,,বোরহানউদ্দিন উপজেলা,বাংলাদেশ,বরিশাল বিভাগ,local_admin,boundaries,['hospital'],[],Bangladesh,Barisal,Bhola,Burhanuddin,Paurashava,c856dd80fb21c36b57b60a00e59751ca
2159,2343344188,893cd51714bffff,22.1841926,90.7635274,Charfasson Upazila Health Complex,"Charfasson Upazila Health Complex, Charfasson Subdistrict, Bhola District, Barishal Division, Bangladesh","চরফ্যাশন উপজেলা, ভোলা জেলা, বরিশাল বিভাগ, বাংলাদেশ","Charfasson Upazila Health Complex, ",,,চরফ্যাশন উপজেলা,বাংলাদেশ,বরিশাল বিভাগ,local_admin,boundaries,['hospital'],[],Bangladesh,Barisal,Bhola,CharFasson,Jinnaghar,c328eaf6390daf41172208a6d1fa63d6
2164,2343344194,893cd58e823ffff,22.3463171,90.734469,Lalmohan Upazila Health Complex,"Lalmohan Upazila Health Complex, Laimohan Subdistrict, Bhola District, Barishal Division, Bangladesh","লালমোহন উপজেলা, ভোলা জেলা, বরিশাল বিভাগ, বাংলাদেশ","Lalmohan Upazila Health Complex, ",,,লালমোহন উপজেলা,বাংলাদেশ,বরিশাল বিভাগ,local_admin,boundaries,['hospital'],[],Bangladesh,Barisal,Bhola,Lalmohan,Paurashava,d5a0c7fc5c7cb367fdf961665d266adc
2260,2682106390,893cc64868fffff,22.6057511,90.7469055,Daulatkhan Police Station,"Daulatkhan Police Station, Doulatkhan Subdistrict, Bhola District, Barishal Division, Bangladesh","দৌলতখান উপজেলা, ভোলা জেলা, বরিশাল বিভাগ, বাংলাদেশ","Daulatkhan Police Station, ",,,দৌলতখান উপজেলা,বাংলাদেশ,বরিশাল বিভাগ,local_admin,boundaries,['police'],[],Bangladesh,Barisal,Bhola,Daulatkhan,Paurashava,9a47094f62e89d06a529226462ae23d1
2266,2682106391,893cc64868fffff,22.6046687,90.7463456,Daulatkhan Health Complex,"Daulatkhan Health Complex, Doulatkhan Subdistrict, Bhola District, Barishal Division, Bangladesh","দৌলতখান উপজেলা, ভোলা জেলা, বরিশাল বিভাগ, বাংলাদেশ","Daulatkhan Health Complex, ",,,দৌলতখান উপজেলা,বাংলাদেশ,বরিশাল বিভাগ,local_admin,boundaries,['hospital'],[],Bangladesh,Barisal,Bhola,Daulatkhan,Paurashava,9a47094f62e89d06a529226462ae23d1
2273,2682141471,893cc648613ffff,22.6025358,90.7476323,Beauty Cinema Hall,"Beauty Cinema Hall, Doulatkhan Subdistrict, Bhola District, Barishal Division, Bangladesh","দৌলতখান উপজেলা, ভোলা জেলা, বরিশাল বিভাগ, বাংলাদেশ","Beauty Cinema Hall, ",,['Beauty Cinema Hall'],দৌলতখান উপজেলা,বাংলাদেশ,বরিশাল বিভাগ,local_admin,boundaries,['cinema'],[],Bangladesh,Barisal,Bhola,Daulatkhan,Paurashava,9a47094f62e89d06a529226462ae23d1
2277,2682156030,893cc648617ffff,22.6031867,90.7516121,,"Doulatkhan Subdistrict, Bhola District, Barishal Division, Bangladesh","দৌলতখান উপজেলা, ভোলা জেলা, বরিশাল বিভাগ, বাংলাদেশ",,,,দৌলতখান উপজেলা,বাংলাদেশ,বরিশাল বিভাগ,local_admin,boundaries,['ferry_terminal'],[],Bangladesh,Barisal,Bhola,Daulatkhan,Bhabanipur,adff140551f93df6a490ee6dbec413e6
2283,2682171723,893cc64860bffff,22.5983153,90.7496093,Upozila Complex,"Upozila Complex, Doulatkhan Subdistrict, Bhola District, Barishal Division, Bangladesh","দৌলতখান উপজেলা, ভোলা জেলা, বরিশাল বিভাগ, বাংলাদেশ","Upozila Complex, ",,['Upozila Complex'],দৌলতখান উপজেলা,বাংলাদেশ,বরিশাল বিভাগ,local_admin,boundaries,['government'],[],Bangladesh,Barisal,Bhola,Daulatkhan,Paurashava,9a47094f62e89d06a529226462ae23d1
2289,2682172834,893cc64860bffff,22.5984275,90.7486255,Upozila Jame Mosjid,"Upozila Jame Mosjid, Doulatkhan Subdistrict, Bhola District, Barishal Division, Bangladesh","দৌলতখান উপজেলা, ভোলা জেলা, বরিশাল বিভাগ, বাংলাদেশ","Upozila Jame Mosjid, ",,['Upozila Jame Mosjid'],দৌলতখান উপজেলা,বাংলাদেশ,বরিশাল বিভাগ,local_admin,boundaries,['place_of_worship_muslim'],[],Bangladesh,Barisal,Bhola,Daulatkhan,Paurashava,9a47094f62e89d06a529226462ae23d1
2295,2682297907,893cc64868bffff,22.604271,90.7460115,Bus Stand,"Bus Stand, Doulatkhan Subdistrict, Bhola District, Barishal Division, Bangladesh","দৌলতখান উপজেলা, ভোলা জেলা, বরিশাল বিভাগ, বাংলাদেশ",Bus Stand,,,দৌলতখান উপজেলা,বাংলাদেশ,বরিশাল বিভাগ,street,boundaries,['bus_stop'],[],Bangladesh,Barisal,Bhola,Daulatkhan,Paurashava,9a47094f62e89d06a529226462ae23d1
2301,2682304363,893cc64868bffff,22.6050526,90.745773,Hospital Jame Mosjid,"Hospital Jame Mosjid, Doulatkhan Subdistrict, Bhola District, Barishal Division, Bangladesh","দৌলতখান উপজেলা, ভোলা জেলা, বরিশাল বিভাগ, বাংলাদেশ","Hospital Jame Mosjid, ",,,দৌলতখান উপজেলা,বাংলাদেশ,বরিশাল বিভাগ,local_admin,boundaries,['place_of_worship_muslim'],[],Bangladesh,Barisal,Bhola,Daulatkhan,Paurashava,9a47094f62e89d06a529226462ae23d1
2305,2684704665,893cc648657ffff,22.5960884,90.7470588,Daulatkhan Powrosova,"Daulatkhan Powrosova, Doulatkhan Subdistrict, Bhola District, Barishal Division, Bangladesh","দৌলতখান উপজেলা, ভোলা জেলা, বরিশাল বিভাগ, বাংলাদেশ","Daulatkhan Powrosova, ",,['Daulatkhan Powrosova'],দৌলতখান উপজেলা,বাংলাদেশ,বরিশাল বিভাগ,local_admin,boundaries,['government'],[],Bangladesh,Barisal,Bhola,Daulatkhan,Paurashava,9a47094f62e89d06a529226462ae23d1
2310,2684707520,893cc64860bffff,22.5978845,90.7472723,Daulatkhan Town Hall,"Daulatkhan Town Hall, Doulatkhan Subdistrict, Bhola District, Barishal Division, Bangladesh","দৌলতখান উপজেলা, ভোলা জেলা, বরিশাল বিভাগ, বাংলাদেশ","Daulatkhan Town Hall, ",,['Daulatkhan Town Hall'],দৌলতখান উপজেলা,বাংলাদেশ,বরিশাল বিভাগ,local_admin,boundaries,['town_hall'],[],Bangladesh,Barisal,Bhola,Daulatkhan,Paurashava,9a47094f62e89d06a529226462ae23d1
2315,2684717545,893cc648647ffff,22.5959391,90.7472836,Daulatkhan Dak Banglo,"Daulatkhan Dak Banglo, Doulatkhan Subdistrict, Bhola District, Barishal Division, Bangladesh","দৌলতখান উপজেলা, ভোলা জেলা, বরিশাল বিভাগ, বাংলাদেশ","Daulatkhan Dak Banglo, ",,['Daulatkhan Dak Banglo'],দৌলতখান উপজেলা,বাংলাদেশ,বরিশাল বিভাগ,local_admin,boundaries,['guest_house'],[],Bangladesh,Barisal,Bhola,Daulatkhan,Paurashava,9a47094f62e89d06a529226462ae23d1
2321,2684722790,893cc64860bffff,22.5966572,90.7476377,Shahid Abdul Hamid Kinder Garten,"Shahid Abdul Hamid Kinder Garten, Doulatkhan Subdistrict, Bhola District, Barishal Division, Bangladesh","দৌলতখান উপজেলা, ভোলা জেলা, বরিশাল বিভাগ, বাংলাদেশ","Shahid Abdul Hamid Kinder Garten, ",,['Shahid Abdul Hamid Kinder Garten'],দৌলতখান উপজেলা,বাংলাদেশ,বরিশাল বিভাগ,local_admin,boundaries,['school'],[],Bangladesh,Barisal,Bhola,Daulatkhan,Paurashava,9a47094f62e89d06a529226462ae23d1
2325,2792080223,893cc64861bffff,22.6010166,90.7470458,Kholipa porti mosjid,"Kholipa porti mosjid, Doulatkhan Subdistrict, Bhola District, Barishal Division, Bangladesh","দৌলতখান উপজেলা, ভোলা জেলা, বরিশাল বিভাগ, বাংলাদেশ","Kholipa porti mosjid, ",,,দৌলতখান উপজেলা,বাংলাদেশ,বরিশাল বিভাগ,local_admin,boundaries,['place_of_worship_muslim'],[],Bangladesh,Barisal,Bhola,Daulatkhan,Paurashava,9a47094f62e89d06a529226462ae23d1
2330,2792081020,893cc648613ffff,22.6038851,90.7457894,Markaj Mosjid,"Markaj Mosjid, Doulatkhan Subdistrict, Bhola District, Barishal Division, Bangladesh","দৌলতখান উপজেলা, ভোলা জেলা, বরিশাল বিভাগ, বাংলাদেশ","Markaj Mosjid, ",,,দৌলতখান উপজেলা,বাংলাদেশ,বরিশাল বিভাগ,local_admin,boundaries,['place_of_worship_muslim'],[],Bangladesh,Barisal,Bhola,Daulatkhan,Paurashava,9a47094f62e89d06a529226462ae23d1
3690,5718235519,893cd586ecbffff,22.4933786,90.7319266,Bhola Polytechnic Institute,"Bhola Polytechnic Institute, Borhanuddin Subdistrict, Bhola District, Barishal Division, Bangladesh","বোরহানউদ্দিন উপজেলা, ভোলা জেলা, বরিশাল বিভাগ, বাংলাদেশ","Bhola Polytechnic Institute, ",,,বোরহানউদ্দিন উপজেলা,বাংলাদেশ,বরিশাল বিভাগ,local_admin,boundaries,['college'],[],Bangladesh,Barisal,Bhola,Burhanuddin,Pakshia,4949717d86a368ab542cab89e390d581
3696,5718269926,893cd5844b7ffff,22.476269,90.7171597,Sir Radha Govinda Mondir,"Sir Radha Govinda Mondir, Borhanuddin Subdistrict, Bhola District, Barishal Division, Bangladesh","বোরহানউদ্দিন উপজেলা, ভোলা জেলা, বরিশাল বিভাগ, বাংলাদেশ","Sir Radha Govinda Mondir, ",,,বোরহানউদ্দিন উপজেলা,বাংলাদেশ,বরিশাল বিভাগ,local_admin,boundaries,['place_of_worship'],[],Bangladesh,Barisal,Bhola,Burhanuddin,Paurashava,c856dd80fb21c36b57b60a00e59751ca
3702,5729781469,893cd58634bffff,22.4790851,90.7103414,,"Borhanuddin Subdistrict, Bhola District, Barishal Division, Bangladesh","বোরহানউদ্দিন উপজেলা, ভোলা জেলা, বরিশাল বিভাগ, বাংলাদেশ",,,,বোরহানউদ্দিন উপজেলা,বাংলাদেশ,বরিশাল বিভাগ,local_admin,boundaries,['transformer'],[],Bangladesh,Barisal,Bhola,Burhanuddin,Paurashava,c856dd80fb21c36b57b60a00e59751ca
4079,5862512285,893cd510977ffff,22.1395984,90.7400183,,"Charfasson Subdistrict, Bhola District, Barishal Division, Bangladesh","চরফ্যাশন উপজেলা, ভোলা জেলা, বরিশাল বিভাগ, বাংলাদেশ",,,['My village home'],চরফ্যাশন উপজেলা,বাংলাদেশ,বরিশাল বিভাগ,local_admin,boundaries,['guest_house'],[],Bangladesh,Barisal,Bhola,CharFasson,Ewajpur,dfd7341836afc7183f81754ed722a64f
4137,6018837956,893cd594933ffff,22.5665082,90.7009417,26 no. Dakkhin Joynagar Govt Primary School,"26 no. Dakkhin Joynagar Govt Primary School, Doulatkhan Subdistrict, Bhola District, Barishal Division, Bangladesh","দৌলতখান উপজেলা, ভোলা জেলা, বরিশাল বিভাগ, বাংলাদেশ","26 no. Dakkhin Joynagar Govt Primary School, ",,['logic_undp'],দৌলতখান উপজেলা,বাংলাদেশ,বরিশাল বিভাগ,local_admin,boundaries,['school'],[],Bangladesh,Barisal,Bhola,Daulatkhan,DakshinJoynagar,c79ccaea62f4c1da7018ec3eb288b439
4144,6018837957,893cc6494dbffff,22.5694556,90.7067996,Mosjid & moktab at Altaf Hossen Pondit house,"Mosjid & moktab at Altaf Hossen Pondit house, Doulatkhan Subdistrict, Bhola District, Barishal Division, Bangladesh","দৌলতখান উপজেলা, ভোলা জেলা, বরিশাল বিভাগ, বাংলাদেশ","Mosjid & moktab at Altaf Hossen Pondit house, ",,['logic_undp'],দৌলতখান উপজেলা,বাংলাদেশ,বরিশাল বিভাগ,local_admin,boundaries,['educational_institution'],[],Bangladesh,Barisal,Bhola,Daulatkhan,DakshinJoynagar,c79ccaea62f4c1da7018ec3eb288b439
4147,6018837958,893cd5949a7ffff,22.5725417,90.7050186,Dakkhin Joynagar Rohima Begum Islamia Dakhil Madrsha,"Dakkhin Joynagar Rohima Begum Islamia Dakhil Madrsha, Doulatkhan Subdistrict, Bhola District, Barishal Division, Bangladesh","দৌলতখান উপজেলা, ভোলা জেলা, বরিশাল বিভাগ, বাংলাদেশ","Dakkhin Joynagar Rohima Begum Islamia Dakhil Madrsha, ",,"['logic_undp', 'Cyclone']",দৌলতখান উপজেলা,বাংলাদেশ,বরিশাল বিভাগ,local_admin,boundaries,['educational_institution'],[],Bangladesh,Barisal,Bhola,Daulatkhan,UttarJoynagar,d0618b045ea59193771007adce6f4070
4151,6018837959,893cc6494dbffff,22.5722346,90.7049811,Uttor purbo Dakkhin Joynagar Govt. Primary School,"Uttor purbo Dakkhin Joynagar Govt. Primary School, Doulatkhan Subdistrict, Bhola District, Barishal Division, Bangladesh","দৌলতখান উপজেলা, ভোলা জেলা, বরিশাল বিভাগ, বাংলাদেশ","Uttor purbo Dakkhin Joynagar Govt. Primary School, ",,['logic_undp'],দৌলতখান উপজেলা,বাংলাদেশ,বরিশাল বিভাগ,local_admin,boundaries,['school'],[],Bangladesh,Barisal,Bhola,Daulatkhan,DakshinJoynagar,c79ccaea62f4c1da7018ec3eb288b439
4167,6018837960,893cc64b22bffff,22.5836965,90.7104796,Daroga para govt primary school,"Daroga para govt primary school, Doulatkhan Subdistrict, Bhola District, Barishal Division, Bangladesh","দৌলতখান উপজেলা, ভোলা জেলা, বরিশাল বিভাগ, বাংলাদেশ","Daroga para govt primary school, ",,['logic_undp'],দৌলতখান উপজেলা,বাংলাদেশ,বরিশাল বিভাগ,local_admin,boundaries,['school'],[],Bangladesh,Barisal,Bhola,Daulatkhan,DakshinJoynagar,c79ccaea62f4c1da7018ec3eb288b439
4172,6018837961,893cc6494bbffff,22.5775991,90.7190734,Howladar hat Forkania Madrassa,"Howladar hat Forkania Madrassa, Doulatkhan Subdistrict, Bhola District, Barishal Division, Bangladesh","দৌলতখান উপজেলা, ভোলা জেলা, বরিশাল বিভাগ, বাংলাদেশ","Howladar hat Forkania Madrassa, ",,['logic_undp'],দৌলতখান উপজেলা,বাংলাদেশ,বরিশাল বিভাগ,local_admin,boundaries,['educational_institution'],[],Bangladesh,Barisal,Bhola,Daulatkhan,CharKhalifa,671566de413f655a7136598c98845b4d
4175,6018837962,893cc649413ffff,22.5745429,90.7173783,Forkania Madrassa at Goni Howladar house,"Forkania Madrassa at Goni Howladar house, Doulatkhan Subdistrict, Bhola District, Barishal Division, Bangladesh","দৌলতখান উপজেলা, ভোলা জেলা, বরিশাল বিভাগ, বাংলাদেশ","Forkania Madrassa at Goni Howladar house, ",,['logic_undp'],দৌলতখান উপজেলা,বাংলাদেশ,বরিশাল বিভাগ,local_admin,boundaries,['educational_institution'],[],Bangladesh,Barisal,Bhola,Daulatkhan,DakshinJoynagar,c79ccaea62f4c1da7018ec3eb288b439
4185,6018837963,893cc64941bffff,22.5700699,90.7172871,Jolilia dakhil madrasha,"Jolilia dakhil madrasha, Doulatkhan Subdistrict, Bhola District, Barishal Division, Bangladesh","দৌলতখান উপজেলা, ভোলা জেলা, বরিশাল বিভাগ, বাংলাদেশ","Jolilia dakhil madrasha, ",,['logic_undp'],দৌলতখান উপজেলা,বাংলাদেশ,বরিশাল বিভাগ,local_admin,boundaries,['educational_institution'],[],Bangladesh,Barisal,Bhola,Daulatkhan,DakshinJoynagar,c79ccaea62f4c1da7018ec3eb288b439
4189,6018837965,893cc649453ffff,22.5653392,90.7102114,Tazal member house Forkania Madrassa,"Tazal member house Forkania Madrassa, Doulatkhan Subdistrict, Bhola District, Barishal Division, Bangladesh","দৌলতখান উপজেলা, ভোলা জেলা, বরিশাল বিভাগ, বাংলাদেশ","Tazal member house Forkania Madrassa, ",,['logic_undp'],দৌলতখান উপজেলা,বাংলাদেশ,বরিশাল বিভাগ,local_admin,boundaries,['educational_institution'],[],Bangladesh,Barisal,Bhola,Daulatkhan,DakshinJoynagar,c79ccaea62f4c1da7018ec3eb288b439
4193,6018837966,893cc649443ffff,22.5638481,90.7129097,Azhar Ali High School,"Azhar Ali High School, Doulatkhan Subdistrict, Bhola District, Barishal Division, Bangladesh","দৌলতখান উপজেলা, ভোলা জেলা, বরিশাল বিভাগ, বাংলাদেশ","Azhar Ali High School, ",,['logic_undp'],দৌলতখান উপজেলা,বাংলাদেশ,বরিশাল বিভাগ,local_admin,boundaries,['school'],[],Bangladesh,Barisal,Bhola,Daulatkhan,DakshinJoynagar,c79ccaea62f4c1da7018ec3eb288b439
4197,6018837967,893cc649443ffff,22.5636499,90.7129151,Nur Miar Hat Govt. Primary School,"Nur Miar Hat Govt. Primary School, Doulatkhan Subdistrict, Bhola District, Barishal Division, Bangladesh","দৌলতখান উপজেলা, ভোলা জেলা, বরিশাল বিভাগ, বাংলাদেশ","Nur Miar Hat Govt. Primary School, ",,['logic_undp'],দৌলতখান উপজেলা,বাংলাদেশ,বরিশাল বিভাগ,local_admin,boundaries,['school'],[],Bangladesh,Barisal,Bhola,Daulatkhan,DakshinJoynagar,c79ccaea62f4c1da7018ec3eb288b439
4201,6018837968,893cc649693ffff,22.5591122,90.7060111,Tube well of Dakkhin Joynagar howladar para non govt primary school,"Tube well of Dakkhin Joynagar howladar para non govt primary school, Doulatkhan Subdistrict, Bhola District, Barishal Division, Bangladesh","দৌলতখান উপজেলা, ভোলা জেলা, বরিশাল বিভাগ, বাংলাদেশ","Tube well of Dakkhin Joynagar howladar para non govt primary school, ",,['logic_undp'],দৌলতখান উপজেলা,বাংলাদেশ,বরিশাল বিভাগ,local_admin,boundaries,['school'],[],Bangladesh,Barisal,Bhola,Daulatkhan,DakshinJoynagar,c79ccaea62f4c1da7018ec3eb288b439
4205,6018837969,893cc649693ffff,22.5585326,90.706526,Dakin joynagar howladar para non govt primary school,"Dakin joynagar howladar para non govt primary school, Doulatkhan Subdistrict, Bhola District, Barishal Division, Bangladesh","দৌলতখান উপজেলা, ভোলা জেলা, বরিশাল বিভাগ, বাংলাদেশ","Dakin joynagar howladar para non govt primary school, ",,['logic_undp'],দৌলতখান উপজেলা,বাংলাদেশ,বরিশাল বিভাগ,local_admin,boundaries,['school'],[],Bangladesh,Barisal,Bhola,Daulatkhan,DakshinJoynagar,c79ccaea62f4c1da7018ec3eb288b439
4208,6018837970,893cc649683ffff,22.5560556,90.7085806,Mohammodia Hafizia Madrassa,"Mohammodia Hafizia Madrassa, Doulatkhan Subdistrict, Bhola District, Barishal Division, Bangladesh","দৌলতখান উপজেলা, ভোলা জেলা, বরিশাল বিভাগ, বাংলাদেশ","Mohammodia Hafizia Madrassa, ",,['logic_undp'],দৌলতখান উপজেলা,বাংলাদেশ,বরিশাল বিভাগ,local_admin,boundaries,['educational_institution'],[],Bangladesh,Barisal,Bhola,Daulatkhan,DakshinJoynagar,c79ccaea62f4c1da7018ec3eb288b439
4212,6018837971,893cc6496c7ffff,22.5517653,90.7056141,Senior Alim Madrsha at Ahmader hat,"Senior Alim Madrsha at Ahmader hat, Borhanuddin Subdistrict, Bhola District, Barishal Division, Bangladesh","বোরহানউদ্দিন উপজেলা, ভোলা জেলা, বরিশাল বিভাগ, বাংলাদেশ","Senior Alim Madrsha at Ahmader hat, ",,"['logic_undp', 'Cyclone']",বোরহানউদ্দিন উপজেলা,বাংলাদেশ,বরিশাল বিভাগ,local_admin,boundaries,['marketplace'],[],Bangladesh,Barisal,Bhola,Burhanuddin,BaraManika,023414d8ba246a574c8731f20caa94a5
4217,6019713528,893cc649443ffff,22.564824,90.7118422,Nursury of Bashir Kholifa,"Nursury of Bashir Kholifa, Doulatkhan Subdistrict, Bhola District, Barishal Division, Bangladesh","দৌলতখান উপজেলা, ভোলা জেলা, বরিশাল বিভাগ, বাংলাদেশ","Nursury of Bashir Kholifa, ",,['logic_undp'],দৌলতখান উপজেলা,বাংলাদেশ,বরিশাল বিভাগ,local_admin,boundaries,['social_facility'],[],Bangladesh,Barisal,Bhola,Daulatkhan,DakshinJoynagar,c79ccaea62f4c1da7018ec3eb288b439
4222,6019713535,893cc6494bbffff,22.5777526,90.71925039999999,Howladar hat,"Howladar hat, Doulatkhan Subdistrict, Bhola District, Barishal Division, Bangladesh","দৌলতখান উপজেলা, ভোলা জেলা, বরিশাল বিভাগ, বাংলাদেশ","Howladar hat, ",,"['logic_undp', 'Cyclone']",দৌলতখান উপজেলা,বাংলাদেশ,বরিশাল বিভাগ,local_admin,boundaries,['marketplace'],[],Bangladesh,Barisal,Bhola,Daulatkhan,CharKhalifa,671566de413f655a7136598c98845b4d
4227,6019713536,893cc649413ffff,22.5727795,90.7172924,Market of Samsu Mia,"Market of Samsu Mia, Doulatkhan Subdistrict, Bhola District, Barishal Division, Bangladesh","দৌলতখান উপজেলা, ভোলা জেলা, বরিশাল বিভাগ, বাংলাদেশ","Market of Samsu Mia, ",,['logic_undp'],দৌলতখান উপজেলা,বাংলাদেশ,বরিশাল বিভাগ,local_admin,boundaries,['marketplace'],[],Bangladesh,Barisal,Bhola,Daulatkhan,DakshinJoynagar,c79ccaea62f4c1da7018ec3eb288b439
4232,6019713550,893cc649443ffff,22.5644673,90.714857,Nur Miar hat bazar,"Nur Miar hat bazar, Doulatkhan Subdistrict, Bhola District, Barishal Division, Bangladesh","দৌলতখান উপজেলা, ভোলা জেলা, বরিশাল বিভাগ, বাংলাদেশ","Nur Miar hat bazar, ",,['logic_undp'],দৌলতখান উপজেলা,বাংলাদেশ,বরিশাল বিভাগ,local_admin,boundaries,['marketplace'],[],Bangladesh,Barisal,Bhola,Daulatkhan,DakshinJoynagar,c79ccaea62f4c1da7018ec3eb288b439
4248,6021533910,893cc64b23bffff,22.5871636,90.7060701,Jame Mosque of Gohar Ali Forazi house,"Jame Mosque of Gohar Ali Forazi house, Doulatkhan Subdistrict, Bhola District, Barishal Division, Bangladesh","দৌলতখান উপজেলা, ভোলা জেলা, বরিশাল বিভাগ, বাংলাদেশ","Jame Mosque of Gohar Ali Forazi house, ",,['logic_undp'],দৌলতখান উপজেলা,বাংলাদেশ,বরিশাল বিভাগ,local_admin,boundaries,['place_of_worship_muslim'],[],Bangladesh,Barisal,Bhola,Daulatkhan,DakshinJoynagar,c79ccaea62f4c1da7018ec3eb288b439
4254,6021533911,893cc64b207ffff,22.5866336,90.7048362,Jame Mosque of Rohimuddin howlader house,"Jame Mosque of Rohimuddin howlader house, Doulatkhan Subdistrict, Bhola District, Barishal Division, Bangladesh","দৌলতখান উপজেলা, ভোলা জেলা, বরিশাল বিভাগ, বাংলাদেশ","Jame Mosque of Rohimuddin howlader house, ",,['logic_undp'],দৌলতখান উপজেলা,বাংলাদেশ,বরিশাল বিভাগ,local_admin,boundaries,['place_of_worship_muslim'],[],Bangladesh,Barisal,Bhola,Daulatkhan,DakshinJoynagar,c79ccaea62f4c1da7018ec3eb288b439
4260,6021533912,893cc64b273ffff,22.5819777,90.703302,Mosque at Nobu Ullah Howlader house,"Mosque at Nobu Ullah Howlader house, Doulatkhan Subdistrict, Bhola District, Barishal Division, Bangladesh","দৌলতখান উপজেলা, ভোলা জেলা, বরিশাল বিভাগ, বাংলাদেশ","Mosque at Nobu Ullah Howlader house, ",,['logic_undp'],দৌলতখান উপজেলা,বাংলাদেশ,বরিশাল বিভাগ,local_admin,boundaries,['place_of_worship_muslim'],[],Bangladesh,Barisal,Bhola,Daulatkhan,UttarJoynagar,d0618b045ea59193771007adce6f4070
4265,6021533913,893cc64b263ffff,22.579515999999998,90.7068211,Jame Mosque of Obaidul Munshi house,"Jame Mosque of Obaidul Munshi house, Doulatkhan Subdistrict, Bhola District, Barishal Division, Bangladesh","দৌলতখান উপজেলা, ভোলা জেলা, বরিশাল বিভাগ, বাংলাদেশ","Jame Mosque of Obaidul Munshi house, ",,['logic_undp'],দৌলতখান উপজেলা,বাংলাদেশ,বরিশাল বিভাগ,local_admin,boundaries,['place_of_worship_muslim'],[],Bangladesh,Barisal,Bhola,Daulatkhan,DakshinJoynagar,c79ccaea62f4c1da7018ec3eb288b439
4271,6021533914,893cc649487ffff,22.5803927,90.7168525,Jame Mosque of Ummad Ali Mal house,"Jame Mosque of Ummad Ali Mal house, Doulatkhan Subdistrict, Bhola District, Barishal Division, Bangladesh","দৌলতখান উপজেলা, ভোলা জেলা, বরিশাল বিভাগ, বাংলাদেশ","Jame Mosque of Ummad Ali Mal house, ",,['logic_undp'],দৌলতখান উপজেলা,বাংলাদেশ,বরিশাল বিভাগ,local_admin,boundaries,['place_of_worship_muslim'],[],Bangladesh,Barisal,Bhola,Daulatkhan,CharKhalifa,671566de413f655a7136598c98845b4d
4277,6021533916,893cc6494bbffff,22.5776486,90.7190734,Howladar hat Jame Mosque,"Howladar hat Jame Mosque, Doulatkhan Subdistrict, Bhola District, Barishal Division, Bangladesh","দৌলতখান উপজেলা, ভোলা জেলা, বরিশাল বিভাগ, বাংলাদেশ","Howladar hat Jame Mosque, ",,['logic_undp'],দৌলতখান উপজেলা,বাংলাদেশ,বরিশাল বিভাগ,local_admin,boundaries,['place_of_worship_muslim'],[],Bangladesh,Barisal,Bhola,Daulatkhan,CharKhalifa,671566de413f655a7136598c98845b4d
4282,6021533921,893cc649417ffff,22.5748351,90.7181507,Jame Mosque of Goni Howladar house,"Jame Mosque of Goni Howladar house, Doulatkhan Subdistrict, Bhola District, Barishal Division, Bangladesh","দৌলতখান উপজেলা, ভোলা জেলা, বরিশাল বিভাগ, বাংলাদেশ","Jame Mosque of Goni Howladar house, ",,['logic_undp'],দৌলতখান উপজেলা,বাংলাদেশ,বরিশাল বিভাগ,local_admin,boundaries,['place_of_worship_muslim'],[],Bangladesh,Barisal,Bhola,Daulatkhan,CharKhalifa,671566de413f655a7136598c98845b4d
4283,6021533921,893cc649417ffff,22.5748351,90.7181507,Jame Mosque of Goni Howladar house,"Jame Mosque of Goni Howladar house, Doulatkhan Subdistrict, Bhola District, Barishal Division, Bangladesh","দৌলতখান উপজেলা, ভোলা জেলা, বরিশাল বিভাগ, বাংলাদেশ","Jame Mosque of Goni Howladar house, ",,['logic_undp'],দৌলতখান উপজেলা,বাংলাদেশ,বরিশাল বিভাগ,local_admin,boundaries,['place_of_worship_muslim'],[],Bangladesh,Barisal,Bhola,Daulatkhan,DakshinJoynagar,c79ccaea62f4c1da7018ec3eb288b439
4288,6021533923,893cd594927ffff,22.567281,90.7073951,Mongal house Mosque,"Mongal house Mosque, Doulatkhan Subdistrict, Bhola District, Barishal Division, Bangladesh","দৌলতখান উপজেলা, ভোলা জেলা, বরিশাল বিভাগ, বাংলাদেশ","Mongal house Mosque, ",,['logic_undp'],দৌলতখান উপজেলা,বাংলাদেশ,বরিশাল বিভাগ,local_admin,boundaries,['place_of_worship_muslim'],[],Bangladesh,Barisal,Bhola,Daulatkhan,DakshinJoynagar,c79ccaea62f4c1da7018ec3eb288b439
4293,6021533924,893cc649453ffff,22.5656017,90.7101309,Tazal mamber house Jame Mosque,"Tazal mamber house Jame Mosque, Doulatkhan Subdistrict, Bhola District, Barishal Division, Bangladesh","দৌলতখান উপজেলা, ভোলা জেলা, বরিশাল বিভাগ, বাংলাদেশ","Tazal mamber house Jame Mosque, ",,['logic_undp'],দৌলতখান উপজেলা,বাংলাদেশ,বরিশাল বিভাগ,local_admin,boundaries,['place_of_worship_muslim'],[],Bangladesh,Barisal,Bhola,Daulatkhan,DakshinJoynagar,c79ccaea62f4c1da7018ec3eb288b439
4298,6021533925,893cc64945bffff,22.5645267,90.7102328,Zonu Talukdar bari Jame Mosque,"Zonu Talukdar bari Jame Mosque, Doulatkhan Subdistrict, Bhola District, Barishal Division, Bangladesh","দৌলতখান উপজেলা, ভোলা জেলা, বরিশাল বিভাগ, বাংলাদেশ","Zonu Talukdar bari Jame Mosque, ",,['logic_undp'],দৌলতখান উপজেলা,বাংলাদেশ,বরিশাল বিভাগ,local_admin,boundaries,['place_of_worship_muslim'],[],Bangladesh,Barisal,Bhola,Daulatkhan,DakshinJoynagar,c79ccaea62f4c1da7018ec3eb288b439
4304,6021533926,893cc649443ffff,22.5642741,90.7148033,Nur Miar hat Mosque & Madrassa,"Nur Miar hat Mosque & Madrassa, Doulatkhan Subdistrict, Bhola District, Barishal Division, Bangladesh","দৌলতখান উপজেলা, ভোলা জেলা, বরিশাল বিভাগ, বাংলাদেশ","Nur Miar hat Mosque & Madrassa, ",,['logic_undp'],দৌলতখান উপজেলা,বাংলাদেশ,বরিশাল বিভাগ,local_admin,boundaries,['place_of_worship_muslim'],[],Bangladesh,Barisal,Bhola,Daulatkhan,DakshinJoynagar,c79ccaea62f4c1da7018ec3eb288b439
4309,6021533927,893cd594927ffff,22.564497,90.7088166,Zonu Talukdar bari Jame Mosque,"Zonu Talukdar bari Jame Mosque, Doulatkhan Subdistrict, Bhola District, Barishal Division, Bangladesh","দৌলতখান উপজেলা, ভোলা জেলা, বরিশাল বিভাগ, বাংলাদেশ","Zonu Talukdar bari Jame Mosque, ",,['logic_undp'],দৌলতখান উপজেলা,বাংলাদেশ,বরিশাল বিভাগ,local_admin,boundaries,['place_of_worship_muslim'],[],Bangladesh,Barisal,Bhola,Daulatkhan,DakshinJoynagar,c79ccaea62f4c1da7018ec3eb288b439
4314,6021533928,893cc64944bffff,22.5618864,90.7113326,Mosque of Emam Uddin Hazi bari,"Mosque of Emam Uddin Hazi bari, Doulatkhan Subdistrict, Bhola District, Barishal Division, Bangladesh","দৌলতখান উপজেলা, ভোলা জেলা, বরিশাল বিভাগ, বাংলাদেশ","Mosque of Emam Uddin Hazi bari, ",,['logic_undp'],দৌলতখান উপজেলা,বাংলাদেশ,বরিশাল বিভাগ,local_admin,boundaries,['place_of_worship_muslim'],[],Bangladesh,Barisal,Bhola,Daulatkhan,DakshinJoynagar,c79ccaea62f4c1da7018ec3eb288b439
4319,6021533929,893cd59492fffff,22.5631793,90.7057428,Baitul Falah Jame Mosque,"Baitul Falah Jame Mosque, Doulatkhan Subdistrict, Bhola District, Barishal Division, Bangladesh","দৌলতখান উপজেলা, ভোলা জেলা, বরিশাল বিভাগ, বাংলাদেশ","Baitul Falah Jame Mosque, ",,['logic_undp'],দৌলতখান উপজেলা,বাংলাদেশ,বরিশাল বিভাগ,local_admin,boundaries,['place_of_worship_muslim'],[],Bangladesh,Barisal,Bhola,Daulatkhan,DakshinJoynagar,c79ccaea62f4c1da7018ec3eb288b439
4327,6021533931,893cd594967ffff,22.5590131,90.703876,Sultan Mia house Jame Mosque,"Sultan Mia house Jame Mosque, Doulatkhan Subdistrict, Bhola District, Barishal Division, Bangladesh","দৌলতখান উপজেলা, ভোলা জেলা, বরিশাল বিভাগ, বাংলাদেশ","Sultan Mia house Jame Mosque, ",,['logic_undp'],দৌলতখান উপজেলা,বাংলাদেশ,বরিশাল বিভাগ,local_admin,boundaries,['place_of_worship_muslim'],[],Bangladesh,Barisal,Bhola,Daulatkhan,DakshinJoynagar,c79ccaea62f4c1da7018ec3eb288b439
4335,6021533932,893cc649683ffff,22.5570612,90.7074219,Mosque of Chan Hazi Howlader house,"Mosque of Chan Hazi Howlader house, Doulatkhan Subdistrict, Bhola District, Barishal Division, Bangladesh","দৌলতখান উপজেলা, ভোলা জেলা, বরিশাল বিভাগ, বাংলাদেশ","Mosque of Chan Hazi Howlader house, ",,['logic_undp'],দৌলতখান উপজেলা,বাংলাদেশ,বরিশাল বিভাগ,local_admin,boundaries,['place_of_worship_muslim'],[],Bangladesh,Barisal,Bhola,Daulatkhan,DakshinJoynagar,c79ccaea62f4c1da7018ec3eb288b439
4350,6021533933,893cc64968bffff,22.5541581,90.7070678,Mosque of Shamim Howladar house,"Mosque of Shamim Howladar house, Borhanuddin Subdistrict, Bhola District, Barishal Division, Bangladesh","বোরহানউদ্দিন উপজেলা, ভোলা জেলা, বরিশাল বিভাগ, বাংলাদেশ","Mosque of Shamim Howladar house, ",,['logic_undp'],বোরহানউদ্দিন উপজেলা,বাংলাদেশ,বরিশাল বিভাগ,local_admin,boundaries,['place_of_worship_muslim'],[],Bangladesh,Barisal,Bhola,Burhanuddin,BaraManika,023414d8ba246a574c8731f20caa94a5
4356,6021533934,893cc6496d7ffff,22.5520873,90.704686,Ahmader hat Mosque,"Ahmader hat Mosque, Borhanuddin Subdistrict, Bhola District, Barishal Division, Bangladesh","বোরহানউদ্দিন উপজেলা, ভোলা জেলা, বরিশাল বিভাগ, বাংলাদেশ","Ahmader hat Mosque, ",,['logic_undp'],বোরহানউদ্দিন উপজেলা,বাংলাদেশ,বরিশাল বিভাগ,local_admin,boundaries,['place_of_worship_muslim'],[],Bangladesh,Barisal,Bhola,Daulatkhan,DakshinJoynagar,c79ccaea62f4c1da7018ec3eb288b439
4362,6021533935,893cc6496c3ffff,22.5507794,90.7029855,Ummal Quran Jame Mosque,"Ummal Quran Jame Mosque, Borhanuddin Subdistrict, Bhola District, Barishal Division, Bangladesh","বোরহানউদ্দিন উপজেলা, ভোলা জেলা, বরিশাল বিভাগ, বাংলাদেশ","Ummal Quran Jame Mosque, ",,['logic_undp'],বোরহানউদ্দিন উপজেলা,বাংলাদেশ,বরিশাল বিভাগ,local_admin,boundaries,['place_of_worship_muslim'],[],Bangladesh,Barisal,Bhola,Burhanuddin,BaraManika,023414d8ba246a574c8731f20caa94a5
4367,6021533936,893cd59496fffff,22.5537123,90.7005447,Mosque & Madrassa at Dofadar house,"Mosque & Madrassa at Dofadar house, Doulatkhan Subdistrict, Bhola District, Barishal Division, Bangladesh","দৌলতখান উপজেলা, ভোলা জেলা, বরিশাল বিভাগ, বাংলাদেশ","Mosque & Madrassa at Dofadar house, ",,['logic_undp'],দৌলতখান উপজেলা,বাংলাদেশ,বরিশাল বিভাগ,local_admin,boundaries,['place_of_worship_muslim'],[],Bangladesh,Barisal,Bhola,Daulatkhan,DakshinJoynagar,c79ccaea62f4c1da7018ec3eb288b439
4375,6095943482,893cc64864bffff,22.5891571,90.7443559,Eatimkhana Mosque,"Eatimkhana Mosque, Doulatkhan Subdistrict, Bhola District, Barishal Division, Bangladesh","দৌলতখান উপজেলা, ভোলা জেলা, বরিশাল বিভাগ, বাংলাদেশ","Eatimkhana Mosque, ",,['logic_undp'],দৌলতখান উপজেলা,বাংলাদেশ,বরিশাল বিভাগ,local_admin,boundaries,['place_of_worship_muslim'],[],Bangladesh,Barisal,Bhola,Daulatkhan,CharKhalifa,671566de413f655a7136598c98845b4d
4381,6095943483,893cc649597ffff,22.5881653,90.7413505,Eatimkhana Mosque,"Eatimkhana Mosque, Doulatkhan Subdistrict, Bhola District, Barishal Division, Bangladesh","দৌলতখান উপজেলা, ভোলা জেলা, বরিশাল বিভাগ, বাংলাদেশ","Eatimkhana Mosque, ",,['logic_undp'],দৌলতখান উপজেলা,বাংলাদেশ,বরিশাল বিভাগ,local_admin,boundaries,['place_of_worship_muslim'],[],Bangladesh,Barisal,Bhola,Daulatkhan,CharKhalifa,671566de413f655a7136598c98845b4d
4385,6095943484,893cc6495a7ffff,22.5858139,90.7521236,Gupto Ganje bazaar mosque,"Gupto Ganje bazaar mosque, Doulatkhan Subdistrict, Bhola District, Barishal Division, Bangladesh","দৌলতখান উপজেলা, ভোলা জেলা, বরিশাল বিভাগ, বাংলাদেশ","Gupto Ganje bazaar mosque, ",,"['logic_undp', 'Cyclone']",দৌলতখান উপজেলা,বাংলাদেশ,বরিশাল বিভাগ,local_admin,boundaries,['place_of_worship_muslim'],[],Bangladesh,Barisal,Bhola,Daulatkhan,Saidpur,5fa690b3dbb0e697f575fa03122ab377
4390,6095950685,893cc6495a3ffff,22.5864627,90.7486528,Lahari Janggal jame mosque,"Lahari Janggal jame mosque, Doulatkhan Subdistrict, Bhola District, Barishal Division, Bangladesh","দৌলতখান উপজেলা, ভোলা জেলা, বরিশাল বিভাগ, বাংলাদেশ","Lahari Janggal jame mosque, ",,['logic_undp'],দৌলতখান উপজেলা,বাংলাদেশ,বরিশাল বিভাগ,local_admin,boundaries,['place_of_worship_muslim'],[],Bangladesh,Barisal,Bhola,Daulatkhan,Saidpur,5fa690b3dbb0e697f575fa03122ab377
4395,6095950687,893cc649573ffff,22.5743125,90.7453068,"Kali Mandir , Ponchonondho Talukder house.","Kali Mandir Ponchonondho Talukder house., Doulatkhan Subdistrict, Bhola District, Barishal Division, Bangladesh","দৌলতখান উপজেলা, ভোলা জেলা, বরিশাল বিভাগ, বাংলাদেশ","Kali Mandir Ponchonondho Talukder house., ",,['logic_undp'],দৌলতখান উপজেলা,বাংলাদেশ,বরিশাল বিভাগ,local_admin,boundaries,['place_of_worship'],[],Bangladesh,Barisal,Bhola,Daulatkhan,Saidpur,5fa690b3dbb0e697f575fa03122ab377
4401,6095950688,893cc64950bffff,22.5745986,90.7439844,Talpata jame mosque.,"Talpata jame mosque., Doulatkhan Subdistrict, Bhola District, Barishal Division, Bangladesh","দৌলতখান উপজেলা, ভোলা জেলা, বরিশাল বিভাগ, বাংলাদেশ","Talpata jame mosque., ",,['logic_undp'],দৌলতখান উপজেলা,বাংলাদেশ,বরিশাল বিভাগ,local_admin,boundaries,['place_of_worship_muslim'],[],Bangladesh,Barisal,Bhola,Daulatkhan,Saidpur,5fa690b3dbb0e697f575fa03122ab377
4405,6095950689,893cc64958fffff,22.5821164,90.7411145,Habu Midda house jame mosque,"Habu Midda house jame mosque, Doulatkhan Subdistrict, Bhola District, Barishal Division, Bangladesh","দৌলতখান উপজেলা, ভোলা জেলা, বরিশাল বিভাগ, বাংলাদেশ","Habu Midda house jame mosque, ",,['logic_undp'],দৌলতখান উপজেলা,বাংলাদেশ,বরিশাল বিভাগ,local_admin,boundaries,['place_of_worship_muslim'],[],Bangladesh,Barisal,Bhola,Daulatkhan,Saidpur,5fa690b3dbb0e697f575fa03122ab377
4409,6095950690,893cc649587ffff,22.5868682,90.7437551,Al Aksa jame mosque,"Al Aksa jame mosque, Doulatkhan Subdistrict, Bhola District, Barishal Division, Bangladesh","দৌলতখান উপজেলা, ভোলা জেলা, বরিশাল বিভাগ, বাংলাদেশ","Al Aksa jame mosque, ",,['logic_undp'],দৌলতখান উপজেলা,বাংলাদেশ,বরিশাল বিভাগ,local_admin,boundaries,['place_of_worship_muslim'],[],Bangladesh,Barisal,Bhola,Daulatkhan,Saidpur,5fa690b3dbb0e697f575fa03122ab377
4420,6095950691,893cc6495bbffff,22.5855446,90.7456172,Charshuvi Madrasa Mosque,"Charshuvi Madrasa Mosque, Doulatkhan Subdistrict, Bhola District, Barishal Division, Bangladesh","দৌলতখান উপজেলা, ভোলা জেলা, বরিশাল বিভাগ, বাংলাদেশ","Charshuvi Madrasa Mosque, ",,['logic_undp'],দৌলতখান উপজেলা,বাংলাদেশ,বরিশাল বিভাগ,local_admin,boundaries,['place_of_worship_muslim'],[],Bangladesh,Barisal,Bhola,Daulatkhan,Saidpur,5fa690b3dbb0e697f575fa03122ab377
4422,6095950692,893cc649533ffff,22.581839,90.7495353,Soyal house jame mosque,"Soyal house jame mosque, Doulatkhan Subdistrict, Bhola District, Barishal Division, Bangladesh","দৌলতখান উপজেলা, ভোলা জেলা, বরিশাল বিভাগ, বাংলাদেশ","Soyal house jame mosque, ",,['logic_undp'],দৌলতখান উপজেলা,বাংলাদেশ,বরিশাল বিভাগ,local_admin,boundaries,['place_of_worship_muslim'],[],Bangladesh,Barisal,Bhola,Daulatkhan,Saidpur,5fa690b3dbb0e697f575fa03122ab377
4424,6095950693,893cc64950fffff,22.5765094,90.7452652,Khorshed haowlader jame mosque.,"Khorshed haowlader jame mosque., Doulatkhan Subdistrict, Bhola District, Barishal Division, Bangladesh","দৌলতখান উপজেলা, ভোলা জেলা, বরিশাল বিভাগ, বাংলাদেশ","Khorshed haowlader jame mosque., ",,['logic_undp'],দৌলতখান উপজেলা,বাংলাদেশ,বরিশাল বিভাগ,local_admin,boundaries,['place_of_worship_muslim'],[],Bangladesh,Barisal,Bhola,Daulatkhan,Saidpur,5fa690b3dbb0e697f575fa03122ab377
4429,6095950694,893cc64950bffff,22.5761329,90.7417005,Keramotiea jame mosque.,"Keramotiea jame mosque., Doulatkhan Subdistrict, Bhola District, Barishal Division, Bangladesh","দৌলতখান উপজেলা, ভোলা জেলা, বরিশাল বিভাগ, বাংলাদেশ","Keramotiea jame mosque., ",,['logic_undp'],দৌলতখান উপজেলা,বাংলাদেশ,বরিশাল বিভাগ,local_admin,boundaries,['place_of_worship_muslim'],[],Bangladesh,Barisal,Bhola,Daulatkhan,Saidpur,5fa690b3dbb0e697f575fa03122ab377
4435,6095950695,893cc64950bffff,22.5761701,90.7415986,Keramotiea jame mosque market,"Keramotiea jame mosque market, Doulatkhan Subdistrict, Bhola District, Barishal Division, Bangladesh","দৌলতখান উপজেলা, ভোলা জেলা, বরিশাল বিভাগ, বাংলাদেশ","Keramotiea jame mosque market, ",,['logic_undp'],দৌলতখান উপজেলা,বাংলাদেশ,বরিশাল বিভাগ,local_admin,boundaries,['place_of_worship_muslim'],[],Bangladesh,Barisal,Bhola,Daulatkhan,Saidpur,5fa690b3dbb0e697f575fa03122ab377
4440,6095950696,893cc64951bffff,22.5759298,90.7402709,Mosjidul Emam Jame mosque.,"Mosjidul Emam Jame mosque., Doulatkhan Subdistrict, Bhola District, Barishal Division, Bangladesh","দৌলতখান উপজেলা, ভোলা জেলা, বরিশাল বিভাগ, বাংলাদেশ","Mosjidul Emam Jame mosque., ",,['logic_undp'],দৌলতখান উপজেলা,বাংলাদেশ,বরিশাল বিভাগ,local_admin,boundaries,['place_of_worship_muslim'],[],Bangladesh,Barisal,Bhola,Daulatkhan,Saidpur,5fa690b3dbb0e697f575fa03122ab377
4445,6095950697,893cc6495cfffff,22.5772449,90.7351023,Rashid Foundation Jame mosque,"Rashid Foundation Jame mosque, Doulatkhan Subdistrict, Bhola District, Barishal Division, Bangladesh","দৌলতখান উপজেলা, ভোলা জেলা, বরিশাল বিভাগ, বাংলাদেশ","Rashid Foundation Jame mosque, ",,['logic_undp'],দৌলতখান উপজেলা,বাংলাদেশ,বরিশাল বিভাগ,local_admin,boundaries,['place_of_worship_muslim'],[],Bangladesh,Barisal,Bhola,Daulatkhan,Saidpur,5fa690b3dbb0e697f575fa03122ab377
4451,6095950698,893cc64b36fffff,22.5837633,90.7311058,Foyzul Ulum Jame Mosque,"Foyzul Ulum Jame Mosque, Doulatkhan Subdistrict, Bhola District, Barishal Division, Bangladesh","দৌলতখান উপজেলা, ভোলা জেলা, বরিশাল বিভাগ, বাংলাদেশ","Foyzul Ulum Jame Mosque, ",,['logic_undp'],দৌলতখান উপজেলা,বাংলাদেশ,বরিশাল বিভাগ,local_admin,boundaries,['place_of_worship_muslim'],[],Bangladesh,Barisal,Bhola,Daulatkhan,Saidpur,5fa690b3dbb0e697f575fa03122ab377
4462,6095950699,893cc6495c3ffff,22.5791284,90.7318568,Monu Matbor House jame mosque,"Monu Matbor House jame mosque, Doulatkhan Subdistrict, Bhola District, Barishal Division, Bangladesh","দৌলতখান উপজেলা, ভোলা জেলা, বরিশাল বিভাগ, বাংলাদেশ","Monu Matbor House jame mosque, ",,['logic_undp'],দৌলতখান উপজেলা,বাংলাদেশ,বরিশাল বিভাগ,local_admin,boundaries,['place_of_worship_muslim'],[],Bangladesh,Barisal,Bhola,Daulatkhan,Saidpur,5fa690b3dbb0e697f575fa03122ab377
4467,6095950700,893cc6495d3ffff,22.579277,90.731138,Askor Patwary house Jame Mosque,"Askor Patwary house Jame Mosque, Doulatkhan Subdistrict, Bhola District, Barishal Division, Bangladesh","দৌলতখান উপজেলা, ভোলা জেলা, বরিশাল বিভাগ, বাংলাদেশ","Askor Patwary house Jame Mosque, ",,['logic_undp'],দৌলতখান উপজেলা,বাংলাদেশ,বরিশাল বিভাগ,local_admin,boundaries,['place_of_worship_muslim'],[],Bangladesh,Barisal,Bhola,Daulatkhan,Saidpur,5fa690b3dbb0e697f575fa03122ab377
4470,6095950701,893cc6495dbffff,22.578191,90.7295059,Bokter Howladar house Jame Mosque,"Bokter Howladar house Jame Mosque, Doulatkhan Subdistrict, Bhola District, Barishal Division, Bangladesh","দৌলতখান উপজেলা, ভোলা জেলা, বরিশাল বিভাগ, বাংলাদেশ","Bokter Howladar house Jame Mosque, ",,['logic_undp'],দৌলতখান উপজেলা,বাংলাদেশ,বরিশাল বিভাগ,local_admin,boundaries,['place_of_worship_muslim'],[],Bangladesh,Barisal,Bhola,Daulatkhan,Saidpur,5fa690b3dbb0e697f575fa03122ab377
4475,6095950702,893cc6495cbffff,22.5746717,90.7338001,Baitul Nur jame mosque,"Baitul Nur jame mosque, Doulatkhan Subdistrict, Bhola District, Barishal Division, Bangladesh","দৌলতখান উপজেলা, ভোলা জেলা, বরিশাল বিভাগ, বাংলাদেশ","Baitul Nur jame mosque, ",,['logic_undp'],দৌলতখান উপজেলা,বাংলাদেশ,বরিশাল বিভাগ,local_admin,boundaries,['place_of_worship_muslim'],[],Bangladesh,Barisal,Bhola,Daulatkhan,Saidpur,5fa690b3dbb0e697f575fa03122ab377
4480,6095950703,893cc649433ffff,22.5735181,90.7263301,Hakim Patwary house Jame Mosque,"Hakim Patwary house Jame Mosque, Doulatkhan Subdistrict, Bhola District, Barishal Division, Bangladesh","দৌলতখান উপজেলা, ভোলা জেলা, বরিশাল বিভাগ, বাংলাদেশ","Hakim Patwary house Jame Mosque, ",,['logic_undp'],দৌলতখান উপজেলা,বাংলাদেশ,বরিশাল বিভাগ,local_admin,boundaries,['place_of_worship_muslim'],[],Bangladesh,Barisal,Bhola,Daulatkhan,Saidpur,5fa690b3dbb0e697f575fa03122ab377
4484,6095950704,893cc649427ffff,22.5705169,90.7320955,Munshi House jame mosque,"Munshi House jame mosque, Doulatkhan Subdistrict, Bhola District, Barishal Division, Bangladesh","দৌলতখান উপজেলা, ভোলা জেলা, বরিশাল বিভাগ, বাংলাদেশ","Munshi House jame mosque, ",,['logic_undp'],দৌলতখান উপজেলা,বাংলাদেশ,বরিশাল বিভাগ,local_admin,boundaries,['place_of_worship_muslim'],[],Bangladesh,Barisal,Bhola,Daulatkhan,Saidpur,5fa690b3dbb0e697f575fa03122ab377
4489,6095950705,893cc649093ffff,22.5671262,90.7307524,Mahajon bari Jame Mosque,"Mahajon bari Jame Mosque, Borhanuddin Subdistrict, Bhola District, Barishal Division, Bangladesh","বোরহানউদ্দিন উপজেলা, ভোলা জেলা, বরিশাল বিভাগ, বাংলাদেশ","Mahajon bari Jame Mosque, ",,['logic_undp'],বোরহানউদ্দিন উপজেলা,বাংলাদেশ,বরিশাল বিভাগ,local_admin,boundaries,['place_of_worship_muslim'],[],Bangladesh,Barisal,Bhola,Daulatkhan,Saidpur,5fa690b3dbb0e697f575fa03122ab377
4503,6095950706,893cc6495abffff,22.5825028,90.7485053,Talpata jame mosque.,"Talpata jame mosque., Doulatkhan Subdistrict, Bhola District, Barishal Division, Bangladesh","দৌলতখান উপজেলা, ভোলা জেলা, বরিশাল বিভাগ, বাংলাদেশ","Talpata jame mosque., ",,['logic_undp'],দৌলতখান উপজেলা,বাংলাদেশ,বরিশাল বিভাগ,local_admin,boundaries,['place_of_worship_muslim'],[],Bangladesh,Barisal,Bhola,Daulatkhan,Saidpur,5fa690b3dbb0e697f575fa03122ab377
4508,6095950707,893cc6495abffff,22.5821684,90.746617,Charshuvi Baitul Aman jame mosque,"Charshuvi Baitul Aman jame mosque, Doulatkhan Subdistrict, Bhola District, Barishal Division, Bangladesh","দৌলতখান উপজেলা, ভোলা জেলা, বরিশাল বিভাগ, বাংলাদেশ","Charshuvi Baitul Aman jame mosque, ",,['logic_undp'],দৌলতখান উপজেলা,বাংলাদেশ,বরিশাল বিভাগ,local_admin,boundaries,['place_of_worship_muslim'],[],Bangladesh,Barisal,Bhola,Daulatkhan,Saidpur,5fa690b3dbb0e697f575fa03122ab377
4514,6095950708,893cc6495abffff,22.5809722,90.7472581,Rashid Mia house jame mosque,"Rashid Mia house jame mosque, Doulatkhan Subdistrict, Bhola District, Barishal Division, Bangladesh","দৌলতখান উপজেলা, ভোলা জেলা, বরিশাল বিভাগ, বাংলাদেশ","Rashid Mia house jame mosque, ",,['logic_undp'],দৌলতখান উপজেলা,বাংলাদেশ,বরিশাল বিভাগ,local_admin,boundaries,['place_of_worship_muslim'],[],Bangladesh,Barisal,Bhola,Daulatkhan,Saidpur,5fa690b3dbb0e697f575fa03122ab377
4520,6095950709,893cc649577ffff,22.5750481,90.7498839,Liakot Mia house jame mosque,"Liakot Mia house jame mosque, Doulatkhan Subdistrict, Bhola District, Barishal Division, Bangladesh","দৌলতখান উপজেলা, ভোলা জেলা, বরিশাল বিভাগ, বাংলাদেশ","Liakot Mia house jame mosque, ",,"['logic_undp', 'High tide']",দৌলতখান উপজেলা,বাংলাদেশ,বরিশাল বিভাগ,local_admin,boundaries,['place_of_worship_muslim'],[],Bangladesh,Barisal,Bhola,Daulatkhan,Saidpur,5fa690b3dbb0e697f575fa03122ab377
4526,6095950710,893cc649577ffff,22.5747187,90.7495138,Bosu patowary jame mosque.,"Bosu patowary jame mosque., Doulatkhan Subdistrict, Bhola District, Barishal Division, Bangladesh","দৌলতখান উপজেলা, ভোলা জেলা, বরিশাল বিভাগ, বাংলাদেশ","Bosu patowary jame mosque., ",,['logic_undp'],দৌলতখান উপজেলা,বাংলাদেশ,বরিশাল বিভাগ,local_admin,boundaries,['place_of_worship_muslim'],[],Bangladesh,Barisal,Bhola,Daulatkhan,Saidpur,5fa690b3dbb0e697f575fa03122ab377
4531,6095950711,893cc649567ffff,22.5713429,90.7499725,Baitul jannat jame mosque.,"Baitul jannat jame mosque., Doulatkhan Subdistrict, Bhola District, Barishal Division, Bangladesh","দৌলতখান উপজেলা, ভোলা জেলা, বরিশাল বিভাগ, বাংলাদেশ","Baitul jannat jame mosque., ",,['logic_undp'],দৌলতখান উপজেলা,বাংলাদেশ,বরিশাল বিভাগ,local_admin,boundaries,['place_of_worship_muslim'],[],Bangladesh,Barisal,Bhola,Daulatkhan,Saidpur,5fa690b3dbb0e697f575fa03122ab377
4536,6095950712,893cc64956fffff,22.5700625,90.7496881,Majirhat bazaar jame mosque.,"Majirhat bazaar jame mosque., Doulatkhan Subdistrict, Bhola District, Barishal Division, Bangladesh","দৌলতখান উপজেলা, ভোলা জেলা, বরিশাল বিভাগ, বাংলাদেশ","Majirhat bazaar jame mosque., ",,['logic_undp'],দৌলতখান উপজেলা,বাংলাদেশ,বরিশাল বিভাগ,local_admin,boundaries,['place_of_worship_muslim'],[],Bangladesh,Barisal,Bhola,Daulatkhan,Saidpur,5fa690b3dbb0e697f575fa03122ab377
4541,6095950716,893cc64954bffff,22.56685,90.73822440000001,Sahjahan Kerani house jame mosque,"Sahjahan Kerani house jame mosque, Borhanuddin Subdistrict, Bhola District, Barishal Division, Bangladesh","বোরহানউদ্দিন উপজেলা, ভোলা জেলা, বরিশাল বিভাগ, বাংলাদেশ","Sahjahan Kerani house jame mosque, ",,['logic_undp'],বোরহানউদ্দিন উপজেলা,বাংলাদেশ,বরিশাল বিভাগ,local_admin,boundaries,['place_of_worship_muslim'],[],Bangladesh,Barisal,Bhola,Daulatkhan,Saidpur,5fa690b3dbb0e697f575fa03122ab377
4547,6095950717,893cc64954bffff,22.566746,90.7363254,Foyjul Haji House jame mosque,"Foyjul Haji House jame mosque, Borhanuddin Subdistrict, Bhola District, Barishal Division, Bangladesh","বোরহানউদ্দিন উপজেলা, ভোলা জেলা, বরিশাল বিভাগ, বাংলাদেশ","Foyjul Haji House jame mosque, ",,['logic_undp'],বোরহানউদ্দিন উপজেলা,বাংলাদেশ,বরিশাল বিভাগ,local_admin,boundaries,['place_of_worship_muslim'],[],Bangladesh,Barisal,Bhola,Daulatkhan,Saidpur,5fa690b3dbb0e697f575fa03122ab377
4553,6095950718,893cc649087ffff,22.5650485,90.7355724,Mijirhat jame mosque.,"Mijirhat jame mosque., Borhanuddin Subdistrict, Bhola District, Barishal Division, Bangladesh","বোরহানউদ্দিন উপজেলা, ভোলা জেলা, বরিশাল বিভাগ, বাংলাদেশ","Mijirhat jame mosque., ",,['logic_undp'],বোরহানউদ্দিন উপজেলা,বাংলাদেশ,বরিশাল বিভাগ,local_admin,boundaries,['place_of_worship_muslim'],[],Bangladesh,Barisal,Bhola,Daulatkhan,Saidpur,5fa690b3dbb0e697f575fa03122ab377
4558,6095950719,893cc64908fffff,22.5615545,90.734936,Borodholi fazil madrasa.,"Borodholi fazil madrasa., Borhanuddin Subdistrict, Bhola District, Barishal Division, Bangladesh","বোরহানউদ্দিন উপজেলা, ভোলা জেলা, বরিশাল বিভাগ, বাংলাদেশ","Borodholi fazil madrasa., ",,['logic_undp'],বোরহানউদ্দিন উপজেলা,বাংলাদেশ,বরিশাল বিভাগ,local_admin,boundaries,['place_of_worship_muslim'],[],Bangladesh,Barisal,Bhola,Daulatkhan,Saidpur,5fa690b3dbb0e697f575fa03122ab377
4562,6095950720,893cc649587ffff,22.5868515,90.7434601,Talpata jame mosque.,"Talpata jame mosque., Doulatkhan Subdistrict, Bhola District, Barishal Division, Bangladesh","দৌলতখান উপজেলা, ভোলা জেলা, বরিশাল বিভাগ, বাংলাদেশ","Talpata jame mosque., ",,['logic_undp'],দৌলতখান উপজেলা,বাংলাদেশ,বরিশাল বিভাগ,local_admin,boundaries,['place_of_worship_muslim'],[],Bangladesh,Barisal,Bhola,Daulatkhan,Saidpur,5fa690b3dbb0e697f575fa03122ab377
4568,6095950721,893cc649583ffff,22.5871339,90.7395869,Baitl Mamur jame mosque,"Baitl Mamur jame mosque, Doulatkhan Subdistrict, Bhola District, Barishal Division, Bangladesh","দৌলতখান উপজেলা, ভোলা জেলা, বরিশাল বিভাগ, বাংলাদেশ","Baitl Mamur jame mosque, ",,['logic_undp'],দৌলতখান উপজেলা,বাংলাদেশ,বরিশাল বিভাগ,local_admin,boundaries,['place_of_worship_muslim'],[],Bangladesh,Barisal,Bhola,Daulatkhan,Saidpur,5fa690b3dbb0e697f575fa03122ab377
4574,6095950722,893cc64b367ffff,22.5871041,90.7328922,Munaf Bapari Jame Mosque,"Munaf Bapari Jame Mosque, Doulatkhan Subdistrict, Bhola District, Barishal Division, Bangladesh","দৌলতখান উপজেলা, ভোলা জেলা, বরিশাল বিভাগ, বাংলাদেশ","Munaf Bapari Jame Mosque, ",,['logic_undp'],দৌলতখান উপজেলা,বাংলাদেশ,বরিশাল বিভাগ,local_admin,boundaries,['place_of_worship_muslim'],[],Bangladesh,Barisal,Bhola,Daulatkhan,Saidpur,5fa690b3dbb0e697f575fa03122ab377
4579,6095950723,893cc6491c3ffff,22.5625155,90.7504378,Aslam Frije Jame Mosque,"Aslam Frije Jame Mosque, Borhanuddin Subdistrict, Bhola District, Barishal Division, Bangladesh","বোরহানউদ্দিন উপজেলা, ভোলা জেলা, বরিশাল বিভাগ, বাংলাদেশ","Aslam Frije Jame Mosque, ",,['logic_undp'],বোরহানউদ্দিন উপজেলা,বাংলাদেশ,বরিশাল বিভাগ,local_admin,boundaries,['place_of_worship_muslim'],[],Bangladesh,Barisal,Bhola,Daulatkhan,Saidpur,5fa690b3dbb0e697f575fa03122ab377
4594,6095950724,893cc6490a3ffff,22.5618269,90.7419875,Talukder para jame mosque,"Talukder para jame mosque, Borhanuddin Subdistrict, Bhola District, Barishal Division, Bangladesh","বোরহানউদ্দিন উপজেলা, ভোলা জেলা, বরিশাল বিভাগ, বাংলাদেশ","Talukder para jame mosque, ",,['logic_undp'],বোরহানউদ্দিন উপজেলা,বাংলাদেশ,বরিশাল বিভাগ,local_admin,boundaries,['place_of_worship_muslim'],[],Bangladesh,Barisal,Bhola,Daulatkhan,Saidpur,5fa690b3dbb0e697f575fa03122ab377
4598,6095950725,893cc6490a7ffff,22.5638084,90.7458553,Sorkari digir per jame mosque,"Sorkari digir per jame mosque, Borhanuddin Subdistrict, Bhola District, Barishal Division, Bangladesh","বোরহানউদ্দিন উপজেলা, ভোলা জেলা, বরিশাল বিভাগ, বাংলাদেশ","Sorkari digir per jame mosque, ",,['logic_undp'],বোরহানউদ্দিন উপজেলা,বাংলাদেশ,বরিশাল বিভাগ,local_admin,boundaries,['place_of_worship_muslim'],[],Bangladesh,Barisal,Bhola,Daulatkhan,Saidpur,5fa690b3dbb0e697f575fa03122ab377
4603,6095950726,893cc6490a3ffff,22.563375,90.7429558,Hossen patowary house Jame mosque.,"Hossen patowary house Jame mosque., Borhanuddin Subdistrict, Bhola District, Barishal Division, Bangladesh","বোরহানউদ্দিন উপজেলা, ভোলা জেলা, বরিশাল বিভাগ, বাংলাদেশ","Hossen patowary house Jame mosque., ",,['logic_undp'],বোরহানউদ্দিন উপজেলা,বাংলাদেশ,বরিশাল বিভাগ,local_admin,boundaries,['place_of_worship_muslim'],[],Bangladesh,Barisal,Bhola,Daulatkhan,Saidpur,5fa690b3dbb0e697f575fa03122ab377
4609,6095950727,893cc649087ffff,22.5639868,90.7372856,Mieanuddin miea jame mosque.,"Mieanuddin miea jame mosque., Borhanuddin Subdistrict, Bhola District, Barishal Division, Bangladesh","বোরহানউদ্দিন উপজেলা, ভোলা জেলা, বরিশাল বিভাগ, বাংলাদেশ","Mieanuddin miea jame mosque., ",,['logic_undp'],বোরহানউদ্দিন উপজেলা,বাংলাদেশ,বরিশাল বিভাগ,local_admin,boundaries,['place_of_worship_muslim'],[],Bangladesh,Barisal,Bhola,Daulatkhan,Saidpur,5fa690b3dbb0e697f575fa03122ab377
4614,6095950728,893cc649087ffff,22.5637954,90.7351962,Keramot ali Bepari house Jame mosque.,"Keramot ali Bepari house Jame mosque., Borhanuddin Subdistrict, Bhola District, Barishal Division, Bangladesh","বোরহানউদ্দিন উপজেলা, ভোলা জেলা, বরিশাল বিভাগ, বাংলাদেশ","Keramot ali Bepari house Jame mosque., ",,['logic_undp'],বোরহানউদ্দিন উপজেলা,বাংলাদেশ,বরিশাল বিভাগ,local_admin,boundaries,['place_of_worship_muslim'],[],Bangladesh,Barisal,Bhola,Daulatkhan,Saidpur,5fa690b3dbb0e697f575fa03122ab377
4619,6095950729,893cc649467ffff,22.5650506,90.7273172,Afiroddi Forize Jame Mosque,"Afiroddi Forize Jame Mosque, Borhanuddin Subdistrict, Bhola District, Barishal Division, Bangladesh","বোরহানউদ্দিন উপজেলা, ভোলা জেলা, বরিশাল বিভাগ, বাংলাদেশ","Afiroddi Forize Jame Mosque, ",,['logic_undp'],বোরহানউদ্দিন উপজেলা,বাংলাদেশ,বরিশাল বিভাগ,local_admin,boundaries,['place_of_worship_muslim'],[],Bangladesh,Barisal,Bhola,Daulatkhan,Saidpur,5fa690b3dbb0e697f575fa03122ab377
4624,6095950730,893cc64940fffff,22.5678569,90.7219782,Apporodi Baperi Jame Mosuqe,"Apporodi Baperi Jame Mosuqe, Borhanuddin Subdistrict, Bhola District, Barishal Division, Bangladesh","বোরহানউদ্দিন উপজেলা, ভোলা জেলা, বরিশাল বিভাগ, বাংলাদেশ","Apporodi Baperi Jame Mosuqe, ",,['logic_undp'],বোরহানউদ্দিন উপজেলা,বাংলাদেশ,বরিশাল বিভাগ,local_admin,boundaries,['place_of_worship_muslim'],[],Bangladesh,Barisal,Bhola,Daulatkhan,Saidpur,5fa690b3dbb0e697f575fa03122ab377
4626,6095950731,893cc649463ffff,22.5642815,90.7218897,Islam Howlader house Jame Mosque,"Islam Howlader house Jame Mosque, Borhanuddin Subdistrict, Bhola District, Barishal Division, Bangladesh","বোরহানউদ্দিন উপজেলা, ভোলা জেলা, বরিশাল বিভাগ, বাংলাদেশ","Islam Howlader house Jame Mosque, ",,['logic_undp'],বোরহানউদ্দিন উপজেলা,বাংলাদেশ,বরিশাল বিভাগ,local_admin,boundaries,['place_of_worship_muslim'],[],Bangladesh,Barisal,Bhola,Daulatkhan,Saidpur,5fa690b3dbb0e697f575fa03122ab377
4629,6095950732,893cc649473ffff,22.5660475,90.7209617,Nazimoddin Baperi jama mosque,"Nazimoddin Baperi jama mosque, Borhanuddin Subdistrict, Bhola District, Barishal Division, Bangladesh","বোরহানউদ্দিন উপজেলা, ভোলা জেলা, বরিশাল বিভাগ, বাংলাদেশ","Nazimoddin Baperi jama mosque, ",,['logic_undp'],বোরহানউদ্দিন উপজেলা,বাংলাদেশ,বরিশাল বিভাগ,local_admin,boundaries,['place_of_worship_muslim'],[],Bangladesh,Barisal,Bhola,Daulatkhan,Saidpur,5fa690b3dbb0e697f575fa03122ab377
4632,6095950733,893cc64909bffff,22.5637979,90.7298455,Mirada house Jame,"Mirada house Jame, Borhanuddin Subdistrict, Bhola District, Barishal Division, Bangladesh","বোরহানউদ্দিন উপজেলা, ভোলা জেলা, বরিশাল বিভাগ, বাংলাদেশ","Mirada house Jame, ",,['logic_undp'],বোরহানউদ্দিন উপজেলা,বাংলাদেশ,বরিশাল বিভাগ,local_admin,boundaries,['place_of_worship_muslim'],[],Bangladesh,Barisal,Bhola,Daulatkhan,Saidpur,5fa690b3dbb0e697f575fa03122ab377
4637,6095950734,893cc64940bffff,22.5685566,90.7192692,Rofik Member Jame Mosque,"Rofik Member Jame Mosque, Borhanuddin Subdistrict, Bhola District, Barishal Division, Bangladesh","বোরহানউদ্দিন উপজেলা, ভোলা জেলা, বরিশাল বিভাগ, বাংলাদেশ","Rofik Member Jame Mosque, ",,['logic_undp'],বোরহানউদ্দিন উপজেলা,বাংলাদেশ,বরিশাল বিভাগ,local_admin,boundaries,['place_of_worship_muslim'],[],Bangladesh,Barisal,Bhola,Daulatkhan,Saidpur,5fa690b3dbb0e697f575fa03122ab377
4642,6097830471,893cc649583ffff,22.5874657,90.7386535,Banana farm of Malek Mia,"Banana farm of Malek Mia, Doulatkhan Subdistrict, Bhola District, Barishal Division, Bangladesh","দৌলতখান উপজেলা, ভোলা জেলা, বরিশাল বিভাগ, বাংলাদেশ","Banana farm of Malek Mia, ",,['logic_undp'],দৌলতখান উপজেলা,বাংলাদেশ,বরিশাল বিভাগ,local_admin,boundaries,['farm'],[],Bangladesh,Barisal,Bhola,Daulatkhan,Saidpur,5fa690b3dbb0e697f575fa03122ab377
4648,6097830473,893cc64b367ffff,22.5873493,90.733104,Munaf Bapari bazar,"Munaf Bapari bazar, Doulatkhan Subdistrict, Bhola District, Barishal Division, Bangladesh","দৌলতখান উপজেলা, ভোলা জেলা, বরিশাল বিভাগ, বাংলাদেশ","Munaf Bapari bazar, ",,['logic_undp'],দৌলতখান উপজেলা,বাংলাদেশ,বরিশাল বিভাগ,local_admin,boundaries,['marketplace'],[],Bangladesh,Barisal,Bhola,Daulatkhan,Saidpur,5fa690b3dbb0e697f575fa03122ab377
4654,6097830474,893cc64b367ffff,22.5878966,90.7345015,Public toylet of Munaf Bapari bazar,"Public toylet of Munaf Bapari bazar, Doulatkhan Subdistrict, Bhola District, Barishal Division, Bangladesh","দৌলতখান উপজেলা, ভোলা জেলা, বরিশাল বিভাগ, বাংলাদেশ","Public toylet of Munaf Bapari bazar, ",,['logic_undp'],দৌলতখান উপজেলা,বাংলাদেশ,বরিশাল বিভাগ,local_admin,boundaries,['toilets'],[],Bangladesh,Barisal,Bhola,Daulatkhan,Saidpur,5fa690b3dbb0e697f575fa03122ab377
4665,6097830475,893cc649517ffff,22.5811382,90.7450399,Rice mill of Lito,"Rice mill of Lito, Doulatkhan Subdistrict, Bhola District, Barishal Division, Bangladesh","দৌলতখান উপজেলা, ভোলা জেলা, বরিশাল বিভাগ, বাংলাদেশ","Rice mill of Lito, ",,['logic_undp'],দৌলতখান উপজেলা,বাংলাদেশ,বরিশাল বিভাগ,local_admin,boundaries,['sawmill'],[],Bangladesh,Barisal,Bhola,Daulatkhan,Saidpur,5fa690b3dbb0e697f575fa03122ab377
4677,6097834707,893cc64951bffff,22.5760623,90.7409146,Rice mill in front of Basa bari,"Rice mill in front of Basa bari, Doulatkhan Subdistrict, Bhola District, Barishal Division, Bangladesh","দৌলতখান উপজেলা, ভোলা জেলা, বরিশাল বিভাগ, বাংলাদেশ","Rice mill in front of Basa bari, ",,['logic_undp'],দৌলতখান উপজেলা,বাংলাদেশ,বরিশাল বিভাগ,local_admin,boundaries,['sawmill'],[],Bangladesh,Barisal,Bhola,Daulatkhan,Saidpur,5fa690b3dbb0e697f575fa03122ab377
4681,6097834709,893cc649427ffff,22.5714024,90.7316369,Banana farm of Nasir Fokir,"Banana farm of Nasir Fokir, Doulatkhan Subdistrict, Bhola District, Barishal Division, Bangladesh","দৌলতখান উপজেলা, ভোলা জেলা, বরিশাল বিভাগ, বাংলাদেশ","Banana farm of Nasir Fokir, ",,['logic_undp'],দৌলতখান উপজেলা,বাংলাদেশ,বরিশাল বিভাগ,local_admin,boundaries,['farm'],[],Bangladesh,Barisal,Bhola,Daulatkhan,Saidpur,5fa690b3dbb0e697f575fa03122ab377
4685,6097834710,893cc6490bbffff,22.5617576,90.738396,Adrosho bazaar,"Adrosho bazaar, Borhanuddin Subdistrict, Bhola District, Barishal Division, Bangladesh","বোরহানউদ্দিন উপজেলা, ভোলা জেলা, বরিশাল বিভাগ, বাংলাদেশ","Adrosho bazaar, ",,['logic_undp'],বোরহানউদ্দিন উপজেলা,বাংলাদেশ,বরিশাল বিভাগ,local_admin,boundaries,['marketplace'],[],Bangladesh,Barisal,Bhola,Daulatkhan,Saidpur,5fa690b3dbb0e697f575fa03122ab377
4691,6097834711,893cc649403ffff,22.5717367,90.7180703,Samsu Mia's bazar,"Samsu Mia's bazar, Doulatkhan Subdistrict, Bhola District, Barishal Division, Bangladesh","দৌলতখান উপজেলা, ভোলা জেলা, বরিশাল বিভাগ, বাংলাদেশ","Samsu Mia's bazar, ",,['logic_undp'],দৌলতখান উপজেলা,বাংলাদেশ,বরিশাল বিভাগ,local_admin,boundaries,['marketplace'],[],Bangladesh,Barisal,Bhola,Daulatkhan,Saidpur,5fa690b3dbb0e697f575fa03122ab377
4700,6097834712,893cc6495c3ffff,22.5793823,90.734944,Vegetable farm of Abdul Shukkur,"Vegetable farm of Abdul Shukkur, Doulatkhan Subdistrict, Bhola District, Barishal Division, Bangladesh","দৌলতখান উপজেলা, ভোলা জেলা, বরিশাল বিভাগ, বাংলাদেশ","Vegetable farm of Abdul Shukkur, ",,['logic_undp'],দৌলতখান উপজেলা,বাংলাদেশ,বরিশাল বিভাগ,local_admin,boundaries,['farm'],[],Bangladesh,Barisal,Bhola,Daulatkhan,Saidpur,5fa690b3dbb0e697f575fa03122ab377
4707,6097834713,893cc6495c3ffff,22.5791742,90.7331711,Vegetable farm of Sofu Matbor,"Vegetable farm of Sofu Matbor, Doulatkhan Subdistrict, Bhola District, Barishal Division, Bangladesh","দৌলতখান উপজেলা, ভোলা জেলা, বরিশাল বিভাগ, বাংলাদেশ","Vegetable farm of Sofu Matbor, ",,['logic_undp'],দৌলতখান উপজেলা,বাংলাদেশ,বরিশাল বিভাগ,local_admin,boundaries,['farm'],[],Bangladesh,Barisal,Bhola,Daulatkhan,Saidpur,5fa690b3dbb0e697f575fa03122ab377
4713,6097834714,893cc6495c3ffff,22.5793204,90.7325274,Vegetable farm of Sofijl,"Vegetable farm of Sofijl, Doulatkhan Subdistrict, Bhola District, Barishal Division, Bangladesh","দৌলতখান উপজেলা, ভোলা জেলা, বরিশাল বিভাগ, বাংলাদেশ","Vegetable farm of Sofijl, ",,['logic_undp'],দৌলতখান উপজেলা,বাংলাদেশ,বরিশাল বিভাগ,local_admin,boundaries,['farm'],[],Bangladesh,Barisal,Bhola,Daulatkhan,Saidpur,5fa690b3dbb0e697f575fa03122ab377
4717,6097834715,893cc6495d3ffff,22.5794764,90.729998,Askor Patwary bazar,"Askor Patwary bazar, Doulatkhan Subdistrict, Bhola District, Barishal Division, Bangladesh","দৌলতখান উপজেলা, ভোলা জেলা, বরিশাল বিভাগ, বাংলাদেশ","Askor Patwary bazar, ",,['logic_undp'],দৌলতখান উপজেলা,বাংলাদেশ,বরিশাল বিভাগ,local_admin,boundaries,['marketplace'],[],Bangladesh,Barisal,Bhola,Daulatkhan,Saidpur,5fa690b3dbb0e697f575fa03122ab377
4723,6097834716,893cc6495d3ffff,22.5798627,90.7307544,Betel nut garden of Abdul Malek,"Betel nut garden of Abdul Malek, Doulatkhan Subdistrict, Bhola District, Barishal Division, Bangladesh","দৌলতখান উপজেলা, ভোলা জেলা, বরিশাল বিভাগ, বাংলাদেশ","Betel nut garden of Abdul Malek, ",,['logic_undp'],দৌলতখান উপজেলা,বাংলাদেশ,বরিশাল বিভাগ,local_admin,boundaries,['garden_centre'],[],Bangladesh,Barisal,Bhola,Daulatkhan,Saidpur,5fa690b3dbb0e697f575fa03122ab377
4728,6097834731,893cc6494b7ffff,22.5829349,90.7255174,Dalal bazar,"Dalal bazar, Doulatkhan Subdistrict, Bhola District, Barishal Division, Bangladesh","দৌলতখান উপজেলা, ভোলা জেলা, বরিশাল বিভাগ, বাংলাদেশ","Dalal bazar, ",,['logic_undp'],দৌলতখান উপজেলা,বাংলাদেশ,বরিশাল বিভাগ,local_admin,boundaries,['marketplace'],[],Bangladesh,Barisal,Bhola,Daulatkhan,CharKhalifa,671566de413f655a7136598c98845b4d
4734,6097834747,893cc6494afffff,22.5776115,90.7283458,Chicken farm of Nurul Huk,"Chicken farm of Nurul Huk, Doulatkhan Subdistrict, Bhola District, Barishal Division, Bangladesh","দৌলতখান উপজেলা, ভোলা জেলা, বরিশাল বিভাগ, বাংলাদেশ","Chicken farm of Nurul Huk, ",,['logic_undp'],দৌলতখান উপজেলা,বাংলাদেশ,বরিশাল বিভাগ,local_admin,boundaries,['farm'],[],Bangladesh,Barisal,Bhola,Daulatkhan,Saidpur,5fa690b3dbb0e697f575fa03122ab377
4740,6097834781,893cc649553ffff,22.5747336,90.7346517,1 n. Moor Community bazar,"1 n. Moor Community bazar, Doulatkhan Subdistrict, Bhola District, Barishal Division, Bangladesh","দৌলতখান উপজেলা, ভোলা জেলা, বরিশাল বিভাগ, বাংলাদেশ","1 n. Moor Community bazar, ",,['logic_undp'],দৌলতখান উপজেলা,বাংলাদেশ,বরিশাল বিভাগ,local_admin,boundaries,['marketplace'],[],Bangladesh,Barisal,Bhola,Daulatkhan,Saidpur,5fa690b3dbb0e697f575fa03122ab377
4746,6097834782,893cc6495cbffff,22.5746395,90.7325596,Vegetable farm of Shiraz Majhi,"Vegetable farm of Shiraz Majhi, Doulatkhan Subdistrict, Bhola District, Barishal Division, Bangladesh","দৌলতখান উপজেলা, ভোলা জেলা, বরিশাল বিভাগ, বাংলাদেশ","Vegetable farm of Shiraz Majhi, ",,['logic_undp'],দৌলতখান উপজেলা,বাংলাদেশ,বরিশাল বিভাগ,local_admin,boundaries,['farm'],[],Bangladesh,Barisal,Bhola,Daulatkhan,Saidpur,5fa690b3dbb0e697f575fa03122ab377
4753,6097834783,893cc649437ffff,22.574455,90.7307464,Bazar beside Shirajul Haque Master bridge,"Bazar beside Shirajul Haque Master bridge, Doulatkhan Subdistrict, Bhola District, Barishal Division, Bangladesh","দৌলতখান উপজেলা, ভোলা জেলা, বরিশাল বিভাগ, বাংলাদেশ","Bazar beside Shirajul Haque Master bridge, ",,['logic_undp'],দৌলতখান উপজেলা,বাংলাদেশ,বরিশাল বিভাগ,local_admin,boundaries,['marketplace'],[],Bangladesh,Barisal,Bhola,Daulatkhan,Saidpur,5fa690b3dbb0e697f575fa03122ab377
4758,6097834784,893cc649437ffff,22.5746258,90.7307518,Saru master bazar,"Saru master bazar, Doulatkhan Subdistrict, Bhola District, Barishal Division, Bangladesh","দৌলতখান উপজেলা, ভোলা জেলা, বরিশাল বিভাগ, বাংলাদেশ","Saru master bazar, ",,['logic_undp'],দৌলতখান উপজেলা,বাংলাদেশ,বরিশাল বিভাগ,local_admin,boundaries,['marketplace'],[],Bangladesh,Barisal,Bhola,Daulatkhan,Saidpur,5fa690b3dbb0e697f575fa03122ab377
4764,6097834985,893cc649437ffff,22.5745305,90.7305211,Saw Mill of Wabaidul Hak Mia,"Saw Mill of Wabaidul Hak Mia, Doulatkhan Subdistrict, Bhola District, Barishal Division, Bangladesh","দৌলতখান উপজেলা, ভোলা জেলা, বরিশাল বিভাগ, বাংলাদেশ","Saw Mill of Wabaidul Hak Mia, ",,['logic_undp'],দৌলতখান উপজেলা,বাংলাদেশ,বরিশাল বিভাগ,local_admin,boundaries,['sawmill'],[],Bangladesh,Barisal,Bhola,Daulatkhan,Saidpur,5fa690b3dbb0e697f575fa03122ab377
4769,6097834986,893cc649437ffff,22.5743621,90.7294616,Poultry farm of Niaz Sharif,"Poultry farm of Niaz Sharif, Doulatkhan Subdistrict, Bhola District, Barishal Division, Bangladesh","দৌলতখান উপজেলা, ভোলা জেলা, বরিশাল বিভাগ, বাংলাদেশ","Poultry farm of Niaz Sharif, ",,['logic_undp'],দৌলতখান উপজেলা,বাংলাদেশ,বরিশাল বিভাগ,local_admin,boundaries,['farm'],[],Bangladesh,Barisal,Bhola,Daulatkhan,Saidpur,5fa690b3dbb0e697f575fa03122ab377
4776,6097834987,893cc649433ffff,22.5745726,90.7258058,Shapur bazar,"Shapur bazar, Doulatkhan Subdistrict, Bhola District, Barishal Division, Bangladesh","দৌলতখান উপজেলা, ভোলা জেলা, বরিশাল বিভাগ, বাংলাদেশ","Shapur bazar, ",,['logic_undp'],দৌলতখান উপজেলা,বাংলাদেশ,বরিশাল বিভাগ,local_admin,boundaries,['marketplace'],[],Bangladesh,Barisal,Bhola,Daulatkhan,Saidpur,5fa690b3dbb0e697f575fa03122ab377
4783,6097834988,893cc6490afffff,22.5622282,90.7462496,Ice mill of Sajahan Mia,"Ice mill of Sajahan Mia, Borhanuddin Subdistrict, Bhola District, Barishal Division, Bangladesh","বোরহানউদ্দিন উপজেলা, ভোলা জেলা, বরিশাল বিভাগ, বাংলাদেশ","Ice mill of Sajahan Mia, ",,['logic_undp'],বোরহানউদ্দিন উপজেলা,বাংলাদেশ,বরিশাল বিভাগ,local_admin,boundaries,['sawmill'],[],Bangladesh,Barisal,Bhola,Daulatkhan,Saidpur,5fa690b3dbb0e697f575fa03122ab377
4790,6097834989,893cc6490afffff,22.5622108,90.7460833,West head Isahaque mor market,"West head Isahaque mor market, Borhanuddin Subdistrict, Bhola District, Barishal Division, Bangladesh","বোরহানউদ্দিন উপজেলা, ভোলা জেলা, বরিশাল বিভাগ, বাংলাদেশ","West head Isahaque mor market, ",,['logic_undp'],বোরহানউদ্দিন উপজেলা,বাংলাদেশ,বরিশাল বিভাগ,local_admin,boundaries,['marketplace'],[],Bangladesh,Barisal,Bhola,Daulatkhan,Saidpur,5fa690b3dbb0e697f575fa03122ab377
4794,6097834990,893cc6490afffff,22.5622975,90.7460484,Fish Store isahaque mor market,"Fish Store isahaque mor market, Borhanuddin Subdistrict, Bhola District, Barishal Division, Bangladesh","বোরহানউদ্দিন উপজেলা, ভোলা জেলা, বরিশাল বিভাগ, বাংলাদেশ","Fish Store isahaque mor market, ",,['logic_undp'],বোরহানউদ্দিন উপজেলা,বাংলাদেশ,বরিশাল বিভাগ,local_admin,boundaries,['seafood'],[],Bangladesh,Barisal,Bhola,Daulatkhan,Saidpur,5fa690b3dbb0e697f575fa03122ab377
4801,6097834991,893cc6490a7ffff,22.5640735,90.7465178,Market sorkari digir per.,"Market sorkari digir per., Borhanuddin Subdistrict, Bhola District, Barishal Division, Bangladesh","বোরহানউদ্দিন উপজেলা, ভোলা জেলা, বরিশাল বিভাগ, বাংলাদেশ","Market sorkari digir per., ",,['logic_undp'],বোরহানউদ্দিন উপজেলা,বাংলাদেশ,বরিশাল বিভাগ,local_admin,boundaries,['marketplace'],[],Bangladesh,Barisal,Bhola,Daulatkhan,Saidpur,5fa690b3dbb0e697f575fa03122ab377
4806,6097834992,893cc64954bffff,22.5670507,90.7378931,Rice and flour mill of Mustafiz Manager,"Rice and flour mill of Mustafiz Manager, Borhanuddin Subdistrict, Bhola District, Barishal Division, Bangladesh","বোরহানউদ্দিন উপজেলা, ভোলা জেলা, বরিশাল বিভাগ, বাংলাদেশ","Rice and flour mill of Mustafiz Manager, ",,['logic_undp'],বোরহানউদ্দিন উপজেলা,বাংলাদেশ,বরিশাল বিভাগ,local_admin,boundaries,['sawmill'],[],Bangladesh,Barisal,Bhola,Daulatkhan,Saidpur,5fa690b3dbb0e697f575fa03122ab377
4808,6097834993,893cc64954bffff,22.5668872,90.7378864,Akter Bazaar,"Akter Bazaar, Borhanuddin Subdistrict, Bhola District, Barishal Division, Bangladesh","বোরহানউদ্দিন উপজেলা, ভোলা জেলা, বরিশাল বিভাগ, বাংলাদেশ","Akter Bazaar, ",,['logic_undp'],বোরহানউদ্দিন উপজেলা,বাংলাদেশ,বরিশাল বিভাগ,local_admin,boundaries,['marketplace'],[],Bangladesh,Barisal,Bhola,Daulatkhan,Saidpur,5fa690b3dbb0e697f575fa03122ab377
4812,6097834994,893cc649087ffff,22.5649691,90.735584,Mijirhat,"Mijirhat, Borhanuddin Subdistrict, Bhola District, Barishal Division, Bangladesh","বোরহানউদ্দিন উপজেলা, ভোলা জেলা, বরিশাল বিভাগ, বাংলাদেশ","Mijirhat, ",,['logic_undp'],বোরহানউদ্দিন উপজেলা,বাংলাদেশ,বরিশাল বিভাগ,local_admin,boundaries,['marketplace'],[],Bangladesh,Barisal,Bhola,Daulatkhan,Saidpur,5fa690b3dbb0e697f575fa03122ab377
4815,6097834995,893cc649087ffff,22.5652326,90.7351747,Mejer hat,"Mejer hat, Borhanuddin Subdistrict, Bhola District, Barishal Division, Bangladesh","বোরহানউদ্দিন উপজেলা, ভোলা জেলা, বরিশাল বিভাগ, বাংলাদেশ","Mejer hat, ",,['logic_undp'],বোরহানউদ্দিন উপজেলা,বাংলাদেশ,বরিশাল বিভাগ,local_admin,boundaries,['marketplace'],[],Bangladesh,Barisal,Bhola,Daulatkhan,Saidpur,5fa690b3dbb0e697f575fa03122ab377
4818,6097835002,893cc649467ffff,22.5645812,90.7282251,Khokhn bazar,"Khokhn bazar, Borhanuddin Subdistrict, Bhola District, Barishal Division, Bangladesh","বোরহানউদ্দিন উপজেলা, ভোলা জেলা, বরিশাল বিভাগ, বাংলাদেশ","Khokhn bazar, ",,['logic_undp'],বোরহানউদ্দিন উপজেলা,বাংলাদেশ,বরিশাল বিভাগ,local_admin,boundaries,['marketplace'],[],Bangladesh,Barisal,Bhola,Daulatkhan,Saidpur,5fa690b3dbb0e697f575fa03122ab377
4834,6097835015,893cc649447ffff,22.5652104,90.7162303,Saw mil of Khokan Mia,"Saw mil of Khokan Mia, Doulatkhan Subdistrict, Bhola District, Barishal Division, Bangladesh","দৌলতখান উপজেলা, ভোলা জেলা, বরিশাল বিভাগ, বাংলাদেশ","Saw mil of Khokan Mia, ",,['logic_undp'],দৌলতখান উপজেলা,বাংলাদেশ,বরিশাল বিভাগ,local_admin,boundaries,['sawmill'],[],Bangladesh,Barisal,Bhola,Daulatkhan,Saidpur,5fa690b3dbb0e697f575fa03122ab377
4842,6097835016,893cc649447ffff,22.5647571,90.7163134,Saw mil of Nizam Member,"Saw mil of Nizam Member, Doulatkhan Subdistrict, Bhola District, Barishal Division, Bangladesh","দৌলতখান উপজেলা, ভোলা জেলা, বরিশাল বিভাগ, বাংলাদেশ","Saw mil of Nizam Member, ",,['logic_undp'],দৌলতখান উপজেলা,বাংলাদেশ,বরিশাল বিভাগ,local_admin,boundaries,['sawmill'],[],Bangladesh,Barisal,Bhola,Daulatkhan,Saidpur,5fa690b3dbb0e697f575fa03122ab377
4845,6097835017,893cc649447ffff,22.5642419,90.7157448,Saw mil of Mostafiz master,"Saw mil of Mostafiz master, Doulatkhan Subdistrict, Bhola District, Barishal Division, Bangladesh","দৌলতখান উপজেলা, ভোলা জেলা, বরিশাল বিভাগ, বাংলাদেশ","Saw mil of Mostafiz master, ",,['logic_undp'],দৌলতখান উপজেলা,বাংলাদেশ,বরিশাল বিভাগ,local_admin,boundaries,['sawmill'],[],Bangladesh,Barisal,Bhola,Daulatkhan,Saidpur,5fa690b3dbb0e697f575fa03122ab377
4851,6097835018,893cc649443ffff,22.5637267,90.7152835,Nurmiyar hat,"Nurmiyar hat, Doulatkhan Subdistrict, Bhola District, Barishal Division, Bangladesh","দৌলতখান উপজেলা, ভোলা জেলা, বরিশাল বিভাগ, বাংলাদেশ","Nurmiyar hat, ",,['logic_undp'],দৌলতখান উপজেলা,বাংলাদেশ,বরিশাল বিভাগ,local_admin,boundaries,['marketplace'],[],Bangladesh,Barisal,Bhola,Daulatkhan,DakshinJoynagar,c79ccaea62f4c1da7018ec3eb288b439
4857,6097835026,893cc649447ffff,22.5666568,90.7177752,Fish farm of Saha Alom,"Fish farm of Saha Alom, Borhanuddin Subdistrict, Bhola District, Barishal Division, Bangladesh","বোরহানউদ্দিন উপজেলা, ভোলা জেলা, বরিশাল বিভাগ, বাংলাদেশ","Fish farm of Saha Alom, ",,['logic_undp'],বোরহানউদ্দিন উপজেলা,বাংলাদেশ,বরিশাল বিভাগ,local_admin,boundaries,['farm'],[],Bangladesh,Barisal,Bhola,Daulatkhan,Saidpur,5fa690b3dbb0e697f575fa03122ab377
4863,6097835027,893cc6490a7ffff,22.5631508,90.7469818,Teember mill of Rafiq Mia,"Teember mill of Rafiq Mia, Borhanuddin Subdistrict, Bhola District, Barishal Division, Bangladesh","বোরহানউদ্দিন উপজেলা, ভোলা জেলা, বরিশাল বিভাগ, বাংলাদেশ","Teember mill of Rafiq Mia, ",,['logic_undp'],বোরহানউদ্দিন উপজেলা,বাংলাদেশ,বরিশাল বিভাগ,local_admin,boundaries,['sawmill'],[],Bangladesh,Barisal,Bhola,Daulatkhan,Saidpur,5fa690b3dbb0e697f575fa03122ab377
4868,6097835028,893cc6490a7ffff,22.563557,90.7472728,Ice mill of Sahin Mia,"Ice mill of Sahin Mia, Borhanuddin Subdistrict, Bhola District, Barishal Division, Bangladesh","বোরহানউদ্দিন উপজেলা, ভোলা জেলা, বরিশাল বিভাগ, বাংলাদেশ","Ice mill of Sahin Mia, ",,['logic_undp'],বোরহানউদ্দিন উপজেলা,বাংলাদেশ,বরিশাল বিভাগ,local_admin,boundaries,['sawmill'],[],Bangladesh,Barisal,Bhola,Daulatkhan,Saidpur,5fa690b3dbb0e697f575fa03122ab377
4873,6097835029,893cc64956bffff,22.5684426,90.7469147,Poultry farm of Nirob,"Poultry farm of Nirob, Doulatkhan Subdistrict, Bhola District, Barishal Division, Bangladesh","দৌলতখান উপজেলা, ভোলা জেলা, বরিশাল বিভাগ, বাংলাদেশ","Poultry farm of Nirob, ",,['logic_undp'],দৌলতখান উপজেলা,বাংলাদেশ,বরিশাল বিভাগ,local_admin,boundaries,['farm'],[],Bangladesh,Barisal,Bhola,Daulatkhan,Saidpur,5fa690b3dbb0e697f575fa03122ab377
4878,6097835031,893cc649567ffff,22.5704662,90.7498451,Fish Store old majirhat.,"Fish Store old majirhat., Doulatkhan Subdistrict, Bhola District, Barishal Division, Bangladesh","দৌলতখান উপজেলা, ভোলা জেলা, বরিশাল বিভাগ, বাংলাদেশ","Fish Store old majirhat., ",,['logic_undp'],দৌলতখান উপজেলা,বাংলাদেশ,বরিশাল বিভাগ,local_admin,boundaries,['seafood'],[],Bangladesh,Barisal,Bhola,Daulatkhan,Saidpur,5fa690b3dbb0e697f575fa03122ab377
4883,6097835032,893cc649567ffff,22.5704501,90.7499792,Old majirhat Saw mill,"Old majirhat Saw mill, Doulatkhan Subdistrict, Bhola District, Barishal Division, Bangladesh","দৌলতখান উপজেলা, ভোলা জেলা, বরিশাল বিভাগ, বাংলাদেশ","Old majirhat Saw mill, ",,['logic_undp'],দৌলতখান উপজেলা,বাংলাদেশ,বরিশাল বিভাগ,local_admin,boundaries,['sawmill'],[],Bangladesh,Barisal,Bhola,Daulatkhan,Saidpur,5fa690b3dbb0e697f575fa03122ab377
4888,6097835033,893cc649567ffff,22.5705244,90.749829,Old majirhat bazaar.,"Old majirhat bazaar., Doulatkhan Subdistrict, Bhola District, Barishal Division, Bangladesh","দৌলতখান উপজেলা, ভোলা জেলা, বরিশাল বিভাগ, বাংলাদেশ","Old majirhat bazaar., ",,['logic_undp'],দৌলতখান উপজেলা,বাংলাদেশ,বরিশাল বিভাগ,local_admin,boundaries,['marketplace'],[],Bangladesh,Barisal,Bhola,Daulatkhan,Saidpur,5fa690b3dbb0e697f575fa03122ab377
4909,6097835034,893cc649567ffff,22.5716113,90.7500851,Majirhat Salauddin shop,"Majirhat Salauddin shop, Doulatkhan Subdistrict, Bhola District, Barishal Division, Bangladesh","দৌলতখান উপজেলা, ভোলা জেলা, বরিশাল বিভাগ, বাংলাদেশ","Majirhat Salauddin shop, ",,['logic_undp'],দৌলতখান উপজেলা,বাংলাদেশ,বরিশাল বিভাগ,local_admin,boundaries,['marketplace'],[],Bangladesh,Barisal,Bhola,Daulatkhan,Saidpur,5fa690b3dbb0e697f575fa03122ab377
4915,6097835036,893cc64953bffff,22.5766679,90.7494628,Saydpur BNP Bazaar,"Saydpur BNP Bazaar, Doulatkhan Subdistrict, Bhola District, Barishal Division, Bangladesh","দৌলতখান উপজেলা, ভোলা জেলা, বরিশাল বিভাগ, বাংলাদেশ","Saydpur BNP Bazaar, ",,['logic_undp'],দৌলতখান উপজেলা,বাংলাদেশ,বরিশাল বিভাগ,local_admin,boundaries,['marketplace'],[],Bangladesh,Barisal,Bhola,Daulatkhan,Saidpur,5fa690b3dbb0e697f575fa03122ab377
4919,6097835037,893cc64953bffff,22.5768313,90.7494119,BNP bazaar . 5 n.ward,"BNP bazaar . 5 n.ward, Doulatkhan Subdistrict, Bhola District, Barishal Division, Bangladesh","দৌলতখান উপজেলা, ভোলা জেলা, বরিশাল বিভাগ, বাংলাদেশ","BNP bazaar . 5 n.ward, ",,"['logic_undp', 'Cyclone']",দৌলতখান উপজেলা,বাংলাদেশ,বরিশাল বিভাগ,local_admin,boundaries,['marketplace'],[],Bangladesh,Barisal,Bhola,Daulatkhan,Saidpur,5fa690b3dbb0e697f575fa03122ab377
4925,6097835038,893cc64953bffff,22.5770344,90.7493381,BNP bazaar . 6 n.ward,"BNP bazaar . 6 n.ward, Doulatkhan Subdistrict, Bhola District, Barishal Division, Bangladesh","দৌলতখান উপজেলা, ভোলা জেলা, বরিশাল বিভাগ, বাংলাদেশ","BNP bazaar . 6 n.ward, ",,"['logic_undp', 'Cyclone']",দৌলতখান উপজেলা,বাংলাদেশ,বরিশাল বিভাগ,local_admin,boundaries,['marketplace'],[],Bangladesh,Barisal,Bhola,Daulatkhan,Saidpur,5fa690b3dbb0e697f575fa03122ab377
4931,6097835039,893cc64953bffff,22.5775471,90.7495996,Saw mill of Mosarref Hossen,"Saw mill of Mosarref Hossen, Doulatkhan Subdistrict, Bhola District, Barishal Division, Bangladesh","দৌলতখান উপজেলা, ভোলা জেলা, বরিশাল বিভাগ, বাংলাদেশ","Saw mill of Mosarref Hossen, ",,"['logic_undp', 'Cyclone']",দৌলতখান উপজেলা,বাংলাদেশ,বরিশাল বিভাগ,local_admin,boundaries,['sawmill'],[],Bangladesh,Barisal,Bhola,Daulatkhan,Saidpur,5fa690b3dbb0e697f575fa03122ab377
4938,6097835040,893cc64953bffff,22.5775917,90.7496023,Ice mill of Mosarref Hossen,"Ice mill of Mosarref Hossen, Doulatkhan Subdistrict, Bhola District, Barishal Division, Bangladesh","দৌলতখান উপজেলা, ভোলা জেলা, বরিশাল বিভাগ, বাংলাদেশ","Ice mill of Mosarref Hossen, ",,"['logic_undp', 'Cyclone']",দৌলতখান উপজেলা,বাংলাদেশ,বরিশাল বিভাগ,local_admin,boundaries,['sawmill'],[],Bangladesh,Barisal,Bhola,Daulatkhan,Saidpur,5fa690b3dbb0e697f575fa03122ab377
4944,6097835041,893cc64953bffff,22.5784189,90.7488057,Ghosher hat 5 n. ward,"Ghosher hat 5 n. ward, Doulatkhan Subdistrict, Bhola District, Barishal Division, Bangladesh","দৌলতখান উপজেলা, ভোলা জেলা, বরিশাল বিভাগ, বাংলাদেশ","Ghosher hat 5 n. ward, ",,"['logic_undp', 'Cyclone']",দৌলতখান উপজেলা,বাংলাদেশ,বরিশাল বিভাগ,local_admin,boundaries,['marketplace'],[],Bangladesh,Barisal,Bhola,Daulatkhan,Saidpur,5fa690b3dbb0e697f575fa03122ab377
4949,6097835042,893cc649533ffff,22.5793575,90.7506041,Mach Ghat Mosque,"Mach Ghat Mosque, Doulatkhan Subdistrict, Bhola District, Barishal Division, Bangladesh","দৌলতখান উপজেলা, ভোলা জেলা, বরিশাল বিভাগ, বাংলাদেশ","Mach Ghat Mosque, ",,"['logic_undp', 'Cyclone']",দৌলতখান উপজেলা,বাংলাদেশ,বরিশাল বিভাগ,local_admin,boundaries,['place_of_worship_muslim'],[],Bangladesh,Barisal,Bhola,Daulatkhan,Saidpur,5fa690b3dbb0e697f575fa03122ab377
4955,6097835043,893cc649533ffff,22.5790888,90.7499054,Blacksmith shop of Ronojit Kamar,"Blacksmith shop of Ronojit Kamar, Doulatkhan Subdistrict, Bhola District, Barishal Division, Bangladesh","দৌলতখান উপজেলা, ভোলা জেলা, বরিশাল বিভাগ, বাংলাদেশ","Blacksmith shop of Ronojit Kamar, ",,"['logic_undp', 'Cyclone']",দৌলতখান উপজেলা,বাংলাদেশ,বরিশাল বিভাগ,local_admin,boundaries,['houseware'],[],Bangladesh,Barisal,Bhola,Daulatkhan,Saidpur,5fa690b3dbb0e697f575fa03122ab377
4960,6097835045,893cc649533ffff,22.5789068,90.7488164,Blacksmith shop of Nirmol Boiddo,"Blacksmith shop of Nirmol Boiddo, Doulatkhan Subdistrict, Bhola District, Barishal Division, Bangladesh","দৌলতখান উপজেলা, ভোলা জেলা, বরিশাল বিভাগ, বাংলাদেশ","Blacksmith shop of Nirmol Boiddo, ",,"['logic_undp', 'Cyclone']",দৌলতখান উপজেলা,বাংলাদেশ,বরিশাল বিভাগ,local_admin,boundaries,['houseware'],[],Bangladesh,Barisal,Bhola,Daulatkhan,Saidpur,5fa690b3dbb0e697f575fa03122ab377
4965,6097835046,893cc649507ffff,22.5787953,90.7486662,Ghosher hat 6 n. ward,"Ghosher hat 6 n. ward, Doulatkhan Subdistrict, Bhola District, Barishal Division, Bangladesh","দৌলতখান উপজেলা, ভোলা জেলা, বরিশাল বিভাগ, বাংলাদেশ","Ghosher hat 6 n. ward, ",,"['logic_undp', 'Cyclone']",দৌলতখান উপজেলা,বাংলাদেশ,বরিশাল বিভাগ,local_admin,boundaries,['marketplace'],[],Bangladesh,Barisal,Bhola,Daulatkhan,Saidpur,5fa690b3dbb0e697f575fa03122ab377
4971,6097835047,893cc649507ffff,22.578934,90.748634,Ghosher Hat bazaar jame mosque,"Ghosher Hat bazaar jame mosque, Doulatkhan Subdistrict, Bhola District, Barishal Division, Bangladesh","দৌলতখান উপজেলা, ভোলা জেলা, বরিশাল বিভাগ, বাংলাদেশ","Ghosher Hat bazaar jame mosque, ",,['logic_undp'],দৌলতখান উপজেলা,বাংলাদেশ,বরিশাল বিভাগ,local_admin,boundaries,['place_of_worship_muslim'],[],Bangladesh,Barisal,Bhola,Daulatkhan,Saidpur,5fa690b3dbb0e697f575fa03122ab377
4977,6097835048,893cc64950fffff,22.5775471,90.746609,Rice mill of Lito,"Rice mill of Lito, Doulatkhan Subdistrict, Bhola District, Barishal Division, Bangladesh","দৌলতখান উপজেলা, ভোলা জেলা, বরিশাল বিভাগ, বাংলাদেশ","Rice mill of Lito, ",,['logic_undp'],দৌলতখান উপজেলা,বাংলাদেশ,বরিশাল বিভাগ,local_admin,boundaries,['sawmill'],[],Bangladesh,Barisal,Bhola,Daulatkhan,Saidpur,5fa690b3dbb0e697f575fa03122ab377
4983,6097835060,893cc6495afffff,22.5832754,90.7495621,Lahari Jangal Bazar (a part of ward no 4),"Lahari Jangal Bazar a part of ward no 4, Doulatkhan Subdistrict, Bhola District, Barishal Division, Bangladesh","দৌলতখান উপজেলা, ভোলা জেলা, বরিশাল বিভাগ, বাংলাদেশ","Lahari Jangal Bazar a part of ward no 4, ",,['logic_undp'],দৌলতখান উপজেলা,বাংলাদেশ,বরিশাল বিভাগ,local_admin,boundaries,['marketplace'],[],Bangladesh,Barisal,Bhola,Daulatkhan,Saidpur,5fa690b3dbb0e697f575fa03122ab377
4993,6097835061,893cc6495b3ffff,22.5876849,90.7445155,Lahari Jangal Bazar (a part of ward no 4),"Lahari Jangal Bazar a part of ward no 4, Doulatkhan Subdistrict, Bhola District, Barishal Division, Bangladesh","দৌলতখান উপজেলা, ভোলা জেলা, বরিশাল বিভাগ, বাংলাদেশ","Lahari Jangal Bazar a part of ward no 4, ",,['logic_undp'],দৌলতখান উপজেলা,বাংলাদেশ,বরিশাল বিভাগ,local_admin,boundaries,['marketplace'],[],Bangladesh,Barisal,Bhola,Daulatkhan,Paurashava,9a47094f62e89d06a529226462ae23d1
5001,6097835072,893cc6495a3ffff,22.5858684,90.7477932,Vegetable farm of Malek,"Vegetable farm of Malek, Doulatkhan Subdistrict, Bhola District, Barishal Division, Bangladesh","দৌলতখান উপজেলা, ভোলা জেলা, বরিশাল বিভাগ, বাংলাদেশ","Vegetable farm of Malek, ",,"['logic_undp', 'Cyclone']",দৌলতখান উপজেলা,বাংলাদেশ,বরিশাল বিভাগ,local_admin,boundaries,['farm'],[],Bangladesh,Barisal,Bhola,Daulatkhan,Saidpur,5fa690b3dbb0e697f575fa03122ab377
5007,6097835073,893cc6495a7ffff,22.5857594,90.7510856,Vegetable farm of Amin Majhi,"Vegetable farm of Amin Majhi, Doulatkhan Subdistrict, Bhola District, Barishal Division, Bangladesh","দৌলতখান উপজেলা, ভোলা জেলা, বরিশাল বিভাগ, বাংলাদেশ","Vegetable farm of Amin Majhi, ",,"['logic_undp', 'Cyclone']",দৌলতখান উপজেলা,বাংলাদেশ,বরিশাল বিভাগ,local_admin,boundaries,['farm'],[],Bangladesh,Barisal,Bhola,Daulatkhan,Saidpur,5fa690b3dbb0e697f575fa03122ab377
5013,6097835074,893cc6495a7ffff,22.5858993,90.7518983,Vegetable farm of Alom Mia,"Vegetable farm of Alom Mia, Doulatkhan Subdistrict, Bhola District, Barishal Division, Bangladesh","দৌলতখান উপজেলা, ভোলা জেলা, বরিশাল বিভাগ, বাংলাদেশ","Vegetable farm of Alom Mia, ",,"['logic_undp', 'Cyclone']",দৌলতখান উপজেলা,বাংলাদেশ,বরিশাল বিভাগ,local_admin,boundaries,['farm'],[],Bangladesh,Barisal,Bhola,Daulatkhan,Saidpur,5fa690b3dbb0e697f575fa03122ab377
5019,6098350503,893cc64950fffff,22.5766852,90.7453161,South Saidpur Nurullah Government Primary school,"South Saidpur Nurullah Government Primary school, Doulatkhan Subdistrict, Bhola District, Barishal Division, Bangladesh","দৌলতখান উপজেলা, ভোলা জেলা, বরিশাল বিভাগ, বাংলাদেশ","South Saidpur Nurullah Government Primary school, ",,['logic_undp'],দৌলতখান উপজেলা,বাংলাদেশ,বরিশাল বিভাগ,local_admin,boundaries,['school'],[],Bangladesh,Barisal,Bhola,Daulatkhan,Saidpur,5fa690b3dbb0e697f575fa03122ab377
5,6098350504,893cc64950bffff,22.5761106,90.7422289,Maktab of Ahmedullah Maolana,"Maktab of Ahmedullah Maolana, Doulatkhan Subdistrict, Bhola District, Barishal Division, Bangladesh","দৌলতখান উপজেলা, ভোলা জেলা, বরিশাল বিভাগ, বাংলাদেশ","Maktab of Ahmedullah Maolana, ",,['logic_undp'],দৌলতখান উপজেলা,বাংলাদেশ,বরিশাল বিভাগ,local_admin,boundaries,['school'],[],Bangladesh,Barisal,Bhola,Daulatkhan,Saidpur,5fa690b3dbb0e697f575fa03122ab377
11,6098350505,893cc64950bffff,22.5757614,90.7409897,61 no Shukdeb Govt. Primary School.,"61 no Shukdeb Govt. Primary School., Doulatkhan Subdistrict, Bhola District, Barishal Division, Bangladesh","দৌলতখান উপজেলা, ভোলা জেলা, বরিশাল বিভাগ, বাংলাদেশ","61 no Shukdeb Govt. Primary School., ",,['logic_undp'],দৌলতখান উপজেলা,বাংলাদেশ,বরিশাল বিভাগ,local_admin,boundaries,['school'],[],Bangladesh,Barisal,Bhola,Daulatkhan,Saidpur,5fa690b3dbb0e697f575fa03122ab377
16,6098350508,893cc6495dbffff,22.5780746,90.729357,Moktob of Bokter house,"Moktob of Bokter house, Doulatkhan Subdistrict, Bhola District, Barishal Division, Bangladesh","দৌলতখান উপজেলা, ভোলা জেলা, বরিশাল বিভাগ, বাংলাদেশ","Moktob of Bokter house, ",,['logic_undp'],দৌলতখান উপজেলা,বাংলাদেশ,বরিশাল বিভাগ,local_admin,boundaries,['school'],[],Bangladesh,Barisal,Bhola,Daulatkhan,Saidpur,5fa690b3dbb0e697f575fa03122ab377
21,6098350511,893cc64954fffff,22.5682767,90.7420009,"Ebtedaee Darul Ulum Madrasa , Char Shuvi","Ebtedaee Darul Ulum Madrasa Char Shuvi, Doulatkhan Subdistrict, Bhola District, Barishal Division, Bangladesh","দৌলতখান উপজেলা, ভোলা জেলা, বরিশাল বিভাগ, বাংলাদেশ","Ebtedaee Darul Ulum Madrasa Char Shuvi, ",,['logic_undp'],দৌলতখান উপজেলা,বাংলাদেশ,বরিশাল বিভাগ,local_admin,boundaries,['school'],[],Bangladesh,Barisal,Bhola,Daulatkhan,Saidpur,5fa690b3dbb0e697f575fa03122ab377
27,6098350512,893cc64954bffff,22.5668773,90.7382968,Maktab beside Sahjahan Kerani house,"Maktab beside Sahjahan Kerani house, Borhanuddin Subdistrict, Bhola District, Barishal Division, Bangladesh","বোরহানউদ্দিন উপজেলা, ভোলা জেলা, বরিশাল বিভাগ, বাংলাদেশ","Maktab beside Sahjahan Kerani house, ",,['logic_undp'],বোরহানউদ্দিন উপজেলা,বাংলাদেশ,বরিশাল বিভাগ,local_admin,boundaries,['school'],[],Bangladesh,Barisal,Bhola,Daulatkhan,Saidpur,5fa690b3dbb0e697f575fa03122ab377
33,6098350513,893cc64954bffff,22.5669243,90.7371166,Moktob in front of Mahajon house,"Moktob in front of Mahajon house, Borhanuddin Subdistrict, Bhola District, Barishal Division, Bangladesh","বোরহানউদ্দিন উপজেলা, ভোলা জেলা, বরিশাল বিভাগ, বাংলাদেশ","Moktob in front of Mahajon house, ",,['logic_undp'],বোরহানউদ্দিন উপজেলা,বাংলাদেশ,বরিশাল বিভাগ,local_admin,boundaries,['school'],[],Bangladesh,Barisal,Bhola,Daulatkhan,Saidpur,5fa690b3dbb0e697f575fa03122ab377
39,6098350514,893cc6490a7ffff,22.5632004,90.7457077,Vacant school building,"Vacant school building, Borhanuddin Subdistrict, Bhola District, Barishal Division, Bangladesh","বোরহানউদ্দিন উপজেলা, ভোলা জেলা, বরিশাল বিভাগ, বাংলাদেশ","Vacant school building, ",,['logic_undp'],বোরহানউদ্দিন উপজেলা,বাংলাদেশ,বরিশাল বিভাগ,local_admin,boundaries,['school'],[],Bangladesh,Barisal,Bhola,Daulatkhan,Saidpur,5fa690b3dbb0e697f575fa03122ab377
44,6098350515,893cc6490a7ffff,22.563401,90.7454623,4 no Char Shuvi junior high school.,"4 no Char Shuvi junior high school., Borhanuddin Subdistrict, Bhola District, Barishal Division, Bangladesh","বোরহানউদ্দিন উপজেলা, ভোলা জেলা, বরিশাল বিভাগ, বাংলাদেশ","4 no Char Shuvi junior high school., ",,"['logic_undp', 'High tide']",বোরহানউদ্দিন উপজেলা,বাংলাদেশ,বরিশাল বিভাগ,local_admin,boundaries,['school'],[],Bangladesh,Barisal,Bhola,Daulatkhan,Saidpur,5fa690b3dbb0e697f575fa03122ab377
50,6098350516,893cc649087ffff,22.5640103,90.7373406,Moktob Meanudin house.,"Moktob Meanudin house., Borhanuddin Subdistrict, Bhola District, Barishal Division, Bangladesh","বোরহানউদ্দিন উপজেলা, ভোলা জেলা, বরিশাল বিভাগ, বাংলাদেশ","Moktob Meanudin house., ",,['logic_undp'],বোরহানউদ্দিন উপজেলা,বাংলাদেশ,বরিশাল বিভাগ,local_admin,boundaries,['school'],[],Bangladesh,Barisal,Bhola,Daulatkhan,Saidpur,5fa690b3dbb0e697f575fa03122ab377
55,6098350517,893cc64942fffff,22.5673231,90.7312641,39 no. Choto Doli govt.primary school and cyclon shelter,"39 no. Choto Doli govt.primary school and cyclon shelter, Borhanuddin Subdistrict, Bhola District, Barishal Division, Bangladesh","বোরহানউদ্দিন উপজেলা, ভোলা জেলা, বরিশাল বিভাগ, বাংলাদেশ","39 no. Choto Doli govt.primary school and cyclon shelter, ",,['logic_undp'],বোরহানউদ্দিন উপজেলা,বাংলাদেশ,বরিশাল বিভাগ,local_admin,boundaries,['school'],[],Bangladesh,Barisal,Bhola,Daulatkhan,Saidpur,5fa690b3dbb0e697f575fa03122ab377
60,6098350518,893cc6490a3ffff,22.5634295,90.7432052,Moktob patowary house.,"Moktob patowary house., Borhanuddin Subdistrict, Bhola District, Barishal Division, Bangladesh","বোরহানউদ্দিন উপজেলা, ভোলা জেলা, বরিশাল বিভাগ, বাংলাদেশ","Moktob patowary house., ",,['logic_undp'],বোরহানউদ্দিন উপজেলা,বাংলাদেশ,বরিশাল বিভাগ,local_admin,boundaries,['school'],[],Bangladesh,Barisal,Bhola,Daulatkhan,Saidpur,5fa690b3dbb0e697f575fa03122ab377
67,6098350519,893cc6490a3ffff,22.5617662,90.7419553,Talukder para nurani hafeji Madrasa,"Talukder para nurani hafeji Madrasa, Borhanuddin Subdistrict, Bhola District, Barishal Division, Bangladesh","বোরহানউদ্দিন উপজেলা, ভোলা জেলা, বরিশাল বিভাগ, বাংলাদেশ","Talukder para nurani hafeji Madrasa, ",,['logic_undp'],বোরহানউদ্দিন উপজেলা,বাংলাদেশ,বরিশাল বিভাগ,local_admin,boundaries,['school'],[],Bangladesh,Barisal,Bhola,Daulatkhan,Saidpur,5fa690b3dbb0e697f575fa03122ab377
74,6098350520,893cc64908fffff,22.5619396,90.735573,Borodholi Madrasa jame mosque,"Borodholi Madrasa jame mosque, Borhanuddin Subdistrict, Bhola District, Barishal Division, Bangladesh","বোরহানউদ্দিন উপজেলা, ভোলা জেলা, বরিশাল বিভাগ, বাংলাদেশ","Borodholi Madrasa jame mosque, ",,['logic_undp'],বোরহানউদ্দিন উপজেলা,বাংলাদেশ,বরিশাল বিভাগ,local_admin,boundaries,['place_of_worship_muslim'],[],Bangladesh,Barisal,Bhola,Daulatkhan,Saidpur,5fa690b3dbb0e697f575fa03122ab377
78,6098350521,893cc649437ffff,22.57525,90.7308805,Rohima khanom Hefzo khana,"Rohima khanom Hefzo khana, Doulatkhan Subdistrict, Bhola District, Barishal Division, Bangladesh","দৌলতখান উপজেলা, ভোলা জেলা, বরিশাল বিভাগ, বাংলাদেশ","Rohima khanom Hefzo khana, ",,"['logic_undp', 'Cyclon']",দৌলতখান উপজেলা,বাংলাদেশ,বরিশাল বিভাগ,local_admin,boundaries,['school'],[],Bangladesh,Barisal,Bhola,Daulatkhan,Saidpur,5fa690b3dbb0e697f575fa03122ab377
82,6098350522,893cc649437ffff,22.573359,90.7305291,Hazi S M govt. primary school and cyclon shelter,"Hazi S M govt. primary school and cyclon shelter, Doulatkhan Subdistrict, Bhola District, Barishal Division, Bangladesh","দৌলতখান উপজেলা, ভোলা জেলা, বরিশাল বিভাগ, বাংলাদেশ","Hazi S M govt. primary school and cyclon shelter, ",,['logic_undp'],দৌলতখান উপজেলা,বাংলাদেশ,বরিশাল বিভাগ,local_admin,boundaries,['school'],[],Bangladesh,Barisal,Bhola,Daulatkhan,Saidpur,5fa690b3dbb0e697f575fa03122ab377
87,6098350523,893cc649437ffff,22.5733194,90.7296091,Saidpur secondary school,"Saidpur secondary school, Doulatkhan Subdistrict, Bhola District, Barishal Division, Bangladesh","দৌলতখান উপজেলা, ভোলা জেলা, বরিশাল বিভাগ, বাংলাদেশ","Saidpur secondary school, ",,['logic_undp'],দৌলতখান উপজেলা,বাংলাদেশ,বরিশাল বিভাগ,local_admin,boundaries,['school'],[],Bangladesh,Barisal,Bhola,Daulatkhan,Saidpur,5fa690b3dbb0e697f575fa03122ab377
92,6098350524,893cc649433ffff,22.5733887,90.7268572,52 no. Hazipur Govt. primary school and cyclon shelter,"52 no. Hazipur Govt. primary school and cyclon shelter, Doulatkhan Subdistrict, Bhola District, Barishal Division, Bangladesh","দৌলতখান উপজেলা, ভোলা জেলা, বরিশাল বিভাগ, বাংলাদেশ","52 no. Hazipur Govt. primary school and cyclon shelter, ",,['logic_undp'],দৌলতখান উপজেলা,বাংলাদেশ,বরিশাল বিভাগ,local_admin,boundaries,['school'],[],Bangladesh,Barisal,Bhola,Daulatkhan,Saidpur,5fa690b3dbb0e697f575fa03122ab377
98,6098350525,893cc64942bffff,22.5675733,90.729416,Ibtadei Arabiya Madrasa,"Ibtadei Arabiya Madrasa, Borhanuddin Subdistrict, Bhola District, Barishal Division, Bangladesh","বোরহানউদ্দিন উপজেলা, ভোলা জেলা, বরিশাল বিভাগ, বাংলাদেশ","Ibtadei Arabiya Madrasa, ",,['logic_undp'],বোরহানউদ্দিন উপজেলা,বাংলাদেশ,বরিশাল বিভাগ,local_admin,boundaries,['school'],[],Bangladesh,Barisal,Bhola,Daulatkhan,Saidpur,5fa690b3dbb0e697f575fa03122ab377
104,6098350526,893cc649467ffff,22.5650246,90.7272756,Afiroddi Forize moktob,"Afiroddi Forize moktob, Borhanuddin Subdistrict, Bhola District, Barishal Division, Bangladesh","বোরহানউদ্দিন উপজেলা, ভোলা জেলা, বরিশাল বিভাগ, বাংলাদেশ","Afiroddi Forize moktob, ",,['logic_undp'],বোরহানউদ্দিন উপজেলা,বাংলাদেশ,বরিশাল বিভাগ,local_admin,boundaries,['school'],[],Bangladesh,Barisal,Bhola,Daulatkhan,Saidpur,5fa690b3dbb0e697f575fa03122ab377
109,6098350527,893cc649473ffff,22.5664055,90.7214365,36 no. Govt. primary school and cyclon shelter,"36 no. Govt. primary school and cyclon shelter, Borhanuddin Subdistrict, Bhola District, Barishal Division, Bangladesh","বোরহানউদ্দিন উপজেলা, ভোলা জেলা, বরিশাল বিভাগ, বাংলাদেশ","36 no. Govt. primary school and cyclon shelter, ",,['logic_undp'],বোরহানউদ্দিন উপজেলা,বাংলাদেশ,বরিশাল বিভাগ,local_admin,boundaries,['school'],[],Bangladesh,Barisal,Bhola,Daulatkhan,Saidpur,5fa690b3dbb0e697f575fa03122ab377
114,6098350528,893cc649473ffff,22.566533,90.7196903,Islamic foundation's Moktob,"Islamic foundation's Moktob, Borhanuddin Subdistrict, Bhola District, Barishal Division, Bangladesh","বোরহানউদ্দিন উপজেলা, ভোলা জেলা, বরিশাল বিভাগ, বাংলাদেশ","Islamic foundation's Moktob, ",,['logic_undp'],বোরহানউদ্দিন উপজেলা,বাংলাদেশ,বরিশাল বিভাগ,local_admin,boundaries,['school'],[],Bangladesh,Barisal,Bhola,Daulatkhan,Saidpur,5fa690b3dbb0e697f575fa03122ab377
119,6098350529,893cc649463ffff,22.5638605,90.7229573,Abdur Rosidiya Hafiziya Nurani Madrasa,"Abdur Rosidiya Hafiziya Nurani Madrasa, Borhanuddin Subdistrict, Bhola District, Barishal Division, Bangladesh","বোরহানউদ্দিন উপজেলা, ভোলা জেলা, বরিশাল বিভাগ, বাংলাদেশ","Abdur Rosidiya Hafiziya Nurani Madrasa, ",,['logic_undp'],বোরহানউদ্দিন উপজেলা,বাংলাদেশ,বরিশাল বিভাগ,local_admin,boundaries,['school'],[],Bangladesh,Barisal,Bhola,Daulatkhan,Saidpur,5fa690b3dbb0e697f575fa03122ab377
125,6098350530,893cc649463ffff,22.5641317,90.7220949,Abdur Rosidiya Hafiziya Nurani Madrasa,"Abdur Rosidiya Hafiziya Nurani Madrasa, Borhanuddin Subdistrict, Bhola District, Barishal Division, Bangladesh","বোরহানউদ্দিন উপজেলা, ভোলা জেলা, বরিশাল বিভাগ, বাংলাদেশ","Abdur Rosidiya Hafiziya Nurani Madrasa, ",,['logic_undp'],বোরহানউদ্দিন উপজেলা,বাংলাদেশ,বরিশাল বিভাগ,local_admin,boundaries,['school'],[],Bangladesh,Barisal,Bhola,Daulatkhan,Saidpur,5fa690b3dbb0e697f575fa03122ab377
131,6098350531,893cc649447ffff,22.5653367,90.7159379,Nurmiyar Hat children Academy,"Nurmiyar Hat children Academy, Doulatkhan Subdistrict, Bhola District, Barishal Division, Bangladesh","দৌলতখান উপজেলা, ভোলা জেলা, বরিশাল বিভাগ, বাংলাদেশ","Nurmiyar Hat children Academy, ",,['logic_undp'],দৌলতখান উপজেলা,বাংলাদেশ,বরিশাল বিভাগ,local_admin,boundaries,['school'],[],Bangladesh,Barisal,Bhola,Daulatkhan,Saidpur,5fa690b3dbb0e697f575fa03122ab377
135,6098350534,893cc649503ffff,22.5770511,90.7421051,45 n. Borodholi government primary school,"45 n. Borodholi government primary school, Doulatkhan Subdistrict, Bhola District, Barishal Division, Bangladesh","দৌলতখান উপজেলা, ভোলা জেলা, বরিশাল বিভাগ, বাংলাদেশ","45 n. Borodholi government primary school, ",,['logic_undp'],দৌলতখান উপজেলা,বাংলাদেশ,বরিশাল বিভাগ,local_admin,boundaries,['school'],[],Bangladesh,Barisal,Bhola,Daulatkhan,Saidpur,5fa690b3dbb0e697f575fa03122ab377
141,6098350535,893cc649503ffff,22.5771501,90.7422982,Abandoned building of 45 n. Borodholi government primary school,"Abandoned building of 45 n. Borodholi government primary school, Doulatkhan Subdistrict, Bhola District, Barishal Division, Bangladesh","দৌলতখান উপজেলা, ভোলা জেলা, বরিশাল বিভাগ, বাংলাদেশ","Abandoned building of 45 n. Borodholi government primary school, ",,['logic_undp'],দৌলতখান উপজেলা,বাংলাদেশ,বরিশাল বিভাগ,local_admin,boundaries,['school'],[],Bangladesh,Barisal,Bhola,Daulatkhan,Saidpur,5fa690b3dbb0e697f575fa03122ab377
146,6098350536,893cc6495cfffff,22.5756186,90.7375212,Maktab beside Sahjahan Kerani house,"Maktab beside Sahjahan Kerani house, Doulatkhan Subdistrict, Bhola District, Barishal Division, Bangladesh","দৌলতখান উপজেলা, ভোলা জেলা, বরিশাল বিভাগ, বাংলাদেশ","Maktab beside Sahjahan Kerani house, ",,['logic_undp'],দৌলতখান উপজেলা,বাংলাদেশ,বরিশাল বিভাগ,local_admin,boundaries,['school'],[],Bangladesh,Barisal,Bhola,Daulatkhan,Saidpur,5fa690b3dbb0e697f575fa03122ab377
151,6098350537,893cc6495bbffff,22.5851933,90.7449147,South Saidpur Nurullah Government Primary school,"South Saidpur Nurullah Government Primary school, Doulatkhan Subdistrict, Bhola District, Barishal Division, Bangladesh","দৌলতখান উপজেলা, ভোলা জেলা, বরিশাল বিভাগ, বাংলাদেশ","South Saidpur Nurullah Government Primary school, ",,['logic_undp'],দৌলতখান উপজেলা,বাংলাদেশ,বরিশাল বিভাগ,local_admin,boundaries,['school'],[],Bangladesh,Barisal,Bhola,Daulatkhan,Saidpur,5fa690b3dbb0e697f575fa03122ab377
157,6098350543,893cc649573ffff,22.5721998,90.7444315,4 no Char Shuvi junior high school.,"4 no Char Shuvi junior high school., Doulatkhan Subdistrict, Bhola District, Barishal Division, Bangladesh","দৌলতখান উপজেলা, ভোলা জেলা, বরিশাল বিভাগ, বাংলাদেশ","4 no Char Shuvi junior high school., ",,"['logic_undp', 'High tide']",দৌলতখান উপজেলা,বাংলাদেশ,বরিশাল বিভাগ,local_admin,boundaries,['school'],[],Bangladesh,Barisal,Bhola,Daulatkhan,Saidpur,5fa690b3dbb0e697f575fa03122ab377
162,6098350545,893cc64951bffff,22.577151399999998,90.7408212,"Ebtedaee Darul Ulum Madrasa , Char Shuvi","Ebtedaee Darul Ulum Madrasa Char Shuvi, Doulatkhan Subdistrict, Bhola District, Barishal Division, Bangladesh","দৌলতখান উপজেলা, ভোলা জেলা, বরিশাল বিভাগ, বাংলাদেশ","Ebtedaee Darul Ulum Madrasa Char Shuvi, ",,['logic_undp'],দৌলতখান উপজেলা,বাংলাদেশ,বরিশাল বিভাগ,local_admin,boundaries,['school'],[],Bangladesh,Barisal,Bhola,Daulatkhan,Saidpur,5fa690b3dbb0e697f575fa03122ab377
170,6098350547,893cc64b36bffff,22.5815136,90.7284886,Hazi S M govt. primary school and cyclon shelter,"Hazi S M govt. primary school and cyclon shelter, Doulatkhan Subdistrict, Bhola District, Barishal Division, Bangladesh","দৌলতখান উপজেলা, ভোলা জেলা, বরিশাল বিভাগ, বাংলাদেশ","Hazi S M govt. primary school and cyclon shelter, ",,['logic_undp'],দৌলতখান উপজেলা,বাংলাদেশ,বরিশাল বিভাগ,local_admin,boundaries,['school'],[],Bangladesh,Barisal,Bhola,Daulatkhan,Saidpur,5fa690b3dbb0e697f575fa03122ab377
179,6098350548,893cc6494afffff,22.5763232,90.727118,Ibtadei Arabiya Madrasa,"Ibtadei Arabiya Madrasa, Doulatkhan Subdistrict, Bhola District, Barishal Division, Bangladesh","দৌলতখান উপজেলা, ভোলা জেলা, বরিশাল বিভাগ, বাংলাদেশ","Ibtadei Arabiya Madrasa, ",,['logic_undp'],দৌলতখান উপজেলা,বাংলাদেশ,বরিশাল বিভাগ,local_admin,boundaries,['school'],[],Bangladesh,Barisal,Bhola,Daulatkhan,Saidpur,5fa690b3dbb0e697f575fa03122ab377
187,6098350549,893cc6495cfffff,22.5756227,90.7366353,Moktob in front of Mahajon house,"Moktob in front of Mahajon house, Doulatkhan Subdistrict, Bhola District, Barishal Division, Bangladesh","দৌলতখান উপজেলা, ভোলা জেলা, বরিশাল বিভাগ, বাংলাদেশ","Moktob in front of Mahajon house, ",,['logic_undp'],দৌলতখান উপজেলা,বাংলাদেশ,বরিশাল বিভাগ,local_admin,boundaries,['school'],[],Bangladesh,Barisal,Bhola,Daulatkhan,Saidpur,5fa690b3dbb0e697f575fa03122ab377
194,6098350550,893cc649437ffff,22.5755719,90.7308749,39 no. Choto Doli govt.primary school and cyclon shelter,"39 no. Choto Doli govt.primary school and cyclon shelter, Doulatkhan Subdistrict, Bhola District, Barishal Division, Bangladesh","দৌলতখান উপজেলা, ভোলা জেলা, বরিশাল বিভাগ, বাংলাদেশ","39 no. Choto Doli govt.primary school and cyclon shelter, ",,['logic_undp'],দৌলতখান উপজেলা,বাংলাদেশ,বরিশাল বিভাগ,local_admin,boundaries,['school'],[],Bangladesh,Barisal,Bhola,Daulatkhan,Saidpur,5fa690b3dbb0e697f575fa03122ab377
200,6098350551,893cc649433ffff,22.5740646,90.7260364,Afiroddi Forize moktob,"Afiroddi Forize moktob, Doulatkhan Subdistrict, Bhola District, Barishal Division, Bangladesh","দৌলতখান উপজেলা, ভোলা জেলা, বরিশাল বিভাগ, বাংলাদেশ","Afiroddi Forize moktob, ",,['logic_undp'],দৌলতখান উপজেলা,বাংলাদেশ,বরিশাল বিভাগ,local_admin,boundaries,['school'],[],Bangladesh,Barisal,Bhola,Daulatkhan,Saidpur,5fa690b3dbb0e697f575fa03122ab377
208,6098350552,893cc649413ffff,22.5744584,90.7157927,Nurmiyar Hat children Academy,"Nurmiyar Hat children Academy, Doulatkhan Subdistrict, Bhola District, Barishal Division, Bangladesh","দৌলতখান উপজেলা, ভোলা জেলা, বরিশাল বিভাগ, বাংলাদেশ","Nurmiyar Hat children Academy, ",,['logic_undp'],দৌলতখান উপজেলা,বাংলাদেশ,বরিশাল বিভাগ,local_admin,boundaries,['school'],[],Bangladesh,Barisal,Bhola,Daulatkhan,DakshinJoynagar,c79ccaea62f4c1da7018ec3eb288b439
217,6098350553,893cc6494b7ffff,22.5819234,90.7259969,52 no. Hazipur Govt. primary school and cyclon shelter,"52 no. Hazipur Govt. primary school and cyclon shelter, Doulatkhan Subdistrict, Bhola District, Barishal Division, Bangladesh","দৌলতখান উপজেলা, ভোলা জেলা, বরিশাল বিভাগ, বাংলাদেশ","52 no. Hazipur Govt. primary school and cyclon shelter, ",,['logic_undp'],দৌলতখান উপজেলা,বাংলাদেশ,বরিশাল বিভাগ,local_admin,boundaries,['school'],[],Bangladesh,Barisal,Bhola,Daulatkhan,CharKhalifa,671566de413f655a7136598c98845b4d
224,6098350557,893cc649507ffff,22.5786034,90.7483175,Char Boro lamchi government primary school,"Char Boro lamchi government primary school, Doulatkhan Subdistrict, Bhola District, Barishal Division, Bangladesh","দৌলতখান উপজেলা, ভোলা জেলা, বরিশাল বিভাগ, বাংলাদেশ","Char Boro lamchi government primary school, ",,['logic_undp'],দৌলতখান উপজেলা,বাংলাদেশ,বরিশাল বিভাগ,local_admin,boundaries,['school'],[],Bangladesh,Barisal,Bhola,Daulatkhan,Saidpur,5fa690b3dbb0e697f575fa03122ab377
228,6098350558,893cc649507ffff,22.5790851,90.7485992,Maktab of Ghosher Hat bazaar jame mosque,"Maktab of Ghosher Hat bazaar jame mosque, Doulatkhan Subdistrict, Bhola District, Barishal Division, Bangladesh","দৌলতখান উপজেলা, ভোলা জেলা, বরিশাল বিভাগ, বাংলাদেশ","Maktab of Ghosher Hat bazaar jame mosque, ",,['logic_undp'],দৌলতখান উপজেলা,বাংলাদেশ,বরিশাল বিভাগ,local_admin,boundaries,['school'],[],Bangladesh,Barisal,Bhola,Daulatkhan,Saidpur,5fa690b3dbb0e697f575fa03122ab377
234,6098350559,893cc6495abffff,22.583803,90.747014,38 n. Modonpur government primary school,"38 n. Modonpur government primary school, Doulatkhan Subdistrict, Bhola District, Barishal Division, Bangladesh","দৌলতখান উপজেলা, ভোলা জেলা, বরিশাল বিভাগ, বাংলাদেশ","38 n. Modonpur government primary school, ",,['logic_undp'],দৌলতখান উপজেলা,বাংলাদেশ,বরিশাল বিভাগ,local_admin,boundaries,['school'],[],Bangladesh,Barisal,Bhola,Daulatkhan,Saidpur,5fa690b3dbb0e697f575fa03122ab377
240,6098350560,893cc6495abffff,22.5826959,90.7465526,Maktab of Baitul Aman jame mosque,"Maktab of Baitul Aman jame mosque, Doulatkhan Subdistrict, Bhola District, Barishal Division, Bangladesh","দৌলতখান উপজেলা, ভোলা জেলা, বরিশাল বিভাগ, বাংলাদেশ","Maktab of Baitul Aman jame mosque, ",,['logic_undp'],দৌলতখান উপজেলা,বাংলাদেশ,বরিশাল বিভাগ,local_admin,boundaries,['school'],[],Bangladesh,Barisal,Bhola,Daulatkhan,Saidpur,5fa690b3dbb0e697f575fa03122ab377
246,6098350561,893cc649517ffff,22.5828123,90.7431892,48 n. Saidpur government primay school,"48 n. Saidpur government primay school, Doulatkhan Subdistrict, Bhola District, Barishal Division, Bangladesh","দৌলতখান উপজেলা, ভোলা জেলা, বরিশাল বিভাগ, বাংলাদেশ","48 n. Saidpur government primay school, ",,['logic_undp'],দৌলতখান উপজেলা,বাংলাদেশ,বরিশাল বিভাগ,local_admin,boundaries,['school'],[],Bangladesh,Barisal,Bhola,Daulatkhan,Saidpur,5fa690b3dbb0e697f575fa03122ab377
252,6098350562,893cc6495a3ffff,22.586438,90.7486689,Miftahul Ulum Islamia Madrasah,"Miftahul Ulum Islamia Madrasah, Doulatkhan Subdistrict, Bhola District, Barishal Division, Bangladesh","দৌলতখান উপজেলা, ভোলা জেলা, বরিশাল বিভাগ, বাংলাদেশ","Miftahul Ulum Islamia Madrasah, ",,['logic_undp'],দৌলতখান উপজেলা,বাংলাদেশ,বরিশাল বিভাগ,local_admin,boundaries,['school'],[],Bangladesh,Barisal,Bhola,Daulatkhan,Saidpur,5fa690b3dbb0e697f575fa03122ab377
258,6098350563,893cc6495b3ffff,22.5864355,90.7465634,43 n. North Bijoypur government primary school,"43 n. North Bijoypur government primary school, Doulatkhan Subdistrict, Bhola District, Barishal Division, Bangladesh","দৌলতখান উপজেলা, ভোলা জেলা, বরিশাল বিভাগ, বাংলাদেশ","43 n. North Bijoypur government primary school, ",,['logic_undp'],দৌলতখান উপজেলা,বাংলাদেশ,বরিশাল বিভাগ,local_admin,boundaries,['school'],[],Bangladesh,Barisal,Bhola,Daulatkhan,Paurashava,9a47094f62e89d06a529226462ae23d1
263,6098350564,893cc6495bbffff,22.5857718,90.7462107,Charshuvi Madrasa,"Charshuvi Madrasa, Doulatkhan Subdistrict, Bhola District, Barishal Division, Bangladesh","দৌলতখান উপজেলা, ভোলা জেলা, বরিশাল বিভাগ, বাংলাদেশ","Charshuvi Madrasa, ",,['logic_undp'],দৌলতখান উপজেলা,বাংলাদেশ,বরিশাল বিভাগ,local_admin,boundaries,['school'],[],Bangladesh,Barisal,Bhola,Daulatkhan,Saidpur,5fa690b3dbb0e697f575fa03122ab377
267,6098350565,893cc649587ffff,22.5865469,90.7418776,Maktab of Fazle Amin Mia house,"Maktab of Fazle Amin Mia house, Doulatkhan Subdistrict, Bhola District, Barishal Division, Bangladesh","দৌলতখান উপজেলা, ভোলা জেলা, বরিশাল বিভাগ, বাংলাদেশ","Maktab of Fazle Amin Mia house, ",,['logic_undp'],দৌলতখান উপজেলা,বাংলাদেশ,বরিশাল বিভাগ,local_admin,boundaries,['school'],[],Bangladesh,Barisal,Bhola,Daulatkhan,Saidpur,5fa690b3dbb0e697f575fa03122ab377
273,6098350566,893cc64b36fffff,22.5837955,90.7313043,Foyzul Ulum Nurani Madrasa,"Foyzul Ulum Nurani Madrasa, Doulatkhan Subdistrict, Bhola District, Barishal Division, Bangladesh","দৌলতখান উপজেলা, ভোলা জেলা, বরিশাল বিভাগ, বাংলাদেশ","Foyzul Ulum Nurani Madrasa, ",,['logic_undp'],দৌলতখান উপজেলা,বাংলাদেশ,বরিশাল বিভাগ,local_admin,boundaries,['school'],[],Bangladesh,Barisal,Bhola,Daulatkhan,Saidpur,5fa690b3dbb0e697f575fa03122ab377
279,6098350567,893cc64b363ffff,22.5853433,90.7297909,Aslam Forije Moktob,"Aslam Forije Moktob, Doulatkhan Subdistrict, Bhola District, Barishal Division, Bangladesh","দৌলতখান উপজেলা, ভোলা জেলা, বরিশাল বিভাগ, বাংলাদেশ","Aslam Forije Moktob, ",,"['logic_undp', 'Cyclon']",দৌলতখান উপজেলা,বাংলাদেশ,বরিশাল বিভাগ,local_admin,boundaries,['school'],[],Bangladesh,Barisal,Bhola,Daulatkhan,Saidpur,5fa690b3dbb0e697f575fa03122ab377
284,6098350568,893cc649583ffff,22.5865766,90.7398391,95 n. Shatbaria Government primary school,"95 n. Shatbaria Government primary school, Doulatkhan Subdistrict, Bhola District, Barishal Division, Bangladesh","দৌলতখান উপজেলা, ভোলা জেলা, বরিশাল বিভাগ, বাংলাদেশ","95 n. Shatbaria Government primary school, ",,['logic_undp'],দৌলতখান উপজেলা,বাংলাদেশ,বরিশাল বিভাগ,local_admin,boundaries,['school'],[],Bangladesh,Barisal,Bhola,Daulatkhan,Saidpur,5fa690b3dbb0e697f575fa03122ab377
290,6098350569,893cc649597ffff,22.5884216,90.7413518,Hosainia Eatim Khana & Mohila madrasa,"Hosainia Eatim Khana & Mohila madrasa, Doulatkhan Subdistrict, Bhola District, Barishal Division, Bangladesh","দৌলতখান উপজেলা, ভোলা জেলা, বরিশাল বিভাগ, বাংলাদেশ","Hosainia Eatim Khana & Mohila madrasa, ",,['logic_undp'],দৌলতখান উপজেলা,বাংলাদেশ,বরিশাল বিভাগ,local_admin,boundaries,['school'],[],Bangladesh,Barisal,Bhola,Daulatkhan,CharKhalifa,671566de413f655a7136598c98845b4d
295,6098366779,893cc649547ffff,22.5710778,90.7402399,Talukder para nurani hafeji Madrasa,"Talukder para nurani hafeji Madrasa, Doulatkhan Subdistrict, Bhola District, Barishal Division, Bangladesh","দৌলতখান উপজেলা, ভোলা জেলা, বরিশাল বিভাগ, বাংলাদেশ","Talukder para nurani hafeji Madrasa, ",,['logic_undp'],দৌলতখান উপজেলা,বাংলাদেশ,বরিশাল বিভাগ,local_admin,boundaries,['school'],[],Bangladesh,Barisal,Bhola,Daulatkhan,Saidpur,5fa690b3dbb0e697f575fa03122ab377
