,osm_id,h3level9,lat,lon,name,name_en,name_bn,need_translate_en2bn,need_translate_bn2en,alt_names,local_admin_name,admin0_name,admin2_name,addr_level,poi_addr_match,poi_class,poi_keywords,country,division,district,thana,union,region_hash
1383,5117084467,893cf116003ffff,24.0851324,90.1994033,Tripti Restaurant তৃপ্তি রেস্টুরেন্ট,"Tripti Restaurant, Gazipur District, Dhaka Division, Bangladesh","তৃপ্তি রেস্টুরেন্ট, গাজীপুর জেলা, ঢাকা বিভাগ, বাংলাদেশ",,,,,বাংলাদেশ,ঢাকা বিভাগ,admin2,boundaries,['restaurant'],[],Bangladesh,Dhaka,Gazipur,Kaliakair,Sutrapur,9a0dd1e290b1f726dacd29396664c994
1385,5117085142,893cf116003ffff,24.0848874,90.1999237,Talsultanpur Bazar,"Talsultanpur Bazar, Gazipur District, Dhaka Division, Bangladesh","গাজীপুর জেলা, ঢাকা বিভাগ, বাংলাদেশ","Talsultanpur Bazar, ",,,,বাংলাদেশ,ঢাকা বিভাগ,admin2,boundaries,['marketplace'],[],Bangladesh,Dhaka,Gazipur,Kaliakair,Sutrapur,9a0dd1e290b1f726dacd29396664c994
1387,5117085534,893cf116003ffff,24.0849134,90.1996594,Adi Pothseba Hotel,"Adi Pothseba Hotel, Gazipur District, Dhaka Division, Bangladesh","গাজীপুর জেলা, ঢাকা বিভাগ, বাংলাদেশ","Adi Pothseba Hotel, ",,,,বাংলাদেশ,ঢাকা বিভাগ,admin2,boundaries,['restaurant'],[],Bangladesh,Dhaka,Gazipur,Kaliakair,Sutrapur,9a0dd1e290b1f726dacd29396664c994
1389,5117098176,893cf11608fffff,24.0890455,90.1973473,51 No Tan Sutrapur Government Primary School ৫১নং টান সূত্রাপুর সরকারী প্রাথমিক বিদ্যালয়,"51 No Tan Sutrapur Government Primary School, Gazipur District, Dhaka Division, Bangladesh","৫১নং টান সূত্রাপুর সরকারী প্রাথমিক বিদ্যালয়, গাজীপুর জেলা, ঢাকা বিভাগ, বাংলাদেশ",,,,,বাংলাদেশ,ঢাকা বিভাগ,admin2,boundaries,['school'],[],Bangladesh,Dhaka,Gazipur,Kaliakair,Sutrapur,9a0dd1e290b1f726dacd29396664c994
1391,5117102016,893cf11646bffff,24.0891055,90.1859189,Board Ghor Bazar বোর্ড ঘোর বাজার,"Board Ghor Bazar, Gazipur District, Dhaka Division, Bangladesh","বোর্ড ঘোর বাজার, গাজীপুর জেলা, ঢাকা বিভাগ, বাংলাদেশ",,,,,বাংলাদেশ,ঢাকা বিভাগ,admin2,boundaries,['marketplace'],[],Bangladesh,Dhaka,Gazipur,Kaliakair,Sutrapur,9a0dd1e290b1f726dacd29396664c994
1395,5117108137,893cf11644fffff,24.0898691,90.176873,GAS GEN EQUIPMENTS LTD,"GAS GEN EQUIPMENTS LTD, Tangail District, Dhaka Division, Bangladesh","টাঙ্গাইল জেলা, ঢাকা বিভাগ, বাংলাদেশ","GAS GEN EQUIPMENTS LTD, ",,,,বাংলাদেশ,ঢাকা বিভাগ,admin2,boundaries,['marketplace'],[],Bangladesh,Dhaka,Gazipur,Kaliakair,Sutrapur,9a0dd1e290b1f726dacd29396664c994
4664,413308914,893cf116087ffff,24.09382195,90.19769439,Kaliakoir,"Kaliakoir, Gazipur District, Dhaka Division, Bangladesh","গাজীপুর জেলা, ঢাকা বিভাগ, বাংলাদেশ","Kaliakoir, ",,,,বাংলাদেশ,ঢাকা বিভাগ,admin2,boundaries,['substation'],[],Bangladesh,Dhaka,Gazipur,Kaliakair,Sutrapur,9a0dd1e290b1f726dacd29396664c994
4874,526144404,893cf11646bffff,24.08938199,90.18392943,Ajmot Ali CNG Filing Station,"Ajmot Ali CNG Filing Station, Gazipur District, Dhaka Division, Bangladesh","গাজীপুর জেলা, ঢাকা বিভাগ, বাংলাদেশ","Ajmot Ali CNG Filing Station, ",,,,বাংলাদেশ,ঢাকা বিভাগ,admin2,boundaries,['fuel'],[],Bangladesh,Dhaka,Gazipur,Kaliakair,Sutrapur,9a0dd1e290b1f726dacd29396664c994
4882,526144481,893cf11646bffff,24.08885054,90.1838349,Highway CNG & Filling Station,"Highway CNG & Filling Station, Gazipur District, Dhaka Division, Bangladesh","গাজীপুর জেলা, ঢাকা বিভাগ, বাংলাদেশ","Highway CNG & Filling Station, ",,,,বাংলাদেশ,ঢাকা বিভাগ,admin2,boundaries,['fuel'],[],Bangladesh,Dhaka,Gazipur,Kaliakair,Sutrapur,9a0dd1e290b1f726dacd29396664c994
4887,526144546,893cf11646bffff,24.08945419,90.18284941,Bhumi CNG & Filling Station ভূমি সিএনজি ও ফিলিং স্টেশনে,"Bhumi CNG & Filling Station, Tangail District, Dhaka Division, Bangladesh","ভূমি সিএনজি ও ফিলিং স্টেশনে, টাঙ্গাইল জেলা, ঢাকা বিভাগ, বাংলাদেশ",,,,,বাংলাদেশ,ঢাকা বিভাগ,admin2,boundaries,['fuel'],[],Bangladesh,Dhaka,Gazipur,Kaliakair,Sutrapur,9a0dd1e290b1f726dacd29396664c994
1366,2305985730,893cf1145c7ffff,24.055442,90.228536,,"Gazipur District, Dhaka Division, Bangladesh","গাজীপুর জেলা, ঢাকা বিভাগ, বাংলাদেশ",,,,,বাংলাদেশ,ঢাকা বিভাগ,admin2,boundaries,['kiosk'],[],Bangladesh,Dhaka,Gazipur,Kaliakair,Atabaha,63f324f52e8614e7edfedfa3eb692a14
1373,2305985838,893cf11451bffff,24.053348,90.23145,,"Gazipur District, Dhaka Division, Bangladesh","গাজীপুর জেলা, ঢাকা বিভাগ, বাংলাদেশ",,,,,বাংলাদেশ,ঢাকা বিভাগ,admin2,boundaries,['fuel'],[],Bangladesh,Dhaka,Gazipur,Kaliakair,Atabaha,63f324f52e8614e7edfedfa3eb692a14
1378,2305990121,893cf114573ffff,24.048185,90.237474,,"Gazipur District, Dhaka Division, Bangladesh","গাজীপুর জেলা, ঢাকা বিভাগ, বাংলাদেশ",,,,,বাংলাদেশ,ঢাকা বিভাগ,admin2,boundaries,['fast_food'],[],Bangladesh,Dhaka,Gazipur,Kaliakair,Atabaha,63f324f52e8614e7edfedfa3eb692a14
1385,2305992275,893cf114573ffff,24.048776,90.238756,,"Gazipur District, Dhaka Division, Bangladesh","গাজীপুর জেলা, ঢাকা বিভাগ, বাংলাদেশ",,,,,বাংলাদেশ,ঢাকা বিভাগ,admin2,boundaries,['fast_food'],[],Bangladesh,Dhaka,Gazipur,Kaliakair,Atabaha,63f324f52e8614e7edfedfa3eb692a14
1391,2305993684,893cf114573ffff,24.047609,90.238019,,"Gazipur District, Dhaka Division, Bangladesh","গাজীপুর জেলা, ঢাকা বিভাগ, বাংলাদেশ",,,,,বাংলাদেশ,ঢাকা বিভাগ,admin2,boundaries,['fuel'],[],Bangladesh,Dhaka,Gazipur,Kaliakair,Atabaha,63f324f52e8614e7edfedfa3eb692a14
1397,2305994934,893cf114563ffff,24.047114,90.241322,,"Gazipur District, Dhaka Division, Bangladesh","গাজীপুর জেলা, ঢাকা বিভাগ, বাংলাদেশ",,,,,বাংলাদেশ,ঢাকা বিভাগ,admin2,boundaries,['fuel'],[],Bangladesh,Dhaka,Gazipur,Kaliakair,Atabaha,63f324f52e8614e7edfedfa3eb692a14
1402,2305998740,893cf114113ffff,24.040745,90.249657,,"Gazipur District, Dhaka Division, Bangladesh","গাজীপুর জেলা, ঢাকা বিভাগ, বাংলাদেশ",,,,,বাংলাদেশ,ঢাকা বিভাগ,admin2,boundaries,['fuel'],[],Bangladesh,Dhaka,Gazipur,Kaliakair,Mouchak,bdc76e7f241bb84a7b8fbe159eda9049
1407,2305999878,893cf114113ffff,24.041115,90.251603,,"Gazipur District, Dhaka Division, Bangladesh","গাজীপুর জেলা, ঢাকা বিভাগ, বাংলাদেশ",,,,,বাংলাদেশ,ঢাকা বিভাগ,admin2,boundaries,['fuel'],[],Bangladesh,Dhaka,Gazipur,Kaliakair,Mouchak,bdc76e7f241bb84a7b8fbe159eda9049
1413,2306009957,893cf11412bffff,24.034214,90.261871,,"Gazipur District, Dhaka Division, Bangladesh","গাজীপুর জেলা, ঢাকা বিভাগ, বাংলাদেশ",,,,,বাংলাদেশ,ঢাকা বিভাগ,admin2,boundaries,['kiosk'],[],Bangladesh,Dhaka,Gazipur,Kaliakair,Mouchak,bdc76e7f241bb84a7b8fbe159eda9049
1417,2306014386,893cf114e9bffff,24.031297,90.26438,,"Gazipur District, Dhaka Division, Bangladesh","গাজীপুর জেলা, ঢাকা বিভাগ, বাংলাদেশ",,,,,বাংলাদেশ,ঢাকা বিভাগ,admin2,boundaries,['bump'],[],Bangladesh,Dhaka,Gazipur,Kaliakair,Mouchak,bdc76e7f241bb84a7b8fbe159eda9049
1424,2306022229,893cf114e17ffff,24.027631,90.273003,,"Gazipur District, Dhaka Division, Bangladesh","গাজীপুর জেলা, ঢাকা বিভাগ, বাংলাদেশ",,,,,বাংলাদেশ,ঢাকা বিভাগ,admin2,boundaries,['organic'],[],Bangladesh,Dhaka,Gazipur,Kaliakair,Mouchak,bdc76e7f241bb84a7b8fbe159eda9049
1430,2306022890,893cf114eabffff,24.026762,90.275969,,"Gazipur District, Dhaka Division, Bangladesh","গাজীপুর জেলা, ঢাকা বিভাগ, বাংলাদেশ",,,,,বাংলাদেশ,ঢাকা বিভাগ,admin2,boundaries,['organic'],[],Bangladesh,Dhaka,Gazipur,Kaliakair,Mouchak,bdc76e7f241bb84a7b8fbe159eda9049
1584,2571777314,893cf114c63ffff,24.0385133,90.2823554,মৌচাক,"Gazipur District, Dhaka Division, Bangladesh","মৌচাক, গাজীপুর জেলা, ঢাকা বিভাগ, বাংলাদেশ",,"মৌচাক, ",['Mouchak'],,বাংলাদেশ,ঢাকা বিভাগ,admin2,boundaries,['railway_station'],[],Bangladesh,Dhaka,Gazipur,Kaliakair,Mouchak,bdc76e7f241bb84a7b8fbe159eda9049
1596,2895322471,893cf115d5bffff,23.9935433,90.2556357,Zirani Bazar,"Zirani Bazar, Savar Subdistrict, Dhaka District, Dhaka Division, Bangladesh","সাভার উপজেলা, ঢাকা জেলা, ঢাকা বিভাগ, বাংলাদেশ",Zirani Bazar,,,সাভার উপজেলা,বাংলাদেশ,ঢাকা বিভাগ,street,boundaries,['bus_stop'],[],Bangladesh,Dhaka,Gazipur,GazipurSadar,Kashimpur,596d4fe0ab52adf10ed231d3e7b84ebc
1608,2896511110,893cf11639bffff,24.0768144,90.210648,Walton Plaza,"Walton Plaza, Gazipur District, Dhaka Division, Bangladesh","গাজীপুর জেলা, ঢাকা বিভাগ, বাংলাদেশ","Walton Plaza, ",,,,বাংলাদেশ,ঢাকা বিভাগ,admin2,boundaries,['electronics'],[],Bangladesh,Dhaka,Gazipur,Kaliakair,KaliakairPaurashava,48b9cf3d7bf6d79f62992d71038b2eb1
2215,4454904990,893cf114417ffff,24.0517563,90.2128607,,"Gazipur District, Dhaka Division, Bangladesh","গাজীপুর জেলা, ঢাকা বিভাগ, বাংলাদেশ",,,['হাউস অফ জুলহাস'],,বাংলাদেশ,ঢাকা বিভাগ,admin2,boundaries,['guest_house'],[],Bangladesh,Dhaka,Gazipur,Kaliakair,Sreefaltali,fe0f7c3e9b132d9b39c7fc03266d8e32
2246,4607197990,893cf116cb3ffff,24.1090037,90.2497931,,"Gazipur District, Dhaka Division, Bangladesh","গাজীপুর জেলা, ঢাকা বিভাগ, বাংলাদেশ",,,['Energypac Cables Ltd.'],,বাংলাদেশ,ঢাকা বিভাগ,admin2,boundaries,['castle'],[],Bangladesh,Dhaka,Gazipur,Kaliakair,Chapair,9096fc8d2ceda155688d5ed89d29c07c
2277,4688447890,893cf11484fffff,24.0223203,90.2932311,,"Gazipur District, Dhaka Division, Bangladesh","গাজীপুর জেলা, ঢাকা বিভাগ, বাংলাদেশ",,,['Bangladesh Scouts'],,বাংলাদেশ,ঢাকা বিভাগ,admin2,boundaries,['camp_site'],[],Bangladesh,Dhaka,Gazipur,Kaliakair,Mouchak,bdc76e7f241bb84a7b8fbe159eda9049
2335,4959413023,893cf1b9eabffff,24.1306694,90.2846449,,"Gazipur District, Dhaka Division, Bangladesh","গাজীপুর জেলা, ঢাকা বিভাগ, বাংলাদেশ",,,,,বাংলাদেশ,ঢাকা বিভাগ,admin2,boundaries,['attraction'],[],Bangladesh,Dhaka,Gazipur,Kaliakair,Boali,38df94bcb32e443a944bf153c0910ad1
2422,5116851011,893cf114573ffff,24.0479011,90.2383425,,"Gazipur District, Dhaka Division, Bangladesh","গাজীপুর জেলা, ঢাকা বিভাগ, বাংলাদেশ",,,,,বাংলাদেশ,ঢাকা বিভাগ,admin2,boundaries,['toilets'],[],Bangladesh,Dhaka,Gazipur,Kaliakair,Atabaha,63f324f52e8614e7edfedfa3eb692a14
2429,5116853305,893cf114563ffff,24.0476224,90.2387482,Chandra Bus Stop চন্দ্রা বাস স্টপ,"Chandra Bus Stop, Gazipur District, Dhaka Division, Bangladesh","চন্দ্রা বাস স্টপ, গাজীপুর জেলা, ঢাকা বিভাগ, বাংলাদেশ",,,,,বাংলাদেশ,ঢাকা বিভাগ,street,boundaries,['bus_stop'],[],Bangladesh,Dhaka,Gazipur,Kaliakair,Atabaha,63f324f52e8614e7edfedfa3eb692a14
2435,5116866867,893cf114573ffff,24.0483431,90.2383927,Polash Sweet & Restaurant পলাশ মিষ্টি & রেঁস্তোরা,"Polash Sweet & Restaurant &, Gazipur District, Dhaka Division, Bangladesh","পলাশ মিষ্টি রেঁস্তোরা, গাজীপুর জেলা, ঢাকা বিভাগ, বাংলাদেশ",,,,,বাংলাদেশ,ঢাকা বিভাগ,admin2,boundaries,['restaurant'],[],Bangladesh,Dhaka,Gazipur,Kaliakair,Atabaha,63f324f52e8614e7edfedfa3eb692a14
2441,5116868710,893cf114573ffff,24.0484459,90.2382241,Chandra Food Plaza,"Chandra Food Plaza, Gazipur District, Dhaka Division, Bangladesh","গাজীপুর জেলা, ঢাকা বিভাগ, বাংলাদেশ","Chandra Food Plaza, ",,,,বাংলাদেশ,ঢাকা বিভাগ,admin2,boundaries,['restaurant'],[],Bangladesh,Dhaka,Gazipur,Kaliakair,Atabaha,63f324f52e8614e7edfedfa3eb692a14
2448,5116875111,893cf114573ffff,24.0484999,90.2380954,,"Gazipur District, Dhaka Division, Bangladesh","গাজীপুর জেলা, ঢাকা বিভাগ, বাংলাদেশ",,,,,বাংলাদেশ,ঢাকা বিভাগ,admin2,boundaries,['atm'],[],Bangladesh,Dhaka,Gazipur,Kaliakair,Atabaha,63f324f52e8614e7edfedfa3eb692a14
2457,5116876492,893cf114573ffff,24.0486107,90.2379607,,"Gazipur District, Dhaka Division, Bangladesh","গাজীপুর জেলা, ঢাকা বিভাগ, বাংলাদেশ",,,,,বাংলাদেশ,ঢাকা বিভাগ,admin2,boundaries,['atm'],[],Bangladesh,Dhaka,Gazipur,Kaliakair,Atabaha,63f324f52e8614e7edfedfa3eb692a14
2463,5116931124,893cf11450bffff,24.0510885,90.2345238,Ma Hotel & Restaurant,"Ma Hotel & Restaurant, Gazipur District, Dhaka Division, Bangladesh","গাজীপুর জেলা, ঢাকা বিভাগ, বাংলাদেশ","Ma Hotel & Restaurant, ",,,,বাংলাদেশ,ঢাকা বিভাগ,admin2,boundaries,['restaurant'],[],Bangladesh,Dhaka,Gazipur,Kaliakair,Atabaha,63f324f52e8614e7edfedfa3eb692a14
2471,5116975262,893cf11450bffff,24.0520114,90.2336093,A Salam Complex এ সালাম কমপ্লেক্স,"A Salam Complex, Gazipur District, Dhaka Division, Bangladesh","এ সালাম কমপ্লেক্স, গাজীপুর জেলা, ঢাকা বিভাগ, বাংলাদেশ",,,,,বাংলাদেশ,ঢাকা বিভাগ,admin2,boundaries,['marketplace'],[],Bangladesh,Dhaka,Gazipur,Kaliakair,Atabaha,63f324f52e8614e7edfedfa3eb692a14
2478,5116997053,893cf1145d7ffff,24.0572339,90.2264229,Khara Jora Bus Stop খাড়া জোড়া বাস স্টপ,"Khara Jora Bus Stop, Gazipur District, Dhaka Division, Bangladesh","খাড়া জোড়া বাস স্টপ, গাজীপুর জেলা, ঢাকা বিভাগ, বাংলাদেশ",,,,,বাংলাদেশ,ঢাকা বিভাগ,street,boundaries,['bus_stop'],[],Bangladesh,Dhaka,Gazipur,Kaliakair,Atabaha,63f324f52e8614e7edfedfa3eb692a14
2484,5117009763,893cf11636fffff,24.0604755,90.223707,Kaliakair Fire Station,"Kaliakair Fire Station, Gazipur District, Dhaka Division, Bangladesh","গাজীপুর জেলা, ঢাকা বিভাগ, বাংলাদেশ","Kaliakair Fire Station, ",,,,বাংলাদেশ,ঢাকা বিভাগ,admin2,boundaries,['fire_station'],[],Bangladesh,Dhaka,Gazipur,Kaliakair,Sreefaltali,fe0f7c3e9b132d9b39c7fc03266d8e32
2493,5117012255,893cf116373ffff,24.0624642,90.2198384,Mizan group of company কোম্পানির মিজান গ্রুপ,"Mizan group of company, Gazipur District, Dhaka Division, Bangladesh","কোম্পানির মিজান গ্রুপ, গাজীপুর জেলা, ঢাকা বিভাগ, বাংলাদেশ",,,,,বাংলাদেশ,ঢাকা বিভাগ,admin2,boundaries,['company'],[],Bangladesh,Dhaka,Gazipur,Kaliakair,Sreefaltali,fe0f7c3e9b132d9b39c7fc03266d8e32
2500,5117025398,893cf11639bffff,24.0755544,90.2087604,Kaliakair Bypass Bus Stop,"Kaliakair Bypass Bus Stop, Gazipur District, Dhaka Division, Bangladesh","গাজীপুর জেলা, ঢাকা বিভাগ, বাংলাদেশ",Kaliakair Bypass Bus Stop,,,,বাংলাদেশ,ঢাকা বিভাগ,street,boundaries,['bus_stop'],[],Bangladesh,Dhaka,Gazipur,Kaliakair,KaliakairPaurashava,48b9cf3d7bf6d79f62992d71038b2eb1
2506,5117032753,893cf11639bffff,24.0758467,90.2090158,Tangail Sweet Mit -2,"Tangail Sweet Mit -2, Gazipur District, Dhaka Division, Bangladesh","গাজীপুর জেলা, ঢাকা বিভাগ, বাংলাদেশ","Tangail Sweet Mit -2, ",,,,বাংলাদেশ,ঢাকা বিভাগ,admin2,boundaries,['restaurant'],[],Bangladesh,Dhaka,Gazipur,Kaliakair,KaliakairPaurashava,48b9cf3d7bf6d79f62992d71038b2eb1
2512,5117041082,893cf11639bffff,24.0759122,90.2089124,Radhuni Hotel And Restaurant,"Radhuni Hotel And Restaurant, Gazipur District, Dhaka Division, Bangladesh","গাজীপুর জেলা, ঢাকা বিভাগ, বাংলাদেশ","Radhuni Hotel And Restaurant, ",,,,বাংলাদেশ,ঢাকা বিভাগ,admin2,boundaries,['restaurant'],[],Bangladesh,Dhaka,Gazipur,Kaliakair,KaliakairPaurashava,48b9cf3d7bf6d79f62992d71038b2eb1
2518,5117055125,893cf11639bffff,24.0766124,90.2091576,Fcl Kaliakair,"Fcl Kaliakair, Gazipur District, Dhaka Division, Bangladesh","গাজীপুর জেলা, ঢাকা বিভাগ, বাংলাদেশ","Fcl Kaliakair, ",,,,বাংলাদেশ,ঢাকা বিভাগ,admin2,boundaries,['marketplace'],[],Bangladesh,Dhaka,Gazipur,Kaliakair,KaliakairPaurashava,48b9cf3d7bf6d79f62992d71038b2eb1
2527,5117079268,893cf11600fffff,24.0825055,90.2026467,Al Muzahid Hotel And Restaurant আল মুজাহিদ হোটেল এবং রেস্টুরেন্ট,"Al Muzahid Hotel And Restaurant, Gazipur District, Dhaka Division, Bangladesh","আল মুজাহিদ হোটেল এবং রেস্টুরেন্ট, গাজীপুর জেলা, ঢাকা বিভাগ, বাংলাদেশ",,,,,বাংলাদেশ,ঢাকা বিভাগ,admin2,boundaries,['restaurant'],[],Bangladesh,Dhaka,Gazipur,Kaliakair,Sutrapur,9a0dd1e290b1f726dacd29396664c994
2532,5117083049,893cf11600fffff,24.08299,90.2027517,Asuka Cng Station আসুকা সিএনজি পাম্প,"Asuka Cng Station, Gazipur District, Dhaka Division, Bangladesh","আসুকা সিএনজি পাম্প, গাজীপুর জেলা, ঢাকা বিভাগ, বাংলাদেশ",,,,,বাংলাদেশ,ঢাকা বিভাগ,admin2,boundaries,['fuel'],[],Bangladesh,Dhaka,Gazipur,Kaliakair,Sutrapur,9a0dd1e290b1f726dacd29396664c994
2537,5117091793,893cf116003ffff,24.0852623,90.2002977,Shila Bristy CNG Station শিলা বৃষ্টি সিএনজি স্টেশন,"Shila Bristy CNG Station, Gazipur District, Dhaka Division, Bangladesh","শিলা বৃষ্টি সিএনজি স্টেশন, গাজীপুর জেলা, ঢাকা বিভাগ, বাংলাদেশ",,,,,বাংলাদেশ,ঢাকা বিভাগ,admin2,boundaries,['fuel'],[],Bangladesh,Dhaka,Gazipur,Kaliakair,Sutrapur,9a0dd1e290b1f726dacd29396664c994
3565,599949531,893cf116003ffff,24.08544845647867,90.19946877485378,ঢাকা - টাঙ্গাইল মহাসড়ক,"-, Dhaka - Tangail Highway, Gazipur District, Dhaka Division, Bangladesh","ঢাকা টাঙ্গাইল মহাসড়ক, ঢাকা - টাঙ্গাইল মহাসড়ক, গাজীপুর জেলা, ঢাকা বিভাগ, বাংলাদেশ",,"ঢাকা - টাঙ্গাইল মহাসড়ক, ","['ঢাকা - টাঙ্গাইল মহাসড়ক', 'Dhaka - Tangail Highway']",,বাংলাদেশ,ঢাকা বিভাগ,street,,,,Bangladesh,Dhaka,Gazipur,Kaliakair,Sutrapur,9a0dd1e290b1f726dacd29396664c994
3753,5237431920,893cf1b814fffff,24.1823706,90.2939358,K.N.B Bazar,"K.N.B Bazar, Gazipur District, Dhaka Division, Bangladesh","গাজীপুর জেলা, ঢাকা বিভাগ, বাংলাদেশ","K.N.B Bazar, ",,,,বাংলাদেশ,ঢাকা বিভাগ,admin2,boundaries,['variety_store'],[],Bangladesh,Dhaka,Gazipur,Kaliakair,Fulbaria,1f4bec27a650f553e71ffa74d9faa6e7
3760,5237432951,893cf1b930fffff,24.117241,90.2563901,Chairman Bari Bazar চেয়ারম্যান বারী বাজার,"Chairman Bari Bazar, Gazipur District, Dhaka Division, Bangladesh","চেয়ারম্যান বারী বাজার, গাজীপুর জেলা, ঢাকা বিভাগ, বাংলাদেশ",,,,,বাংলাদেশ,ঢাকা বিভাগ,admin2,boundaries,['supermarket'],[],Bangladesh,Dhaka,Gazipur,Kaliakair,Chapair,9096fc8d2ceda155688d5ed89d29c07c
3767,274830691,893cf11608bffff,24.0893098,90.19234455,ঢাকা - টাঙ্গাইল মহাসড়ক,"-, Dhaka - Tangail Highway, Gazipur District, Dhaka Division, Bangladesh","ঢাকা টাঙ্গাইল মহাসড়ক, ঢাকা - টাঙ্গাইল মহাসড়ক, গাজীপুর জেলা, ঢাকা বিভাগ, বাংলাদেশ",,"ঢাকা - টাঙ্গাইল মহাসড়ক, ","['ঢাকা - টাঙ্গাইল মহাসড়ক', 'Dhaka - Tangail Highway']",,বাংলাদেশ,ঢাকা বিভাগ,street,,,,Bangladesh,Dhaka,Gazipur,Kaliakair,Sutrapur,9a0dd1e290b1f726dacd29396664c994
3769,5237433672,893cf1b820bffff,24.1611559,90.2662597,Mazid Chala Bazar মজিদ চালা বাজার,"Mazid Chala Bazar, Gazipur District, Dhaka Division, Bangladesh","মজিদ চালা বাজার, গাজীপুর জেলা, ঢাকা বিভাগ, বাংলাদেশ",,,,,বাংলাদেশ,ঢাকা বিভাগ,admin2,boundaries,['marketplace'],[],Bangladesh,Dhaka,Gazipur,Kaliakair,Fulbaria,1f4bec27a650f553e71ffa74d9faa6e7
3775,5237433673,893cf1b820bffff,24.1616521,90.2663656,Alif digital shop,"Alif digital shop, Gazipur District, Dhaka Division, Bangladesh","গাজীপুর জেলা, ঢাকা বিভাগ, বাংলাদেশ","Alif digital shop, ",,,,বাংলাদেশ,ঢাকা বিভাগ,admin2,boundaries,['mall'],[],Bangladesh,Dhaka,Gazipur,Kaliakair,Fulbaria,1f4bec27a650f553e71ffa74d9faa6e7
3782,5237443860,893cf1b9303ffff,24.1190748,90.2529576,Bara Kanchanpur Jam-e Mashjid বারা কাঞ্চনপুর জামে মসজিদ,"Bara Kanchanpur Jam-e Mashjid, Gazipur District, Dhaka Division, Bangladesh","বারা কাঞ্চনপুর জামে মসজিদ, গাজীপুর জেলা, ঢাকা বিভাগ, বাংলাদেশ",,,,,বাংলাদেশ,ঢাকা বিভাগ,admin2,boundaries,['place_of_worship_muslim'],[],Bangladesh,Dhaka,Gazipur,Kaliakair,Chapair,9096fc8d2ceda155688d5ed89d29c07c
3788,5237446725,893cf116c9bffff,24.1055704,90.2393371,Medi Ashulia Bazar মেদি আশুলিয়া বাজার,"Medi Ashulia Bazar, Gazipur District, Dhaka Division, Bangladesh","মেদি আশুলিয়া বাজার, গাজীপুর জেলা, ঢাকা বিভাগ, বাংলাদেশ",,,,,বাংলাদেশ,ঢাকা বিভাগ,admin2,boundaries,['marketplace'],[],Bangladesh,Dhaka,Gazipur,Kaliakair,Chapair,9096fc8d2ceda155688d5ed89d29c07c
3796,5237456416,893cf116393ffff,24.0798078,90.2102122,Kaliakair Mukti Joddhya Market কালিয়াকৈর মুক্তিযোদ্ধা মার্কেট,"Kaliakair Mukti Joddhya Market, Gazipur District, Dhaka Division, Bangladesh","কালিয়াকৈর মুক্তিযোদ্ধা মার্কেট, গাজীপুর জেলা, ঢাকা বিভাগ, বাংলাদেশ",,,,,বাংলাদেশ,ঢাকা বিভাগ,admin2,boundaries,['marketplace'],[],Bangladesh,Dhaka,Gazipur,Kaliakair,KaliakairPaurashava,48b9cf3d7bf6d79f62992d71038b2eb1
3809,5237457200,893cf116393ffff,24.0793277,90.2104794,Sharmin Cloth Store,"Sharmin Cloth Store, Gazipur District, Dhaka Division, Bangladesh","গাজীপুর জেলা, ঢাকা বিভাগ, বাংলাদেশ","Sharmin Cloth Store, ",,,,বাংলাদেশ,ঢাকা বিভাগ,admin2,boundaries,['clothes'],[],Bangladesh,Dhaka,Gazipur,Kaliakair,KaliakairPaurashava,48b9cf3d7bf6d79f62992d71038b2eb1
3817,5237457763,893cf116393ffff,24.079101,90.2111366,Golam Nobi Pilot High School গোলাম নবী পাইলট উচ্চ বিদ্যালয়,"Golam Nobi Pilot High School, Gazipur District, Dhaka Division, Bangladesh","গোলাম নবী পাইলট উচ্চ বিদ্যালয়, গাজীপুর জেলা, ঢাকা বিভাগ, বাংলাদেশ",,,,,বাংলাদেশ,ঢাকা বিভাগ,admin2,boundaries,['school'],[],Bangladesh,Dhaka,Gazipur,Kaliakair,KaliakairPaurashava,48b9cf3d7bf6d79f62992d71038b2eb1
3825,5237516095,893cf116393ffff,24.07852,90.2105898,S B Fashion এস বি ফ্যাশন,"S B Fashion, Gazipur District, Dhaka Division, Bangladesh","এস বি ফ্যাশন, গাজীপুর জেলা, ঢাকা বিভাগ, বাংলাদেশ",,,,,বাংলাদেশ,ঢাকা বিভাগ,admin2,boundaries,['clothes'],[],Bangladesh,Dhaka,Gazipur,Kaliakair,KaliakairPaurashava,48b9cf3d7bf6d79f62992d71038b2eb1
3832,5237530747,893cf116393ffff,24.0783898,90.209867,Akhi Electronics আঁখি ইলেক্ট্রনিক্স,"Akhi Electronics, Gazipur District, Dhaka Division, Bangladesh","আঁখি ইলেক্ট্রনিক্স, গাজীপুর জেলা, ঢাকা বিভাগ, বাংলাদেশ",,,,,বাংলাদেশ,ঢাকা বিভাগ,admin2,boundaries,['electronics'],[],Bangladesh,Dhaka,Gazipur,Kaliakair,KaliakairPaurashava,48b9cf3d7bf6d79f62992d71038b2eb1
3837,5237534345,893cf116393ffff,24.0779731,90.2099484,Sondhani M Store,"Sondhani M Store, Gazipur District, Dhaka Division, Bangladesh","গাজীপুর জেলা, ঢাকা বিভাগ, বাংলাদেশ","Sondhani M Store, ",,,,বাংলাদেশ,ঢাকা বিভাগ,admin2,boundaries,['pharmacy'],[],Bangladesh,Dhaka,Gazipur,Kaliakair,KaliakairPaurashava,48b9cf3d7bf6d79f62992d71038b2eb1
3843,5237534352,893cf116393ffff,24.0777295,90.2098344,Kaliakair Bus Stand কালিয়াকৈর বাস স্ট্যান্ড,"Kaliakair Bus Stand, Gazipur District, Dhaka Division, Bangladesh","কালিয়াকৈর বাস স্ট্যান্ড, গাজীপুর জেলা, ঢাকা বিভাগ, বাংলাদেশ",,,,,বাংলাদেশ,ঢাকা বিভাগ,street,boundaries,['bus_stop'],[],Bangladesh,Dhaka,Gazipur,Kaliakair,KaliakairPaurashava,48b9cf3d7bf6d79f62992d71038b2eb1
3847,5237534851,893cf11639bffff,24.0771995,90.2094182,ঊর্মী কনফেকশনারী,"Gazipur District, Dhaka Division, Bangladesh","ঊর্মী কনফেকশনারী, গাজীপুর জেলা, ঢাকা বিভাগ, বাংলাদেশ",,"ঊর্মী কনফেকশনারী, ",,,বাংলাদেশ,ঢাকা বিভাগ,admin2,boundaries,['bakery'],[],Bangladesh,Dhaka,Gazipur,Kaliakair,KaliakairPaurashava,48b9cf3d7bf6d79f62992d71038b2eb1
3854,5237535058,893cf11639bffff,24.0766436,90.2093815,Pathikaloy Guest House,"Pathikaloy Guest House, Gazipur District, Dhaka Division, Bangladesh","গাজীপুর জেলা, ঢাকা বিভাগ, বাংলাদেশ","Pathikaloy Guest House, ",,,,বাংলাদেশ,ঢাকা বিভাগ,admin2,boundaries,['guest_house'],[],Bangladesh,Dhaka,Gazipur,Kaliakair,KaliakairPaurashava,48b9cf3d7bf6d79f62992d71038b2eb1
3863,5237537497,893cf11639bffff,24.0764162,90.2091462,Fcl Kaliakair,"Fcl Kaliakair, Gazipur District, Dhaka Division, Bangladesh","গাজীপুর জেলা, ঢাকা বিভাগ, বাংলাদেশ","Fcl Kaliakair, ",,,,বাংলাদেশ,ঢাকা বিভাগ,admin2,boundaries,['mobile_phone'],[],Bangladesh,Dhaka,Gazipur,Kaliakair,KaliakairPaurashava,48b9cf3d7bf6d79f62992d71038b2eb1
3868,5237537658,893cf11639bffff,24.0765215,90.2093447,S.R Telecom,"S.R Telecom, Gazipur District, Dhaka Division, Bangladesh","গাজীপুর জেলা, ঢাকা বিভাগ, বাংলাদেশ","S.R Telecom, ",,,,বাংলাদেশ,ঢাকা বিভাগ,admin2,boundaries,['mobile_phone'],[],Bangladesh,Dhaka,Gazipur,Kaliakair,KaliakairPaurashava,48b9cf3d7bf6d79f62992d71038b2eb1
4067,724774717,893cf116003ffff,24.08555986272089,90.19951122661026,ঢাকা - টাঙ্গাইল মহাসড়ক,"-, Dhaka - Tangail Highway, Gazipur District, Dhaka Division, Bangladesh","ঢাকা টাঙ্গাইল মহাসড়ক, ঢাকা - টাঙ্গাইল মহাসড়ক, গাজীপুর জেলা, ঢাকা বিভাগ, বাংলাদেশ",,"ঢাকা - টাঙ্গাইল মহাসড়ক, ","['ঢাকা - টাঙ্গাইল মহাসড়ক', 'Dhaka - Tangail Highway']",,বাংলাদেশ,ঢাকা বিভাগ,street,,,,Bangladesh,Dhaka,Gazipur,Kaliakair,Sutrapur,9a0dd1e290b1f726dacd29396664c994
4179,237011797,893cf1171a7ffff,24.048258915024583,90.19687985582267,কালিয়াকৈর - ধামরাই মহাসড়ক,"-, Kaliakair - Dhamrai Hwy, Gazipur District, Dhaka Division, Bangladesh","কালিয়াকৈর ধামরাই মহাসড়ক, কালিয়াকৈর - ধামরাই মহাসড়ক, গাজীপুর জেলা, ঢাকা বিভাগ, বাংলাদেশ",,"কালিয়াকৈর - ধামরাই মহাসড়ক, ","['কালিয়াকৈর - ধামরাই মহাসড়ক', 'Kaliakair - Dhamrai Hwy']",,বাংলাদেশ,ঢাকা বিভাগ,street,,,,Bangladesh,Dhaka,Gazipur,Kaliakair,Sreefaltali,fe0f7c3e9b132d9b39c7fc03266d8e32
4227,724774716,893cf11608bffff,24.08940835,90.19234365,ঢাকা - টাঙ্গাইল মহাসড়ক,"-, Dhaka - Tangail Highway, Gazipur District, Dhaka Division, Bangladesh","ঢাকা টাঙ্গাইল মহাসড়ক, ঢাকা - টাঙ্গাইল মহাসড়ক, গাজীপুর জেলা, ঢাকা বিভাগ, বাংলাদেশ",,"ঢাকা - টাঙ্গাইল মহাসড়ক, ","['ঢাকা - টাঙ্গাইল মহাসড়ক', 'Dhaka - Tangail Highway']",,বাংলাদেশ,ঢাকা বিভাগ,street,,,,Bangladesh,Dhaka,Gazipur,Kaliakair,Sutrapur,9a0dd1e290b1f726dacd29396664c994
4381,470610291,893cf11649bffff,24.10592168418451,90.1724593320246,Mirzapur Shakhipur road,"Mirzapur Shakhipur road, Tangail District, Dhaka Division, Bangladesh","টাঙ্গাইল জেলা, ঢাকা বিভাগ, বাংলাদেশ",Mirzapur Shakhipur road,,,,বাংলাদেশ,ঢাকা বিভাগ,street,,,,Bangladesh,Dhaka,Gazipur,Kaliakair,Sutrapur,9a0dd1e290b1f726dacd29396664c994
38,3977928774,893cf11708fffff,24.0381546,90.1595515,ঢালজোড়া,"Dhaljora, Gazipur District, Dhaka Division, Bangladesh","ঢালজোড়া, ঢালজোড়া, গাজীপুর জেলা, ঢাকা বিভাগ, বাংলাদেশ",,"ঢালজোড়া, ","['ঢালজোড়া', 'Dhaljora']",,বাংলাদেশ,ঢাকা বিভাগ,locality,,,,Bangladesh,Dhaka,Gazipur,Kaliakair,Dhaljora,7ad351b19805f86e6cd1615763d520d1
432,3977928812,893cf116637ffff,24.0799224,90.1865732,সূত্রাপুর,"Sutrapur, Gazipur District, Dhaka Division, Bangladesh","সূত্রাপুর, গাজীপুর জেলা, ঢাকা বিভাগ, বাংলাদেশ",,"সূত্রাপুর, ","['সূত্রাপুর', 'Sutrapur']",,বাংলাদেশ,ঢাকা বিভাগ,locality,,,,Bangladesh,Dhaka,Gazipur,Kaliakair,Sutrapur,9a0dd1e290b1f726dacd29396664c994
1452,5577088221,893cf114e07ffff,24.0256121,90.2744121,,,,,,['SAMAD SORONI TOWER'],,বাংলাদেশ,ঢাকা বিভাগ,housenumber,sameSource,['guest_house'],[],Bangladesh,Dhaka,Gazipur,Kaliakair,Mouchak,bdc76e7f241bb84a7b8fbe159eda9049
1483,5606867397,893cf106657ffff,23.966106,90.2981476,,"Gazipur District, Dhaka Division, Bangladesh","গাজীপুর জেলা, ঢাকা বিভাগ, বাংলাদেশ",,,,,বাংলাদেশ,ঢাকা বিভাগ,admin2,boundaries,['swimming_pool'],[],Bangladesh,Dhaka,Gazipur,GazipurSadar,Kashimpur,596d4fe0ab52adf10ed231d3e7b84ebc
1658,5767437867,893cf115b37ffff,23.9655974,90.2874684,Kashem Sajeda Pre Cadet High School,"Kashem Sajeda Pre Cadet High School, Savar Subdistrict, Dhaka District, Dhaka Division, Bangladesh","সাভার উপজেলা, ঢাকা জেলা, ঢাকা বিভাগ, বাংলাদেশ","Kashem Sajeda Pre Cadet High School, ",,,সাভার উপজেলা,বাংলাদেশ,ঢাকা বিভাগ,local_admin,boundaries,['school'],[],Bangladesh,Dhaka,Gazipur,GazipurSadar,Kashimpur,596d4fe0ab52adf10ed231d3e7b84ebc
1663,5767443514,893cf115b27ffff,23.964367,90.2912812,Squre Informatix LTD (HUB Station),"Squre Informatix LTD HUB Station, Savar Subdistrict, Dhaka District, Dhaka Division, Bangladesh","সাভার উপজেলা, ঢাকা জেলা, ঢাকা বিভাগ, বাংলাদেশ","Squre Informatix LTD HUB Station, ",,,সাভার উপজেলা,বাংলাদেশ,ঢাকা বিভাগ,local_admin,boundaries,['company'],[],Bangladesh,Dhaka,Gazipur,GazipurSadar,Kashimpur,596d4fe0ab52adf10ed231d3e7b84ebc
1942,6797150706,893cf114563ffff,24.0476042,90.2389996,Chandra Moor,"Chandra Moor, Gazipur District, Dhaka Division, Bangladesh","চন্দ্রা, গাজীপুর জেলা, ঢাকা বিভাগ, বাংলাদেশ","Chandra Moor, ",,['চন্দ্রা'],,বাংলাদেশ,ঢাকা বিভাগ,street,boundaries,['bus_stop'],[],Bangladesh,Dhaka,Gazipur,Kaliakair,Atabaha,63f324f52e8614e7edfedfa3eb692a14
1977,7057423370,893cf115c2fffff,23.993512,90.2545032,Zirani Bazar জিরানী বাজার,"Zirani Bazar, Savar Subdistrict, Dhaka District, Dhaka Division, Bangladesh","জিরানী বাজার, সাভার উপজেলা, ঢাকা জেলা, ঢাকা বিভাগ, বাংলাদেশ",,,,সাভার উপজেলা,বাংলাদেশ,ঢাকা বিভাগ,local_admin,boundaries,['marketplace'],[],Bangladesh,Dhaka,Gazipur,GazipurSadar,Kashimpur,596d4fe0ab52adf10ed231d3e7b84ebc
2120,7743879735,893cf116373ffff,24.0627394,90.2200643,বঙ্গবন্ধু হাইটেক পার্ক রেল ষ্টেশন,"Gazipur District, Dhaka Division, Bangladesh","বঙ্গবন্ধু হাইটেক পার্ক রেল ষ্টেশন, গাজীপুর জেলা, ঢাকা বিভাগ, বাংলাদেশ",,"বঙ্গবন্ধু হাইটেক পার্ক রেল ষ্টেশন, ",['Bangabandhu Hitech Park Railway Station'],,বাংলাদেশ,ঢাকা বিভাগ,admin2,boundaries,['railway_station'],[],Bangladesh,Dhaka,Gazipur,Kaliakair,Sreefaltali,fe0f7c3e9b132d9b39c7fc03266d8e32
4088,363815973,893cc4db023ffff,24.17276112929879,90.68522215863334,কাপাসিয়া - মনোহরদী সড়ক,"-, Kapasia - Monahardi Road, Monohardi, Narsingdi District, Dhaka Division, Bangladesh","কাপাসিয়া মনোহরদী সড়ক, নরসিংদী জেলা, ঢাকা বিভাগ, বাংলাদেশ",,"কাপাসিয়া - মনোহরদী সড়ক, ",['Kapasia - Monahardi Road'],Monohardi,বাংলাদেশ,ঢাকা বিভাগ,street,,,,Bangladesh,Dhaka,Gazipur,Kapasia,Barishaba,4f313be8ca822f7763500a7824cf549c
4184,9840948232,893cf115983ffff,23.99369,90.2782456,Bhabanipur Primary School,"Bhabanipur Primary School, Gazipur District, Dhaka Division, Bangladesh","গাজীপুর জেলা, ঢাকা বিভাগ, বাংলাদেশ","Bhabanipur Primary School, ",,,,বাংলাদেশ,ঢাকা বিভাগ,admin2,boundaries,['school'],[],Bangladesh,Dhaka,Gazipur,GazipurSadar,Kashimpur,596d4fe0ab52adf10ed231d3e7b84ebc
4186,9840971627,893cf11598bffff,23.9908862,90.2784834,ভবানীপুর কেন্দ্রীয় মসজিদ,"Gazipur District, Dhaka Division, Bangladesh","ভবানীপুর কেন্দ্রীয় মসজিদ, গাজীপুর জেলা, ঢাকা বিভাগ, বাংলাদেশ",,"ভবানীপুর কেন্দ্রীয় মসজিদ, ",,,বাংলাদেশ,ঢাকা বিভাগ,admin2,boundaries,['place_of_worship_muslim'],[],Bangladesh,Dhaka,Gazipur,GazipurSadar,Kashimpur,596d4fe0ab52adf10ed231d3e7b84ebc
4212,10026716300,893cf11450bffff,24.0503284,90.2349317,Cafe Gaibandha,"Cafe Gaibandha, Gazipur District, Dhaka Division, Bangladesh","গাজীপুর জেলা, ঢাকা বিভাগ, বাংলাদেশ","Cafe Gaibandha, ",,,,বাংলাদেশ,ঢাকা বিভাগ,admin2,boundaries,['restaurant'],[],Bangladesh,Dhaka,Gazipur,Kaliakair,Atabaha,63f324f52e8614e7edfedfa3eb692a14
4214,10026741829,893cf11450bffff,24.0501057,90.235161,Kiron Hotel,"Kiron Hotel, Gazipur District, Dhaka Division, Bangladesh","গাজীপুর জেলা, ঢাকা বিভাগ, বাংলাদেশ","Kiron Hotel, ",,,,বাংলাদেশ,ঢাকা বিভাগ,admin2,boundaries,['restaurant'],[],Bangladesh,Dhaka,Gazipur,Kaliakair,Atabaha,63f324f52e8614e7edfedfa3eb692a14
4232,32561586,893cf115893ffff,23.99016917,90.2519797,বাংলাদেশ ক্রীড়া শিক্ষা প্রতিষ্ঠান,"Savar Subdistrict, Dhaka District, Dhaka Division, Bangladesh","বাংলাদেশ ক্রীড়া শিক্ষা প্রতিষ্ঠান, সাভার উপজেলা, ঢাকা জেলা, ঢাকা বিভাগ, বাংলাদেশ",,"বাংলাদেশ ক্রীড়া শিক্ষা প্রতিষ্ঠান, ",['Bangladesh Krira Shikkha Protishtan'],সাভার উপজেলা,বাংলাদেশ,ঢাকা বিভাগ,local_admin,boundaries,['college'],[],Bangladesh,Dhaka,Gazipur,GazipurSadar,Kashimpur,596d4fe0ab52adf10ed231d3e7b84ebc
4236,148114236,893cf115ddbffff,24.00174646,90.25353316,Kabirpur,"Kabirpur, Savar Subdistrict, Dhaka District, Dhaka Division, Bangladesh","সাভার উপজেলা, ঢাকা জেলা, ঢাকা বিভাগ, বাংলাদেশ","Kabirpur, ",,,সাভার উপজেলা,বাংলাদেশ,ঢাকা বিভাগ,local_admin,boundaries,['substation'],[],Bangladesh,Dhaka,Gazipur,GazipurSadar,Kashimpur,596d4fe0ab52adf10ed231d3e7b84ebc
4513,526106555,893cf114577ffff,24.04821973,90.23928207,Hazi Mohammad Ali Super Market হাজী মোহাম্মদ আলী সুপার মার্কেট,"Hazi Mohammad Ali Super Market, Gazipur District, Dhaka Division, Bangladesh","হাজী মোহাম্মদ আলী সুপার মার্কেট, গাজীপুর জেলা, ঢাকা বিভাগ, বাংলাদেশ",,,,,বাংলাদেশ,ঢাকা বিভাগ,admin2,boundaries,['supermarket'],[],Bangladesh,Dhaka,Gazipur,Kaliakair,Atabaha,63f324f52e8614e7edfedfa3eb692a14
4514,526108740,893cf114573ffff,24.0485755,90.23798104,,"Gazipur District, Dhaka Division, Bangladesh","গাজীপুর জেলা, ঢাকা বিভাগ, বাংলাদেশ",,,,,বাংলাদেশ,ঢাকা বিভাগ,admin2,boundaries,['bank'],[],Bangladesh,Dhaka,Gazipur,Kaliakair,Atabaha,63f324f52e8614e7edfedfa3eb692a14
4517,526111071,893cf114573ffff,24.04838449,90.23659123,নাজিম উদ্দিন সুপার মার্কেট,"Gazipur District, Dhaka Division, Bangladesh","নাজিম উদ্দিন সুপার মার্কেট, গাজীপুর জেলা, ঢাকা বিভাগ, বাংলাদেশ",,"নাজিম উদ্দিন সুপার মার্কেট, ",,,বাংলাদেশ,ঢাকা বিভাগ,admin2,boundaries,['supermarket'],[],Bangladesh,Dhaka,Gazipur,Kaliakair,Atabaha,63f324f52e8614e7edfedfa3eb692a14
4518,526111442,893cf11450bffff,24.04962891,90.23564166,Safwan Steels Ltd,"Safwan Steels Ltd, Gazipur District, Dhaka Division, Bangladesh","গাজীপুর জেলা, ঢাকা বিভাগ, বাংলাদেশ","Safwan Steels Ltd, ",,,,বাংলাদেশ,ঢাকা বিভাগ,admin2,boundaries,['marketplace'],[],Bangladesh,Dhaka,Gazipur,Kaliakair,Atabaha,63f324f52e8614e7edfedfa3eb692a14
4520,526120153,893cf11450bffff,24.05150702,90.23462003,Simanto CNG,"Simanto CNG, Gazipur District, Dhaka Division, Bangladesh","গাজীপুর জেলা, ঢাকা বিভাগ, বাংলাদেশ","Simanto CNG, ",,,,বাংলাদেশ,ঢাকা বিভাগ,admin2,boundaries,['fuel'],[],Bangladesh,Dhaka,Gazipur,Kaliakair,Atabaha,63f324f52e8614e7edfedfa3eb692a14
4522,526124622,893cf11451bffff,24.05363482,90.23193147,Winner Energy Center,"Winner Energy Center, Gazipur District, Dhaka Division, Bangladesh","গাজীপুর জেলা, ঢাকা বিভাগ, বাংলাদেশ","Winner Energy Center, ",,,,বাংলাদেশ,ঢাকা বিভাগ,admin2,boundaries,['fuel'],[],Bangladesh,Dhaka,Gazipur,Kaliakair,Atabaha,63f324f52e8614e7edfedfa3eb692a14
4525,526126163,893cf1145d7ffff,24.05654855,90.22796536,শামসুল আলামিন গ্রুপের মসজিদ,"Gazipur District, Dhaka Division, Bangladesh","শামসুল আলামিন গ্রুপের মসজিদ, গাজীপুর জেলা, ঢাকা বিভাগ, বাংলাদেশ",,"শামসুল আলামিন গ্রুপের মসজিদ, ",,,বাংলাদেশ,ঢাকা বিভাগ,admin2,boundaries,['place_of_worship_muslim'],[],Bangladesh,Dhaka,Gazipur,Kaliakair,Atabaha,63f324f52e8614e7edfedfa3eb692a14
4526,526128873,893cf11636fffff,24.06081979,90.22426906,Turag CNG Filling Station,"Turag CNG Filling Station, Gazipur District, Dhaka Division, Bangladesh","গাজীপুর জেলা, ঢাকা বিভাগ, বাংলাদেশ","Turag CNG Filling Station, ",,,,বাংলাদেশ,ঢাকা বিভাগ,admin2,boundaries,['fuel'],[],Bangladesh,Dhaka,Gazipur,Kaliakair,Sreefaltali,fe0f7c3e9b132d9b39c7fc03266d8e32
4528,526129583,893cf11630bffff,24.06548304,90.21515222,Baitullah jam e Masjid,"Baitullah jam e Masjid, Gazipur District, Dhaka Division, Bangladesh","গাজীপুর জেলা, ঢাকা বিভাগ, বাংলাদেশ","Baitullah jam e Masjid, ",,,,বাংলাদেশ,ঢাকা বিভাগ,admin2,boundaries,['place_of_worship_muslim'],[],Bangladesh,Dhaka,Gazipur,Kaliakair,KaliakairPaurashava,48b9cf3d7bf6d79f62992d71038b2eb1
4529,526129583,893cf11630bffff,24.06548304,90.21515222,Baitullah jam e Masjid,"Baitullah jam e Masjid, Gazipur District, Dhaka Division, Bangladesh","গাজীপুর জেলা, ঢাকা বিভাগ, বাংলাদেশ","Baitullah jam e Masjid, ",,,,বাংলাদেশ,ঢাকা বিভাগ,admin2,boundaries,['place_of_worship_muslim'],[],Bangladesh,Dhaka,Gazipur,Kaliakair,Sreefaltali,fe0f7c3e9b132d9b39c7fc03266d8e32
4530,526129732,893cf11630bffff,24.06573718,90.21504135,Local mosque,"Local mosque, Gazipur District, Dhaka Division, Bangladesh","গাজীপুর জেলা, ঢাকা বিভাগ, বাংলাদেশ","Local mosque, ",,,,বাংলাদেশ,ঢাকা বিভাগ,admin2,boundaries,['place_of_worship_muslim'],[],Bangladesh,Dhaka,Gazipur,Kaliakair,KaliakairPaurashava,48b9cf3d7bf6d79f62992d71038b2eb1
4531,526129732,893cf11630bffff,24.06573718,90.21504135,Local mosque,"Local mosque, Gazipur District, Dhaka Division, Bangladesh","গাজীপুর জেলা, ঢাকা বিভাগ, বাংলাদেশ","Local mosque, ",,,,বাংলাদেশ,ঢাকা বিভাগ,admin2,boundaries,['place_of_worship_muslim'],[],Bangladesh,Dhaka,Gazipur,Kaliakair,Sreefaltali,fe0f7c3e9b132d9b39c7fc03266d8e32
4534,526130247,893cf1163c7ffff,24.06942333,90.2111898,Sreefaltoli bipass mosque,"Sreefaltoli bipass mosque, Gazipur District, Dhaka Division, Bangladesh","গাজীপুর জেলা, ঢাকা বিভাগ, বাংলাদেশ","Sreefaltoli bipass mosque, ",,,,বাংলাদেশ,ঢাকা বিভাগ,admin2,boundaries,['place_of_worship_muslim'],[],Bangladesh,Dhaka,Gazipur,Kaliakair,KaliakairPaurashava,48b9cf3d7bf6d79f62992d71038b2eb1
4536,526135719,893cf11639bffff,24.0756118,90.21030565,গ্রামীণ ব্যাংক,"Gazipur District, Dhaka Division, Bangladesh","গ্রামীণ ব্যাংক, গাজীপুর জেলা, ঢাকা বিভাগ, বাংলাদেশ",,"গ্রামীণ ব্যাংক, ",['Grameen Bank'],,বাংলাদেশ,ঢাকা বিভাগ,admin2,boundaries,['bank'],[],Bangladesh,Dhaka,Gazipur,Kaliakair,KaliakairPaurashava,48b9cf3d7bf6d79f62992d71038b2eb1
4538,526136142,893cf11639bffff,24.07638296,90.20894417,National Hospital ন্যাশনাল হাসপাতাল,"National Hospital, Gazipur District, Dhaka Division, Bangladesh","ন্যাশনাল হাসপাতাল, গাজীপুর জেলা, ঢাকা বিভাগ, বাংলাদেশ",,,,,বাংলাদেশ,ঢাকা বিভাগ,admin2,boundaries,['hospital'],[],Bangladesh,Dhaka,Gazipur,Kaliakair,KaliakairPaurashava,48b9cf3d7bf6d79f62992d71038b2eb1
4540,526137163,893cf11639bffff,24.07698204,90.20931428,Kaliakair General Hospital কালিয়াকৈর জেনারেল হাসপাতাল,"Kaliakair General Hospital, Gazipur District, Dhaka Division, Bangladesh","কালিয়াকৈর জেনারেল হাসপাতাল, গাজীপুর জেলা, ঢাকা বিভাগ, বাংলাদেশ",,,,,বাংলাদেশ,ঢাকা বিভাগ,admin2,boundaries,['hospital'],[],Bangladesh,Dhaka,Gazipur,Kaliakair,KaliakairPaurashava,48b9cf3d7bf6d79f62992d71038b2eb1
4542,526137838,893cf116393ffff,24.07755869,90.20949324,Kaliakair Bus Stand Jame Masjid কালিয়াকৈর বাসস্ট্যান্ড জামে মসজিদ,"Kaliakair Bus Stand Jame Masjid, Gazipur District, Dhaka Division, Bangladesh","কালিয়াকৈর বাসস্ট্যান্ড জামে মসজিদ, গাজীপুর জেলা, ঢাকা বিভাগ, বাংলাদেশ",,,,,বাংলাদেশ,ঢাকা বিভাগ,admin2,boundaries,['place_of_worship_muslim'],[],Bangladesh,Dhaka,Gazipur,Kaliakair,KaliakairPaurashava,48b9cf3d7bf6d79f62992d71038b2eb1
4544,526139405,893cf11639bffff,24.0765991,90.2099253,"বাংলাদেশ কৃষি ব্যাংক, কালিয়াকৈর শাখা, গাজীপুর","Gazipur District, Dhaka Division, Bangladesh","বাংলাদেশ কৃষি ব্যাংক কালিয়াকৈর শাখা গাজীপুর, গাজীপুর জেলা, ঢাকা বিভাগ, বাংলাদেশ",,"বাংলাদেশ কৃষি ব্যাংক কালিয়াকৈর শাখা গাজীপুর, ","['Bangladesh Krishi Bank, Kaliakoir Branch, Gazipur']",,বাংলাদেশ,ঢাকা বিভাগ,admin2,boundaries,['bank'],[],Bangladesh,Dhaka,Gazipur,Kaliakair,KaliakairPaurashava,48b9cf3d7bf6d79f62992d71038b2eb1
4545,526140358,893cf116077ffff,24.08106073,90.20389728,Uttor Hizoltoly Jame Mosque,"Uttor Hizoltoly Jame Mosque, Gazipur District, Dhaka Division, Bangladesh","গাজীপুর জেলা, ঢাকা বিভাগ, বাংলাদেশ","Uttor Hizoltoly Jame Mosque, ",,,,বাংলাদেশ,ঢাকা বিভাগ,admin2,boundaries,['place_of_worship_muslim'],[],Bangladesh,Dhaka,Gazipur,Kaliakair,Sutrapur,9a0dd1e290b1f726dacd29396664c994
4731,541646940,893cf1b820bffff,24.16066273,90.26716897,Aamtali Jame Masjid,"Aamtali Jame Masjid, Gazipur District, Dhaka Division, Bangladesh","গাজীপুর জেলা, ঢাকা বিভাগ, বাংলাদেশ","Aamtali Jame Masjid, ",,,,বাংলাদেশ,ঢাকা বিভাগ,admin2,boundaries,['place_of_worship_muslim'],[],Bangladesh,Dhaka,Gazipur,Kaliakair,Fulbaria,1f4bec27a650f553e71ffa74d9faa6e7
4733,541647811,893cf1b9307ffff,24.12077799,90.25775916,"Baitul-Nur-Jame Mosque, Mridha Bari বায়তুল-নূর-জামে মসজিদ, মৃধা বারী","Baitul-Nur-Jame Mosque Mridha Bari, Gazipur District, Dhaka Division, Bangladesh","বায়তুল-নূর-জামে মসজিদ মৃধা বারী, গাজীপুর জেলা, ঢাকা বিভাগ, বাংলাদেশ",,,,,বাংলাদেশ,ঢাকা বিভাগ,admin2,boundaries,['place_of_worship_muslim'],[],Bangladesh,Dhaka,Gazipur,Kaliakair,Chapair,9096fc8d2ceda155688d5ed89d29c07c
4736,541648742,893cf11618fffff,24.09563251,90.22318082,Gabtuly Poshchim Para Jame Moshjid,"Gabtuly Poshchim Para Jame Moshjid, Gazipur District, Dhaka Division, Bangladesh","গাজীপুর জেলা, ঢাকা বিভাগ, বাংলাদেশ","Gabtuly Poshchim Para Jame Moshjid, ",,,,বাংলাদেশ,ঢাকা বিভাগ,admin2,boundaries,['place_of_worship_muslim'],[],Bangladesh,Dhaka,Gazipur,Kaliakair,Chapair,9096fc8d2ceda155688d5ed89d29c07c
4738,541648942,893cf11602fffff,24.08196298,90.21071404,Kaliakair Post Office কালিয়াকৈর উপজেলা ডাকঘর অফিস,"Kaliakair Post Office, Gazipur District, Dhaka Division, Bangladesh","কালিয়াকৈর উপজেলা ডাকঘর অফিস, গাজীপুর জেলা, ঢাকা বিভাগ, বাংলাদেশ",,,,,বাংলাদেশ,ঢাকা বিভাগ,admin2,boundaries,['post_office'],[],Bangladesh,Dhaka,Gazipur,Kaliakair,KaliakairPaurashava,48b9cf3d7bf6d79f62992d71038b2eb1
4739,541648942,893cf11602fffff,24.08196298,90.21071404,Kaliakair Post Office কালিয়াকৈর উপজেলা ডাকঘর অফিস,"Kaliakair Post Office, Gazipur District, Dhaka Division, Bangladesh","কালিয়াকৈর উপজেলা ডাকঘর অফিস, গাজীপুর জেলা, ঢাকা বিভাগ, বাংলাদেশ",,,,,বাংলাদেশ,ঢাকা বিভাগ,admin2,boundaries,['post_office'],[],Bangladesh,Dhaka,Gazipur,Kaliakair,Sutrapur,9a0dd1e290b1f726dacd29396664c994
4740,541648986,893cf11602fffff,24.0822974,90.21089511,Sikder Jewellers সিকদার জুয়েলার্স‍,"Sikder Jewellers, Gazipur District, Dhaka Division, Bangladesh","সিকদার জুয়েলার্স‍, গাজীপুর জেলা, ঢাকা বিভাগ, বাংলাদেশ",,,,,বাংলাদেশ,ঢাকা বিভাগ,admin2,boundaries,['jewelry'],[],Bangladesh,Dhaka,Gazipur,Kaliakair,KaliakairPaurashava,48b9cf3d7bf6d79f62992d71038b2eb1
4741,541648986,893cf11602fffff,24.0822974,90.21089511,Sikder Jewellers সিকদার জুয়েলার্স‍,"Sikder Jewellers, Gazipur District, Dhaka Division, Bangladesh","সিকদার জুয়েলার্স‍, গাজীপুর জেলা, ঢাকা বিভাগ, বাংলাদেশ",,,,,বাংলাদেশ,ঢাকা বিভাগ,admin2,boundaries,['jewelry'],[],Bangladesh,Dhaka,Gazipur,Kaliakair,Sutrapur,9a0dd1e290b1f726dacd29396664c994
4743,541648998,893cf11602fffff,24.08217429,90.2108226,Chobita Jewellery,"Chobita Jewellery, Gazipur District, Dhaka Division, Bangladesh","গাজীপুর জেলা, ঢাকা বিভাগ, বাংলাদেশ","Chobita Jewellery, ",,,,বাংলাদেশ,ঢাকা বিভাগ,admin2,boundaries,['jewelry'],[],Bangladesh,Dhaka,Gazipur,Kaliakair,KaliakairPaurashava,48b9cf3d7bf6d79f62992d71038b2eb1
4744,541648998,893cf11602fffff,24.08217429,90.2108226,Chobita Jewellery,"Chobita Jewellery, Gazipur District, Dhaka Division, Bangladesh","গাজীপুর জেলা, ঢাকা বিভাগ, বাংলাদেশ","Chobita Jewellery, ",,,,বাংলাদেশ,ঢাকা বিভাগ,admin2,boundaries,['jewelry'],[],Bangladesh,Dhaka,Gazipur,Kaliakair,Sutrapur,9a0dd1e290b1f726dacd29396664c994
4747,541649124,893cf11602fffff,24.08222197,90.21100612,সিকদার জুয়েলার্স,"Gazipur District, Dhaka Division, Bangladesh","সিকদার জুয়েলার্স, গাজীপুর জেলা, ঢাকা বিভাগ, বাংলাদেশ",,"সিকদার জুয়েলার্স, ",,,বাংলাদেশ,ঢাকা বিভাগ,admin2,boundaries,['jewelry'],[],Bangladesh,Dhaka,Gazipur,Kaliakair,KaliakairPaurashava,48b9cf3d7bf6d79f62992d71038b2eb1
4748,541649124,893cf11602fffff,24.08222197,90.21100612,সিকদার জুয়েলার্স,"Gazipur District, Dhaka Division, Bangladesh","সিকদার জুয়েলার্স, গাজীপুর জেলা, ঢাকা বিভাগ, বাংলাদেশ",,"সিকদার জুয়েলার্স, ",,,বাংলাদেশ,ঢাকা বিভাগ,admin2,boundaries,['jewelry'],[],Bangladesh,Dhaka,Gazipur,Kaliakair,Sutrapur,9a0dd1e290b1f726dacd29396664c994
4749,541649225,893cf11602fffff,24.08109671,90.2111185,ন্যাশনাল ব্যাংক লিমিটেড,"Gazipur District, Dhaka Division, Bangladesh","ন্যাশনাল ব্যাংক লিমিটেড, গাজীপুর জেলা, ঢাকা বিভাগ, বাংলাদেশ",,"ন্যাশনাল ব্যাংক লিমিটেড, ",['National Bank Limited'],,বাংলাদেশ,ঢাকা বিভাগ,admin2,boundaries,['bank'],[],Bangladesh,Dhaka,Gazipur,Kaliakair,KaliakairPaurashava,48b9cf3d7bf6d79f62992d71038b2eb1
4750,541649225,893cf11602fffff,24.08109671,90.2111185,ন্যাশনাল ব্যাংক লিমিটেড,"Gazipur District, Dhaka Division, Bangladesh","ন্যাশনাল ব্যাংক লিমিটেড, গাজীপুর জেলা, ঢাকা বিভাগ, বাংলাদেশ",,"ন্যাশনাল ব্যাংক লিমিটেড, ",['National Bank Limited'],,বাংলাদেশ,ঢাকা বিভাগ,admin2,boundaries,['bank'],[],Bangladesh,Dhaka,Gazipur,Kaliakair,Sutrapur,9a0dd1e290b1f726dacd29396664c994
4752,541649712,893cf11602fffff,24.08092118,90.21140747,জনতা ব্যাংক লিমিটেড,"Gazipur District, Dhaka Division, Bangladesh","জনতা ব্যাংক লিমিটেড, গাজীপুর জেলা, ঢাকা বিভাগ, বাংলাদেশ",,"জনতা ব্যাংক লিমিটেড, ",['Janata Bank Limited'],,বাংলাদেশ,ঢাকা বিভাগ,admin2,boundaries,['bank'],[],Bangladesh,Dhaka,Gazipur,Kaliakair,KaliakairPaurashava,48b9cf3d7bf6d79f62992d71038b2eb1
4753,541649712,893cf11602fffff,24.08092118,90.21140747,জনতা ব্যাংক লিমিটেড,"Gazipur District, Dhaka Division, Bangladesh","জনতা ব্যাংক লিমিটেড, গাজীপুর জেলা, ঢাকা বিভাগ, বাংলাদেশ",,"জনতা ব্যাংক লিমিটেড, ",['Janata Bank Limited'],,বাংলাদেশ,ঢাকা বিভাগ,admin2,boundaries,['bank'],[],Bangladesh,Dhaka,Gazipur,Kaliakair,Sutrapur,9a0dd1e290b1f726dacd29396664c994
4755,541649828,893cf116393ffff,24.08037165,90.21137919,Kaliakair Bazar Central Jame Mosque মার্কাজ মসজিদ,"Kaliakair Bazar Central Jame Mosque, Gazipur District, Dhaka Division, Bangladesh","মার্কাজ মসজিদ, গাজীপুর জেলা, ঢাকা বিভাগ, বাংলাদেশ",,,,,বাংলাদেশ,ঢাকা বিভাগ,admin2,boundaries,['place_of_worship_muslim'],[],Bangladesh,Dhaka,Gazipur,Kaliakair,KaliakairPaurashava,48b9cf3d7bf6d79f62992d71038b2eb1
4757,541649835,893cf116393ffff,24.07985091,90.21071924,বাংলাদেশ কমার্স ব্যাংক,"Gazipur District, Dhaka Division, Bangladesh","বাংলাদেশ কমার্স ব্যাংক, গাজীপুর জেলা, ঢাকা বিভাগ, বাংলাদেশ",,"বাংলাদেশ কমার্স ব্যাংক, ",['Bangladesh Commerce Bank Limited'],,বাংলাদেশ,ঢাকা বিভাগ,admin2,boundaries,['bank'],[],Bangladesh,Dhaka,Gazipur,Kaliakair,KaliakairPaurashava,48b9cf3d7bf6d79f62992d71038b2eb1
4759,541649959,893cf116393ffff,24.07975872,90.21037907,Rokeya Electronics রোকেয়া ইলেকট্রনিক্স,"Rokeya Electronics, Gazipur District, Dhaka Division, Bangladesh","রোকেয়া ইলেকট্রনিক্স, গাজীপুর জেলা, ঢাকা বিভাগ, বাংলাদেশ",,,,,বাংলাদেশ,ঢাকা বিভাগ,admin2,boundaries,['electronics'],[],Bangladesh,Dhaka,Gazipur,Kaliakair,KaliakairPaurashava,48b9cf3d7bf6d79f62992d71038b2eb1
4762,541650061,893cf116393ffff,24.07864984,90.2106185,Haji Khobir Uddin Market হাজী খবির উদ্দিন মার্কেট,"Haji Khobir Uddin Market, Gazipur District, Dhaka Division, Bangladesh","হাজী খবির উদ্দিন মার্কেট, গাজীপুর জেলা, ঢাকা বিভাগ, বাংলাদেশ",,,,,বাংলাদেশ,ঢাকা বিভাগ,admin2,boundaries,['marketplace'],[],Bangladesh,Dhaka,Gazipur,Kaliakair,KaliakairPaurashava,48b9cf3d7bf6d79f62992d71038b2eb1
4763,541660360,893cf116393ffff,24.07768868,90.20954366,Islamia Sweetmeats ইসলামিয়া মিষ্টির,"Islamia Sweetmeats, Gazipur District, Dhaka Division, Bangladesh","ইসলামিয়া মিষ্টির, গাজীপুর জেলা, ঢাকা বিভাগ, বাংলাদেশ",,,,,বাংলাদেশ,ঢাকা বিভাগ,admin2,boundaries,['restaurant'],[],Bangladesh,Dhaka,Gazipur,Kaliakair,KaliakairPaurashava,48b9cf3d7bf6d79f62992d71038b2eb1
4833,2442161992,893cf13182bffff,23.916044,90.5672242,Danga Boat Ghat,"Danga Boat Ghat, Palash, Narsingdi District, Dhaka Division, Bangladesh","নরসিংদী জেলা, ঢাকা বিভাগ, বাংলাদেশ","Danga Boat Ghat, ",,,Palash,বাংলাদেশ,ঢাকা বিভাগ,local_admin,boundaries,['ferry_terminal'],[],Bangladesh,Dhaka,Gazipur,KaliganjPaurashava,Kaliganj,f4afc5effd4201a552fbb76c1f832a2c
4856,3870117739,893cf1ad603ffff,24.0694657,90.5096795,"Nalgaon Notun Bazar,","Nalgaon Notun Bazar, Kapasia, Gazipur District, Dhaka Division, Bangladesh","কাপাসিয়া উপজেলা, গাজীপুর জেলা, ঢাকা বিভাগ, বাংলাদেশ","Nalgaon Notun Bazar, ",,,কাপাসিয়া উপজেলা,বাংলাদেশ,ঢাকা বিভাগ,local_admin,boundaries,['supermarket'],[],Bangladesh,Dhaka,Gazipur,Kapasia,Chandpur,d4a115e5c9fb7a470296854b15b69fb2
4940,4491871693,893cf1ac36fffff,24.1004317,90.5965144,,"Kapasia, Gazipur District, Dhaka Division, Bangladesh","কাপাসিয়া উপজেলা, গাজীপুর জেলা, ঢাকা বিভাগ, বাংলাদেশ",,,,কাপাসিয়া উপজেলা,বাংলাদেশ,ঢাকা বিভাগ,local_admin,boundaries,['artwork'],[],Bangladesh,Dhaka,Gazipur,Kapasia,Durgapur,9c4abd5b2c304fd5f80acee03c890354
4944,4491897790,893cf1ac363ffff,24.1018097,90.5943875,,,,,,,কাপাসিয়া উপজেলা,বাংলাদেশ,ঢাকা বিভাগ,housenumber,sameSource,['guest_house'],[],Bangladesh,Dhaka,Gazipur,Kapasia,Durgapur,9c4abd5b2c304fd5f80acee03c890354
4947,4491897791,893cf1ac367ffff,24.1021533,90.5962573,,"Kapasia, Gazipur District, Dhaka Division, Bangladesh","কাপাসিয়া উপজেলা, গাজীপুর জেলা, ঢাকা বিভাগ, বাংলাদেশ",,,,কাপাসিয়া উপজেলা,বাংলাদেশ,ঢাকা বিভাগ,local_admin,boundaries,['viewpoint'],[],Bangladesh,Dhaka,Gazipur,Kapasia,Durgapur,9c4abd5b2c304fd5f80acee03c890354
4951,4492301502,893cf1ac367ffff,24.1028049,90.5965957,,"Kapasia, Gazipur District, Dhaka Division, Bangladesh","কাপাসিয়া উপজেলা, গাজীপুর জেলা, ঢাকা বিভাগ, বাংলাদেশ",,,['rawnat natun bazar'],কাপাসিয়া উপজেলা,বাংলাদেশ,ঢাকা বিভাগ,local_admin,boundaries,['pub'],[],Bangladesh,Dhaka,Gazipur,Kapasia,Durgapur,9c4abd5b2c304fd5f80acee03c890354
4953,4492440289,893cf1adddbffff,24.0952794,90.5945238,,"Kapasia, Gazipur District, Dhaka Division, Bangladesh","কাপাসিয়া উপজেলা, গাজীপুর জেলা, ঢাকা বিভাগ, বাংলাদেশ",,,,কাপাসিয়া উপজেলা,বাংলাদেশ,ঢাকা বিভাগ,local_admin,boundaries,['supermarket'],[],Bangladesh,Dhaka,Gazipur,Kapasia,Durgapur,9c4abd5b2c304fd5f80acee03c890354
4995,4942590923,893cf1ad4d7ffff,24.0942693,90.5061732,,"Sreepur Gazipur, Gazipur District, Dhaka Division, Bangladesh","গাজীপুর জেলা, ঢাকা বিভাগ, বাংলাদেশ",,,['Nokkhorttobari'],Sreepur (Gazipur),বাংলাদেশ,ঢাকা বিভাগ,local_admin,boundaries,['restaurant'],[],Bangladesh,Dhaka,Gazipur,Sreepur,Rajabari,058429620bccc25eabd39bc5fb09526f
5000,4944647245,893cf1ad4d7ffff,24.094306,90.505984,,"Sreepur Gazipur, Gazipur District, Dhaka Division, Bangladesh","গাজীপুর জেলা, ঢাকা বিভাগ, বাংলাদেশ",,,['Nokkhorttobari'],Sreepur (Gazipur),বাংলাদেশ,ঢাকা বিভাগ,local_admin,boundaries,['motel'],[],Bangladesh,Dhaka,Gazipur,Sreepur,Rajabari,058429620bccc25eabd39bc5fb09526f
306,2485294333,893cc4db66fffff,24.1580206,90.6588287,Al-Menon Mosque,"Al-Menon Mosque, Kapasia, Gazipur District, Dhaka Division, Bangladesh","কাপাসিয়া উপজেলা, গাজীপুর জেলা, ঢাকা বিভাগ, বাংলাদেশ","Al-Menon Mosque, ",,,কাপাসিয়া উপজেলা,বাংলাদেশ,ঢাকা বিভাগ,local_admin,boundaries,['place_of_worship_muslim'],[],Bangladesh,Dhaka,Gazipur,Kapasia,Ghagotia,446107acf8ea5eba7ffa609cd5395cd0
311,2485305339,893cc4db207ffff,24.1535077,90.6733515,Ghagotia Mosque,"Ghagotia Mosque, Ghagotia, Kapasia, Gazipur District, Dhaka Division, Bangladesh","কাপাসিয়া উপজেলা, গাজীপুর জেলা, ঢাকা বিভাগ, বাংলাদেশ","Ghagotia Mosque, ",,,কাপাসিয়া উপজেলা,বাংলাদেশ,ঢাকা বিভাগ,locality,boundaries,['place_of_worship_muslim'],[],Bangladesh,Dhaka,Gazipur,Kapasia,Ghagotia,446107acf8ea5eba7ffa609cd5395cd0
450,587638920,893cf115c2fffff,23.99192326,90.25378075,,"Savar Subdistrict, Dhaka District, Dhaka Division, Bangladesh","সাভার উপজেলা, ঢাকা জেলা, ঢাকা বিভাগ, বাংলাদেশ",,,,সাভার উপজেলা,বাংলাদেশ,ঢাকা বিভাগ,local_admin,boundaries,['playground'],[],Bangladesh,Dhaka,Gazipur,GazipurSadar,Kashimpur,596d4fe0ab52adf10ed231d3e7b84ebc
453,587638921,893cf115c2fffff,23.99208761,90.255341,,"Savar Subdistrict, Dhaka District, Dhaka Division, Bangladesh","সাভার উপজেলা, ঢাকা জেলা, ঢাকা বিভাগ, বাংলাদেশ",,,,সাভার উপজেলা,বাংলাদেশ,ঢাকা বিভাগ,local_admin,boundaries,['playground'],[],Bangladesh,Dhaka,Gazipur,GazipurSadar,Kashimpur,596d4fe0ab52adf10ed231d3e7b84ebc
456,587638928,893cf115897ffff,23.98981262,90.25530069,,"Gazipur District, Dhaka Division, Bangladesh","গাজীপুর জেলা, ঢাকা বিভাগ, বাংলাদেশ",,,,,বাংলাদেশ,ঢাকা বিভাগ,admin2,boundaries,['pitch'],[],Bangladesh,Dhaka,Gazipur,GazipurSadar,Kashimpur,596d4fe0ab52adf10ed231d3e7b84ebc
458,587638929,893cf115897ffff,23.99024598,90.25583441,,"Gazipur District, Dhaka Division, Bangladesh","গাজীপুর জেলা, ঢাকা বিভাগ, বাংলাদেশ",,,,,বাংলাদেশ,ঢাকা বিভাগ,admin2,boundaries,['pitch'],[],Bangladesh,Dhaka,Gazipur,GazipurSadar,Kashimpur,596d4fe0ab52adf10ed231d3e7b84ebc
461,587638930,893cf115897ffff,23.99024948,90.25601443,,"Gazipur District, Dhaka Division, Bangladesh","গাজীপুর জেলা, ঢাকা বিভাগ, বাংলাদেশ",,,,,বাংলাদেশ,ঢাকা বিভাগ,admin2,boundaries,['pitch'],[],Bangladesh,Dhaka,Gazipur,GazipurSadar,Kashimpur,596d4fe0ab52adf10ed231d3e7b84ebc
464,587638931,893cf115897ffff,23.990273,90.25620185,,"Gazipur District, Dhaka Division, Bangladesh","গাজীপুর জেলা, ঢাকা বিভাগ, বাংলাদেশ",,,,,বাংলাদেশ,ঢাকা বিভাগ,admin2,boundaries,['pitch'],[],Bangladesh,Dhaka,Gazipur,GazipurSadar,Kashimpur,596d4fe0ab52adf10ed231d3e7b84ebc
467,587638932,893cf115897ffff,23.99029058,90.25638493,,"Gazipur District, Dhaka Division, Bangladesh","গাজীপুর জেলা, ঢাকা বিভাগ, বাংলাদেশ",,,,,বাংলাদেশ,ঢাকা বিভাগ,admin2,boundaries,['pitch'],[],Bangladesh,Dhaka,Gazipur,GazipurSadar,Kashimpur,596d4fe0ab52adf10ed231d3e7b84ebc
468,587638933,893cf115897ffff,23.99061508,90.25636333,,"Gazipur District, Dhaka Division, Bangladesh","গাজীপুর জেলা, ঢাকা বিভাগ, বাংলাদেশ",,,,,বাংলাদেশ,ঢাকা বিভাগ,admin2,boundaries,['pitch'],[],Bangladesh,Dhaka,Gazipur,GazipurSadar,Kashimpur,596d4fe0ab52adf10ed231d3e7b84ebc
471,587638934,893cf115893ffff,23.9901047,90.25406715,,"Gazipur District, Dhaka Division, Bangladesh","গাজীপুর জেলা, ঢাকা বিভাগ, বাংলাদেশ",,,,,বাংলাদেশ,ঢাকা বিভাগ,admin2,boundaries,['pitch'],[],Bangladesh,Dhaka,Gazipur,GazipurSadar,Kashimpur,596d4fe0ab52adf10ed231d3e7b84ebc
472,587638935,893cf115893ffff,23.99021675,90.2531516,,"Savar Subdistrict, Dhaka District, Dhaka Division, Bangladesh","সাভার উপজেলা, ঢাকা জেলা, ঢাকা বিভাগ, বাংলাদেশ",,,,সাভার উপজেলা,বাংলাদেশ,ঢাকা বিভাগ,local_admin,boundaries,['swimming_pool'],[],Bangladesh,Dhaka,Gazipur,GazipurSadar,Kashimpur,596d4fe0ab52adf10ed231d3e7b84ebc
476,587638936,893cf115893ffff,23.989682,90.25289675,,"Savar Subdistrict, Dhaka District, Dhaka Division, Bangladesh","সাভার উপজেলা, ঢাকা জেলা, ঢাকা বিভাগ, বাংলাদেশ",,,,সাভার উপজেলা,বাংলাদেশ,ঢাকা বিভাগ,local_admin,boundaries,['swimming_pool'],[],Bangladesh,Dhaka,Gazipur,GazipurSadar,Kashimpur,596d4fe0ab52adf10ed231d3e7b84ebc
477,587638937,893cf115897ffff,23.9906127,90.2561778,,"Gazipur District, Dhaka Division, Bangladesh","গাজীপুর জেলা, ঢাকা বিভাগ, বাংলাদেশ",,,,,বাংলাদেশ,ঢাকা বিভাগ,admin2,boundaries,['pitch'],[],Bangladesh,Dhaka,Gazipur,GazipurSadar,Kashimpur,596d4fe0ab52adf10ed231d3e7b84ebc
487,587656474,893cf115c2fffff,23.99267175,90.2540669,,"Savar Subdistrict, Dhaka District, Dhaka Division, Bangladesh","সাভার উপজেলা, ঢাকা জেলা, ঢাকা বিভাগ, বাংলাদেশ",,,,সাভার উপজেলা,বাংলাদেশ,ঢাকা বিভাগ,local_admin,boundaries,['pitch'],[],Bangladesh,Dhaka,Gazipur,GazipurSadar,Kashimpur,596d4fe0ab52adf10ed231d3e7b84ebc
490,587656475,893cf115c2fffff,23.992695,90.254317,,"Savar Subdistrict, Dhaka District, Dhaka Division, Bangladesh","সাভার উপজেলা, ঢাকা জেলা, ঢাকা বিভাগ, বাংলাদেশ",,,,সাভার উপজেলা,বাংলাদেশ,ঢাকা বিভাগ,local_admin,boundaries,['pitch'],[],Bangladesh,Dhaka,Gazipur,GazipurSadar,Kashimpur,596d4fe0ab52adf10ed231d3e7b84ebc
494,587656604,893cf115893ffff,23.9887675,90.25347398,,"Gazipur District, Dhaka Division, Bangladesh","গাজীপুর জেলা, ঢাকা বিভাগ, বাংলাদেশ",,,,,বাংলাদেশ,ঢাকা বিভাগ,admin2,boundaries,['playground'],[],Bangladesh,Dhaka,Gazipur,GazipurSadar,Kashimpur,596d4fe0ab52adf10ed231d3e7b84ebc
517,4491969589,893cf13753bffff,24.0397759,90.6444252,,"Kaliganj Upazila, Gazipur District, Dhaka Division, Bangladesh","কালিগঞ্জ উপজেলা, গাজীপুর জেলা, ঢাকা বিভাগ, বাংলাদেশ",,,"['Rawnat,Kapasia']",কালিগঞ্জ উপজেলা,বাংলাদেশ,ঢাকা বিভাগ,local_admin,boundaries,['viewpoint'],[],Bangladesh,Dhaka,Gazipur,Kaliganj,Moktarpur,37e0e62167532673d3e9d7b8874c9beb
521,4491969690,893cf1add1bffff,24.0932261,90.6041701,,"Kapasia, Gazipur District, Dhaka Division, Bangladesh","কাপাসিয়া উপজেলা, গাজীপুর জেলা, ঢাকা বিভাগ, বাংলাদেশ",,,['maruntak'],কাপাসিয়া উপজেলা,বাংলাদেশ,ঢাকা বিভাগ,local_admin,boundaries,['viewpoint'],[],Bangladesh,Dhaka,Gazipur,Kapasia,Durgapur,9c4abd5b2c304fd5f80acee03c890354
570,589605564,893cf115877ffff,23.97470687,90.26375146,,"Gazipur District, Dhaka Division, Bangladesh","গাজীপুর জেলা, ঢাকা বিভাগ, বাংলাদেশ",,,,,বাংলাদেশ,ঢাকা বিভাগ,admin2,boundaries,['place_of_worship_muslim'],[],Bangladesh,Dhaka,Gazipur,GazipurSadar,Kashimpur,596d4fe0ab52adf10ed231d3e7b84ebc
668,591996316,893cf115c2fffff,23.99186186,90.25263257,,"Savar Subdistrict, Dhaka District, Dhaka Division, Bangladesh","সাভার উপজেলা, ঢাকা জেলা, ঢাকা বিভাগ, বাংলাদেশ",,,,সাভার উপজেলা,বাংলাদেশ,ঢাকা বিভাগ,local_admin,boundaries,['pitch'],[],Bangladesh,Dhaka,Gazipur,GazipurSadar,Kashimpur,596d4fe0ab52adf10ed231d3e7b84ebc
699,592034501,893cf114023ffff,24.03120002,90.23866649,,"Gazipur District, Dhaka Division, Bangladesh","গাজীপুর জেলা, ঢাকা বিভাগ, বাংলাদেশ",,,,,বাংলাদেশ,ঢাকা বিভাগ,admin2,boundaries,['swimming_pool'],[],Bangladesh,Dhaka,Gazipur,Kaliakair,Atabaha,63f324f52e8614e7edfedfa3eb692a14
702,592034502,893cf114023ffff,24.03087331,90.2388668,,"Gazipur District, Dhaka Division, Bangladesh","গাজীপুর জেলা, ঢাকা বিভাগ, বাংলাদেশ",,,,,বাংলাদেশ,ঢাকা বিভাগ,admin2,boundaries,['swimming_pool'],[],Bangladesh,Dhaka,Gazipur,Kaliakair,Atabaha,63f324f52e8614e7edfedfa3eb692a14
704,592034503,893cf114023ffff,24.03101501,90.23898407,,"Gazipur District, Dhaka Division, Bangladesh","গাজীপুর জেলা, ঢাকা বিভাগ, বাংলাদেশ",,,,,বাংলাদেশ,ঢাকা বিভাগ,admin2,boundaries,['swimming_pool'],[],Bangladesh,Dhaka,Gazipur,Kaliakair,Atabaha,63f324f52e8614e7edfedfa3eb692a14
708,592034504,893cf114023ffff,24.03075045,90.23867437,,"Gazipur District, Dhaka Division, Bangladesh","গাজীপুর জেলা, ঢাকা বিভাগ, বাংলাদেশ",,,,,বাংলাদেশ,ঢাকা বিভাগ,admin2,boundaries,['swimming_pool'],[],Bangladesh,Dhaka,Gazipur,Kaliakair,Atabaha,63f324f52e8614e7edfedfa3eb692a14
711,592034506,893cf114023ffff,24.03119038,90.23899367,,"Gazipur District, Dhaka Division, Bangladesh","গাজীপুর জেলা, ঢাকা বিভাগ, বাংলাদেশ",,,,,বাংলাদেশ,ঢাকা বিভাগ,admin2,boundaries,['swimming_pool'],[],Bangladesh,Dhaka,Gazipur,Kaliakair,Atabaha,63f324f52e8614e7edfedfa3eb692a14
714,592034507,893cf114023ffff,24.03067514,90.23908723,,"Gazipur District, Dhaka Division, Bangladesh","গাজীপুর জেলা, ঢাকা বিভাগ, বাংলাদেশ",,,,,বাংলাদেশ,ঢাকা বিভাগ,admin2,boundaries,['swimming_pool'],[],Bangladesh,Dhaka,Gazipur,Kaliakair,Atabaha,63f324f52e8614e7edfedfa3eb692a14
722,592039602,893cf114023ffff,24.03083766,90.23917336,,"Gazipur District, Dhaka Division, Bangladesh","গাজীপুর জেলা, ঢাকা বিভাগ, বাংলাদেশ",,,,,বাংলাদেশ,ঢাকা বিভাগ,admin2,boundaries,['shelter'],[],Bangladesh,Dhaka,Gazipur,Kaliakair,Atabaha,63f324f52e8614e7edfedfa3eb692a14
724,592039603,893cf114023ffff,24.0310491,90.24035342,,"Gazipur District, Dhaka Division, Bangladesh","গাজীপুর জেলা, ঢাকা বিভাগ, বাংলাদেশ",,,,,বাংলাদেশ,ঢাকা বিভাগ,admin2,boundaries,['shelter'],[],Bangladesh,Dhaka,Gazipur,Kaliakair,Atabaha,63f324f52e8614e7edfedfa3eb692a14
726,592039621,893cf114023ffff,24.03112778,90.23882857,,"Gazipur District, Dhaka Division, Bangladesh","গাজীপুর জেলা, ঢাকা বিভাগ, বাংলাদেশ",,,,,বাংলাদেশ,ঢাকা বিভাগ,admin2,boundaries,['shelter'],[],Bangladesh,Dhaka,Gazipur,Kaliakair,Atabaha,63f324f52e8614e7edfedfa3eb692a14
732,592039625,893cf114023ffff,24.031675,90.23994339,,"Gazipur District, Dhaka Division, Bangladesh","গাজীপুর জেলা, ঢাকা বিভাগ, বাংলাদেশ",,,,,বাংলাদেশ,ঢাকা বিভাগ,admin2,boundaries,['fountain'],[],Bangladesh,Dhaka,Gazipur,Kaliakair,Atabaha,63f324f52e8614e7edfedfa3eb692a14
770,5230070675,893cf131187ffff,23.9345165,90.5131865,Nolchota Bus Stop নলছটা বাস স্টপ,"Nolchota Bus Stop, Gazipur District, Dhaka Division, Bangladesh","নলছটা বাস স্টপ, গাজীপুর জেলা, ঢাকা বিভাগ, বাংলাদেশ",,,,,বাংলাদেশ,ঢাকা বিভাগ,street,boundaries,['bus_stop'],[],Bangladesh,Dhaka,Gazipur,Kaliganj,Tumulia,afd09e35f4a72b65a0eff331be7dfb12
773,5230072828,893cf1311afffff,23.9318048,90.5213834,Dari Para,"Dari Para, Gazipur District, Dhaka Division, Bangladesh","গাজীপুর জেলা, ঢাকা বিভাগ, বাংলাদেশ",Dari Para,,,,বাংলাদেশ,ঢাকা বিভাগ,street,boundaries,['bus_stop'],[],Bangladesh,Dhaka,Gazipur,Kaliganj,Tumulia,afd09e35f4a72b65a0eff331be7dfb12
774,5230078092,893cf131c67ffff,23.9273322,90.5484454,Kapasia More Bus Stop কাপাসিয়া মোড় বাস স্টপ,"Kapasia More Bus Stop, Kaliganj Upazila, Gazipur District, Dhaka Division, Bangladesh","কাপাসিয়া মোড় বাস স্টপ, কালিগঞ্জ উপজেলা, গাজীপুর জেলা, ঢাকা বিভাগ, বাংলাদেশ",,,,কালিগঞ্জ উপজেলা,বাংলাদেশ,ঢাকা বিভাগ,street,boundaries,['bus_stop'],[],Bangladesh,Dhaka,Gazipur,KaliganjPaurashava,Kaliganj,f4afc5effd4201a552fbb76c1f832a2c
777,5230080010,893cf131c63ffff,23.9272081,90.5439156,Tumolia Mison,"Tumolia Mison, Gazipur District, Dhaka Division, Bangladesh","গাজীপুর জেলা, ঢাকা বিভাগ, বাংলাদেশ",Tumolia Mison,,,,বাংলাদেশ,ঢাকা বিভাগ,street,boundaries,['bus_stop'],[],Bangladesh,Dhaka,Gazipur,Kaliganj,Tumulia,afd09e35f4a72b65a0eff331be7dfb12
778,5230083234,893cf131883ffff,23.9268983,90.5538483,Arikhola Bus Stop,"Arikhola Bus Stop, Kaliganj Upazila, Gazipur District, Dhaka Division, Bangladesh","কালিগঞ্জ উপজেলা, গাজীপুর জেলা, ঢাকা বিভাগ, বাংলাদেশ",Arikhola Bus Stop,,,কালিগঞ্জ উপজেলা,বাংলাদেশ,ঢাকা বিভাগ,street,boundaries,['bus_stop'],[],Bangladesh,Dhaka,Gazipur,KaliganjPaurashava,Kaliganj,f4afc5effd4201a552fbb76c1f832a2c
781,5231804734,893cf131823ffff,23.918824,90.5656563,Kaliganj R.R.N Pilot Government High School,"Kaliganj R.R.N Pilot Government High School, Kaliganj Upazila, Gazipur District, Dhaka Division, Bangladesh","কালিগঞ্জ উপজেলা, গাজীপুর জেলা, ঢাকা বিভাগ, বাংলাদেশ","Kaliganj R.R.N Pilot Government High School, ",,,কালিগঞ্জ উপজেলা,বাংলাদেশ,ঢাকা বিভাগ,local_admin,boundaries,['school'],[],Bangladesh,Dhaka,Gazipur,KaliganjPaurashava,Kaliganj,f4afc5effd4201a552fbb76c1f832a2c
783,5231806086,893cf131833ffff,23.9211919,90.5657749,Chinatown Chinese Restaurant,"Chinatown Chinese Restaurant, Kaliganj Upazila, Gazipur District, Dhaka Division, Bangladesh","কালিগঞ্জ উপজেলা, গাজীপুর জেলা, ঢাকা বিভাগ, বাংলাদেশ","Chinatown Chinese Restaurant, ",,,কালিগঞ্জ উপজেলা,বাংলাদেশ,ঢাকা বিভাগ,local_admin,boundaries,['restaurant'],[],Bangladesh,Dhaka,Gazipur,KaliganjPaurashava,Kaliganj,f4afc5effd4201a552fbb76c1f832a2c
785,5231810269,893cf131837ffff,23.9211141,90.5669732,Kaliganj Bus Station কালীগঞ্জ বাস ষ্টেশন,"Kaliganj Bus Station, Kaliganj Upazila, Gazipur District, Dhaka Division, Bangladesh","কালীগঞ্জ বাস ষ্টেশন, কালিগঞ্জ উপজেলা, গাজীপুর জেলা, ঢাকা বিভাগ, বাংলাদেশ",,,,কালিগঞ্জ উপজেলা,বাংলাদেশ,ঢাকা বিভাগ,street,boundaries,['bus_stop'],[],Bangladesh,Dhaka,Gazipur,KaliganjPaurashava,Kaliganj,f4afc5effd4201a552fbb76c1f832a2c
787,5231817414,893cf131837ffff,23.921414,90.567929,,"Kaliganj Upazila, Gazipur District, Dhaka Division, Bangladesh","কালিগঞ্জ উপজেলা, গাজীপুর জেলা, ঢাকা বিভাগ, বাংলাদেশ",,,,কালিগঞ্জ উপজেলা,বাংলাদেশ,ঢাকা বিভাগ,local_admin,boundaries,['atm'],[],Bangladesh,Dhaka,Gazipur,KaliganjPaurashava,Kaliganj,f4afc5effd4201a552fbb76c1f832a2c
791,5231854029,893cf13191bffff,23.9256467,90.5774796,Habibur Rahman Jalal হাবিবুর রহমান জালাল,"Habibur Rahman Jalal, Kaliganj Upazila, Gazipur District, Dhaka Division, Bangladesh","হাবিবুর রহমান জালাল, কালিগঞ্জ উপজেলা, গাজীপুর জেলা, ঢাকা বিভাগ, বাংলাদেশ",,,,কালিগঞ্জ উপজেলা,বাংলাদেশ,ঢাকা বিভাগ,local_admin,boundaries,['hotel'],[],Bangladesh,Dhaka,Gazipur,KaliganjPaurashava,Kaliganj,f4afc5effd4201a552fbb76c1f832a2c
794,5231857874,893cf13193bffff,23.9237728,90.5881127,Refat Packaging & Printing Industries Ltd,"Refat Packaging & Printing Industries Ltd, Kaliganj Upazila, Gazipur District, Dhaka Division, Bangladesh","কালিগঞ্জ উপজেলা, গাজীপুর জেলা, ঢাকা বিভাগ, বাংলাদেশ","Refat Packaging & Printing Industries Ltd, ",,,কালিগঞ্জ উপজেলা,বাংলাদেশ,ঢাকা বিভাগ,local_admin,boundaries,['clothes'],[],Bangladesh,Dhaka,Gazipur,KaliganjPaurashava,Kaliganj,f4afc5effd4201a552fbb76c1f832a2c
797,5231860605,893cf13193bffff,23.9238268,90.5883035,Kaliganj Polli Bidyut Office,"Kaliganj Polli Bidyut Office, Kaliganj Upazila, Gazipur District, Dhaka Division, Bangladesh","কালিগঞ্জ উপজেলা, গাজীপুর জেলা, ঢাকা বিভাগ, বাংলাদেশ","Kaliganj Polli Bidyut Office, ",,,কালিগঞ্জ উপজেলা,বাংলাদেশ,ঢাকা বিভাগ,local_admin,boundaries,['electronics'],[],Bangladesh,Dhaka,Gazipur,KaliganjPaurashava,Kaliganj,f4afc5effd4201a552fbb76c1f832a2c
801,5231866767,893cf131923ffff,23.9247719,90.5916885,Ghunapara Jame Masjid,"Ghunapara Jame Masjid, Kaliganj Upazila, Gazipur District, Dhaka Division, Bangladesh","কালিগঞ্জ উপজেলা, গাজীপুর জেলা, ঢাকা বিভাগ, বাংলাদেশ","Ghunapara Jame Masjid, ",,,কালিগঞ্জ উপজেলা,বাংলাদেশ,ঢাকা বিভাগ,local_admin,boundaries,['place_of_worship_muslim'],[],Bangladesh,Dhaka,Gazipur,KaliganjPaurashava,Kaliganj,f4afc5effd4201a552fbb76c1f832a2c
830,5361306241,893cf1ae217ffff,24.1586394,90.5359159,Baitul Malek Jaamee Masjid,"Baitul Malek Jaamee Masjid, Sreepur Gazipur, Gazipur District, Dhaka Division, Bangladesh","গাজীপুর জেলা, ঢাকা বিভাগ, বাংলাদেশ","Baitul Malek Jaamee Masjid, ",,,Sreepur (Gazipur),বাংলাদেশ,ঢাকা বিভাগ,local_admin,boundaries,['place_of_worship_muslim'],[],Bangladesh,Dhaka,Gazipur,Sreepur,Gosinga,4fdda5c80d83b3da843500fd735548c7
878,5601589826,893cf1ad613ffff,24.0689575,90.5067099,Nolgaon School ground,"Nolgaon School ground, Kapasia, Gazipur District, Dhaka Division, Bangladesh","কাপাসিয়া উপজেলা, গাজীপুর জেলা, ঢাকা বিভাগ, বাংলাদেশ","Nolgaon School ground, ",,,কাপাসিয়া উপজেলা,বাংলাদেশ,ঢাকা বিভাগ,local_admin,boundaries,['school'],[],Bangladesh,Dhaka,Gazipur,Kapasia,Chandpur,d4a115e5c9fb7a470296854b15b69fb2
923,5231868472,893cf122457ffff,23.9271867,90.6013505,Mulgaon Government Primary School মুলগাঁও সরকারি প্রাথমিক বিদ্যালয়,"Mulgaon Government Primary School, Kaliganj Upazila, Gazipur District, Dhaka Division, Bangladesh","মুলগাঁও সরকারি প্রাথমিক বিদ্যালয়, কালিগঞ্জ উপজেলা, গাজীপুর জেলা, ঢাকা বিভাগ, বাংলাদেশ",,,,কালিগঞ্জ উপজেলা,বাংলাদেশ,ঢাকা বিভাগ,local_admin,boundaries,['school'],[],Bangladesh,Dhaka,Gazipur,KaliganjPaurashava,Kaliganj,f4afc5effd4201a552fbb76c1f832a2c
988,904914810,893cf1142d3ffff,24.01334113,90.21139823,,"Gazipur District, Dhaka Division, Bangladesh","গাজীপুর জেলা, ঢাকা বিভাগ, বাংলাদেশ",,,,,বাংলাদেশ,ঢাকা বিভাগ,admin2,boundaries,['ford'],[],Bangladesh,Dhaka,Gazipur,Kaliakair,Atabaha,63f324f52e8614e7edfedfa3eb692a14
1011,922789088,893cf1163cfffff,24.06843771,90.20969683,Sreefalati Palace,"Sreefalati Palace, Gazipur District, Dhaka Division, Bangladesh","গাজীপুর জেলা, ঢাকা বিভাগ, বাংলাদেশ","Sreefalati Palace, ",,,,বাংলাদেশ,ঢাকা বিভাগ,admin2,boundaries,['castle'],[],Bangladesh,Dhaka,Gazipur,Kaliakair,KaliakairPaurashava,48b9cf3d7bf6d79f62992d71038b2eb1
1192,1090576074,893cf114ec3ffff,24.0238443,90.26191475,,"Gazipur District, Dhaka Division, Bangladesh","গাজীপুর জেলা, ঢাকা বিভাগ, বাংলাদেশ",,,,,বাংলাদেশ,ঢাকা বিভাগ,admin2,boundaries,['stadium'],[],Bangladesh,Dhaka,Gazipur,Kaliakair,Mouchak,bdc76e7f241bb84a7b8fbe159eda9049
1213,1098860568,893cf1b8203ffff,24.16455619,90.26622604,,"Gazipur District, Dhaka Division, Bangladesh","গাজীপুর জেলা, ঢাকা বিভাগ, বাংলাদেশ",,,,,বাংলাদেশ,ঢাকা বিভাগ,admin2,boundaries,['pitch'],[],Bangladesh,Dhaka,Gazipur,Kaliakair,Fulbaria,1f4bec27a650f553e71ffa74d9faa6e7
1402,4875408868,893cf11486bffff,24.019847,90.2999419,Purbani Fabrics Limited,"Purbani Fabrics Limited, ",,"Purbani Fabrics Limited, ",,,,বাংলাদেশ,ঢাকা বিভাগ,housenumber,,,,Bangladesh,Dhaka,Gazipur,Kaliakair,Mouchak,bdc76e7f241bb84a7b8fbe159eda9049
1417,5577088221,893cf114e07ffff,24.0256121,90.2744121,,,,,,,,বাংলাদেশ,ঢাকা বিভাগ,housenumber,,,,Bangladesh,Dhaka,Gazipur,Kaliakair,Mouchak,bdc76e7f241bb84a7b8fbe159eda9049
1808,8015045502,893cf131823ffff,23.9184991,90.5658713,Kaligonj Boat Ghat,"Kaligonj Boat Ghat, Kaliganj Upazila, Gazipur District, Dhaka Division, Bangladesh","কালিগঞ্জ উপজেলা, গাজীপুর জেলা, ঢাকা বিভাগ, বাংলাদেশ","Kaligonj Boat Ghat, ",,,কালিগঞ্জ উপজেলা,বাংলাদেশ,ঢাকা বিভাগ,local_admin,boundaries,['ferry_terminal'],[],Bangladesh,Dhaka,Gazipur,KaliganjPaurashava,Kaliganj,f4afc5effd4201a552fbb76c1f832a2c
1837,9480551964,893cf1ac3cbffff,24.1072674,90.5778279,,"Kapasia, Gazipur District, Dhaka Division, Bangladesh","কাপাসিয়া উপজেলা, গাজীপুর জেলা, ঢাকা বিভাগ, বাংলাদেশ",,,,কাপাসিয়া উপজেলা,বাংলাদেশ,ঢাকা বিভাগ,local_admin,boundaries,['viewpoint'],[],Bangladesh,Dhaka,Gazipur,Kapasia,Kapasia,556734a45d2db9436cc38869a0c0709a
2018,9819630432,893cf1b5a73ffff,24.3083152,90.5124472,Kaoraid,"Kaoraid, Sreepur Gazipur, Gazipur District, Dhaka Division, Bangladesh","গাজীপুর জেলা, ঢাকা বিভাগ, বাংলাদেশ","Kaoraid, ",,,Sreepur (Gazipur),বাংলাদেশ,ঢাকা বিভাগ,local_admin,boundaries,['railway_station'],[],Bangladesh,Dhaka,Gazipur,Sreepur,Kaoraid,ecd86dbe278ab6db87613886bb263496
2035,9995242709,893cf131a8fffff,23.9026505,90.5493062,,"Gazipur District, Dhaka Division, Bangladesh","গাজীপুর জেলা, ঢাকা বিভাগ, বাংলাদেশ",,,,,বাংলাদেশ,ঢাকা বিভাগ,admin2,boundaries,['ford'],[],Bangladesh,Dhaka,Gazipur,Kaliganj,Tumulia,afd09e35f4a72b65a0eff331be7dfb12
2039,10003700403,893cf131a07ffff,23.8984495,90.5551741,,"Gazipur District, Dhaka Division, Bangladesh","গাজীপুর জেলা, ঢাকা বিভাগ, বাংলাদেশ",,,,,বাংলাদেশ,ঢাকা বিভাগ,admin2,boundaries,['ford'],[],Bangladesh,Dhaka,Gazipur,Kaliganj,Tumulia,afd09e35f4a72b65a0eff331be7dfb12
2093,175538074,893cf1319c3ffff,23.92471521,90.57363317,Upazila Mosque উপজেলা মসজিদ,"Upazila Mosque, Kaliganj Upazila, Gazipur District, Dhaka Division, Bangladesh","উপজেলা মসজিদ, কালিগঞ্জ উপজেলা, গাজীপুর জেলা, ঢাকা বিভাগ, বাংলাদেশ",,,,কালিগঞ্জ উপজেলা,বাংলাদেশ,ঢাকা বিভাগ,local_admin,boundaries,['place_of_worship_muslim'],[],Bangladesh,Dhaka,Gazipur,KaliganjPaurashava,Kaliganj,f4afc5effd4201a552fbb76c1f832a2c
2140,349635796,893cf116023ffff,24.082544465492365,90.20923359704346,Rolling Bridge,"Rolling Bridge, Gazipur District, Dhaka Division, Bangladesh","গাজীপুর জেলা, ঢাকা বিভাগ, বাংলাদেশ",Rolling Bridge,,,,বাংলাদেশ,ঢাকা বিভাগ,street,,,,Bangladesh,Dhaka,Gazipur,Kaliakair,Chapair,9096fc8d2ceda155688d5ed89d29c07c
2319,724774711,893cf1163d7ffff,24.072850325018408,90.21023980774582,ঢাকা - টাঙ্গাইল মহাসড়ক,"-, Dhaka - Tangail Highway, Gazipur District, Dhaka Division, Bangladesh","ঢাকা টাঙ্গাইল মহাসড়ক, ঢাকা - টাঙ্গাইল মহাসড়ক, গাজীপুর জেলা, ঢাকা বিভাগ, বাংলাদেশ",,"ঢাকা - টাঙ্গাইল মহাসড়ক, ","['ঢাকা - টাঙ্গাইল মহাসড়ক', 'Dhaka - Tangail Highway']",,বাংলাদেশ,ঢাকা বিভাগ,street,,,,Bangladesh,Dhaka,Gazipur,Kaliakair,KaliakairPaurashava,48b9cf3d7bf6d79f62992d71038b2eb1
2361,503728956,893cf11639bffff,24.076756601652736,90.20935163379472,Mawna - Kaliakair Road,"Mawna - Kaliakair Road, Gazipur District, Dhaka Division, Bangladesh","গাজীপুর জেলা, ঢাকা বিভাগ, বাংলাদেশ",Mawna - Kaliakair Road,,,,বাংলাদেশ,ঢাকা বিভাগ,street,,,,Bangladesh,Dhaka,Gazipur,Kaliakair,KaliakairPaurashava,48b9cf3d7bf6d79f62992d71038b2eb1
2402,398549118,893cf11580fffff,23.9779836,90.262834,নবীনগর - চন্দ্রা মহাসড়ক,"-, Nabinagar - Chandra Highway, Gazipur District, Dhaka Division, Bangladesh","নবীনগর চন্দ্রা মহাসড়ক, নবীনগর - চন্দ্রা মহাসড়ক, গাজীপুর জেলা, ঢাকা বিভাগ, বাংলাদেশ",,"নবীনগর - চন্দ্রা মহাসড়ক, ","['নবীনগর - চন্দ্রা মহাসড়ক', 'Nabinagar - Chandra Highway']",,বাংলাদেশ,ঢাকা বিভাগ,street,,,,Bangladesh,Dhaka,Gazipur,GazipurSadar,Kashimpur,596d4fe0ab52adf10ed231d3e7b84ebc
2416,758625963,893cf11636fffff,24.060408960530026,90.22456677898825,পুরান ঢাকা-টাঙ্গাইল সড়ক,"Old Dhaka-Tangail Road, Gazipur District, Dhaka Division, Bangladesh","পুরান ঢাকা-টাঙ্গাইল সড়ক, গাজীপুর জেলা, ঢাকা বিভাগ, বাংলাদেশ",,"পুরান ঢাকা-টাঙ্গাইল সড়ক, ","['পুরান ঢাকা-টাঙ্গাইল সড়ক', 'Old Dhaka-Tangail Road']",,বাংলাদেশ,ঢাকা বিভাগ,street,,,,Bangladesh,Dhaka,Gazipur,Kaliakair,Sreefaltali,fe0f7c3e9b132d9b39c7fc03266d8e32
2484,724773609,893cf116373ffff,24.062842228587673,90.21899496091358,ঢাকা - টাঙ্গাইল মহাসড়ক,"-, Dhaka - Tangail Highway, Gazipur District, Dhaka Division, Bangladesh","ঢাকা টাঙ্গাইল মহাসড়ক, ঢাকা - টাঙ্গাইল মহাসড়ক, গাজীপুর জেলা, ঢাকা বিভাগ, বাংলাদেশ",,"ঢাকা - টাঙ্গাইল মহাসড়ক, ","['ঢাকা - টাঙ্গাইল মহাসড়ক', 'Dhaka - Tangail Highway']",,বাংলাদেশ,ঢাকা বিভাগ,street,,,,Bangladesh,Dhaka,Gazipur,Kaliakair,Sreefaltali,fe0f7c3e9b132d9b39c7fc03266d8e32
2525,618350878,893cf114573ffff,24.0488204,90.2373334,ঢাকা - টাঙ্গাইল মহাসড়ক,"-, Dhaka - Tangail Highway, Gazipur District, Dhaka Division, Bangladesh","ঢাকা টাঙ্গাইল মহাসড়ক, গাজীপুর জেলা, ঢাকা বিভাগ, বাংলাদেশ",,"ঢাকা - টাঙ্গাইল মহাসড়ক, ",['Dhaka - Tangail Highway'],,বাংলাদেশ,ঢাকা বিভাগ,street,,,,Bangladesh,Dhaka,Gazipur,Kaliakair,Atabaha,63f324f52e8614e7edfedfa3eb692a14
2717,819005657,893cf114eabffff,24.026254937736272,90.27580313675244,Dhaka - Tangail Highway,"Dhaka - Tangail Highway, Gazipur District, Dhaka Division, Bangladesh","গাজীপুর জেলা, ঢাকা বিভাগ, বাংলাদেশ",Dhaka - Tangail Highway,,['Dhaka - Tangail Highway'],,বাংলাদেশ,ঢাকা বিভাগ,street,,,,Bangladesh,Dhaka,Gazipur,Kaliakair,Mouchak,bdc76e7f241bb84a7b8fbe159eda9049
2738,1035575515,893cf116393ffff,24.0781498,90.2095448,Mawna - Kaliakair Road,"Mawna - Kaliakair Road, Gazipur District, Dhaka Division, Bangladesh","গাজীপুর জেলা, ঢাকা বিভাগ, বাংলাদেশ",Mawna - Kaliakair Road,,,,বাংলাদেশ,ঢাকা বিভাগ,street,,,,Bangladesh,Dhaka,Gazipur,Kaliakair,KaliakairPaurashava,48b9cf3d7bf6d79f62992d71038b2eb1
2927,724774710,893cf116357ffff,24.06567155,90.21436875,ঢাকা - টাঙ্গাইল মহাসড়ক,"-, Dhaka - Tangail Highway, Gazipur District, Dhaka Division, Bangladesh","ঢাকা টাঙ্গাইল মহাসড়ক, ঢাকা - টাঙ্গাইল মহাসড়ক, গাজীপুর জেলা, ঢাকা বিভাগ, বাংলাদেশ",,"ঢাকা - টাঙ্গাইল মহাসড়ক, ","['ঢাকা - টাঙ্গাইল মহাসড়ক', 'Dhaka - Tangail Highway']",,বাংলাদেশ,ঢাকা বিভাগ,street,,,,Bangladesh,Dhaka,Gazipur,Kaliakair,KaliakairPaurashava,48b9cf3d7bf6d79f62992d71038b2eb1
2945,618350882,893cf114563ffff,24.046984364089752,90.24006727782248,ঢাকা - টাঙ্গাইল মহাসড়ক,"-, Dhaka - Tangail Highway, Gazipur District, Dhaka Division, Bangladesh","ঢাকা টাঙ্গাইল মহাসড়ক, ঢাকা - টাঙ্গাইল মহাসড়ক, গাজীপুর জেলা, ঢাকা বিভাগ, বাংলাদেশ",,"ঢাকা - টাঙ্গাইল মহাসড়ক, ","['ঢাকা - টাঙ্গাইল মহাসড়ক', 'Dhaka - Tangail Highway']",,বাংলাদেশ,ঢাকা বিভাগ,street,,,,Bangladesh,Dhaka,Gazipur,Kaliakair,Atabaha,63f324f52e8614e7edfedfa3eb692a14
2994,315633432,893cf116393ffff,24.07986259579688,90.21058676568303,Kaliakair Bazar Road,"Kaliakair Bazar Road, Gazipur District, Dhaka Division, Bangladesh","গাজীপুর জেলা, ঢাকা বিভাগ, বাংলাদেশ",Kaliakair Bazar Road,,,,বাংলাদেশ,ঢাকা বিভাগ,street,,,,Bangladesh,Dhaka,Gazipur,Kaliakair,KaliakairPaurashava,48b9cf3d7bf6d79f62992d71038b2eb1
3044,724774714,893cf116077ffff,24.07985405,90.20573275000001,ঢাকা - টাঙ্গাইল মহাসড়ক,"-, Dhaka - Tangail Highway, Gazipur District, Dhaka Division, Bangladesh","ঢাকা টাঙ্গাইল মহাসড়ক, ঢাকা - টাঙ্গাইল মহাসড়ক, গাজীপুর জেলা, ঢাকা বিভাগ, বাংলাদেশ",,"ঢাকা - টাঙ্গাইল মহাসড়ক, ","['ঢাকা - টাঙ্গাইল মহাসড়ক', 'Dhaka - Tangail Highway']",,বাংলাদেশ,ঢাকা বিভাগ,street,,,,Bangladesh,Dhaka,Gazipur,Kaliakair,Sutrapur,9a0dd1e290b1f726dacd29396664c994
3076,599949534,893cf116077ffff,24.0797703,90.20563385,ঢাকা - টাঙ্গাইল মহাসড়ক,"-, Dhaka - Tangail Highway, Gazipur District, Dhaka Division, Bangladesh","ঢাকা টাঙ্গাইল মহাসড়ক, ঢাকা - টাঙ্গাইল মহাসড়ক, গাজীপুর জেলা, ঢাকা বিভাগ, বাংলাদেশ",,"ঢাকা - টাঙ্গাইল মহাসড়ক, ","['ঢাকা - টাঙ্গাইল মহাসড়ক', 'Dhaka - Tangail Highway']",,বাংলাদেশ,ঢাকা বিভাগ,street,,,,Bangladesh,Dhaka,Gazipur,Kaliakair,Sutrapur,9a0dd1e290b1f726dacd29396664c994
3111,758625964,893cf11636fffff,24.06031935,90.2247255,পুরান ঢাকা-টাঙ্গাইল সড়ক,"Old Dhaka-Tangail Road, Gazipur District, Dhaka Division, Bangladesh","পুরান ঢাকা-টাঙ্গাইল সড়ক, গাজীপুর জেলা, ঢাকা বিভাগ, বাংলাদেশ",,"পুরান ঢাকা-টাঙ্গাইল সড়ক, ","['পুরান ঢাকা-টাঙ্গাইল সড়ক', 'Old Dhaka-Tangail Road']",,বাংলাদেশ,ঢাকা বিভাগ,street,,,,Bangladesh,Dhaka,Gazipur,Kaliakair,Sreefaltali,fe0f7c3e9b132d9b39c7fc03266d8e32
3152,618350886,893cf1145c7ffff,24.055858973057017,90.22895244116053,ঢাকা - টাঙ্গাইল মহাসড়ক,"-, Dhaka - Tangail Highway, Gazipur District, Dhaka Division, Bangladesh","ঢাকা টাঙ্গাইল মহাসড়ক, ঢাকা - টাঙ্গাইল মহাসড়ক, গাজীপুর জেলা, ঢাকা বিভাগ, বাংলাদেশ",,"ঢাকা - টাঙ্গাইল মহাসড়ক, ","['ঢাকা - টাঙ্গাইল মহাসড়ক', 'Dhaka - Tangail Highway']",,বাংলাদেশ,ঢাকা বিভাগ,street,,,,Bangladesh,Dhaka,Gazipur,Kaliakair,Atabaha,63f324f52e8614e7edfedfa3eb692a14
3158,285894708,893cf1b917bffff,24.134298071921144,90.26147011136531,মাওনা - কালিয়াকৈর সড়ক,"-, Mawna - Kaliakair Road, Gazipur District, Dhaka Division, Bangladesh","মাওনা কালিয়াকৈর সড়ক, মাওনা - কালিয়াকৈর সড়ক, গাজীপুর জেলা, ঢাকা বিভাগ, বাংলাদেশ",,"মাওনা - কালিয়াকৈর সড়ক, ","['মাওনা - কালিয়াকৈর সড়ক', 'Mawna - Kaliakair Road']",,বাংলাদেশ,ঢাকা বিভাগ,street,,,,Bangladesh,Dhaka,Gazipur,Kaliakair,Boali,38df94bcb32e443a944bf153c0910ad1
3187,724774709,893cf11630bffff,24.06488447028438,90.21580981684811,ঢাকা - টাঙ্গাইল মহাসড়ক,"-, Dhaka - Tangail Highway, Gazipur District, Dhaka Division, Bangladesh","ঢাকা টাঙ্গাইল মহাসড়ক, ঢাকা - টাঙ্গাইল মহাসড়ক, গাজীপুর জেলা, ঢাকা বিভাগ, বাংলাদেশ",,"ঢাকা - টাঙ্গাইল মহাসড়ক, ","['ঢাকা - টাঙ্গাইল মহাসড়ক', 'Dhaka - Tangail Highway']",,বাংলাদেশ,ঢাকা বিভাগ,street,,,,Bangladesh,Dhaka,Gazipur,Kaliakair,KaliakairPaurashava,48b9cf3d7bf6d79f62992d71038b2eb1
3188,724774709,893cf11630bffff,24.06488447028438,90.21580981684811,ঢাকা - টাঙ্গাইল মহাসড়ক,"-, Dhaka - Tangail Highway, Gazipur District, Dhaka Division, Bangladesh","ঢাকা টাঙ্গাইল মহাসড়ক, ঢাকা - টাঙ্গাইল মহাসড়ক, গাজীপুর জেলা, ঢাকা বিভাগ, বাংলাদেশ",,"ঢাকা - টাঙ্গাইল মহাসড়ক, ","['ঢাকা - টাঙ্গাইল মহাসড়ক', 'Dhaka - Tangail Highway']",,বাংলাদেশ,ঢাকা বিভাগ,street,,,,Bangladesh,Dhaka,Gazipur,Kaliakair,Sreefaltali,fe0f7c3e9b132d9b39c7fc03266d8e32
3225,724774708,893cf116373ffff,24.062949726716965,90.21909972121526,ঢাকা - টাঙ্গাইল মহাসড়ক,"-, Dhaka - Tangail Highway, Gazipur District, Dhaka Division, Bangladesh","ঢাকা টাঙ্গাইল মহাসড়ক, ঢাকা - টাঙ্গাইল মহাসড়ক, গাজীপুর জেলা, ঢাকা বিভাগ, বাংলাদেশ",,"ঢাকা - টাঙ্গাইল মহাসড়ক, ","['ঢাকা - টাঙ্গাইল মহাসড়ক', 'Dhaka - Tangail Highway']",,বাংলাদেশ,ঢাকা বিভাগ,street,,,,Bangladesh,Dhaka,Gazipur,Kaliakair,Sreefaltali,fe0f7c3e9b132d9b39c7fc03266d8e32
3227,540661493,893cf131133ffff,23.92838798,90.52195223,Daripara Holy Family Church,"Daripara Holy Family Church, Gazipur District, Dhaka Division, Bangladesh","গাজীপুর জেলা, ঢাকা বিভাগ, বাংলাদেশ","Daripara Holy Family Church, ",,,,বাংলাদেশ,ঢাকা বিভাগ,admin2,boundaries,['place_of_worship'],[],Bangladesh,Dhaka,Gazipur,Kaliganj,Tumulia,afd09e35f4a72b65a0eff331be7dfb12
3230,540661601,893cf131c43ffff,23.92737975,90.53259947,Taiba Filling Station,"Taiba Filling Station, Gazipur District, Dhaka Division, Bangladesh","গাজীপুর জেলা, ঢাকা বিভাগ, বাংলাদেশ","Taiba Filling Station, ",,,,বাংলাদেশ,ঢাকা বিভাগ,admin2,boundaries,['fuel'],[],Bangladesh,Dhaka,Gazipur,Kaliganj,Tumulia,afd09e35f4a72b65a0eff331be7dfb12
3232,540661681,893cf131c43ffff,23.92709193,90.53450219,Hazrat Ibrahim Al Jame Masjid হযরত ইব্রাহিম আল জামে মসজিদ,"Hazrat Ibrahim Al Jame Masjid, Gazipur District, Dhaka Division, Bangladesh","হযরত ইব্রাহিম আল জামে মসজিদ, গাজীপুর জেলা, ঢাকা বিভাগ, বাংলাদেশ",,,,,বাংলাদেশ,ঢাকা বিভাগ,admin2,boundaries,['place_of_worship_muslim'],[],Bangladesh,Dhaka,Gazipur,Kaliganj,Tumulia,afd09e35f4a72b65a0eff331be7dfb12
3237,540661889,893cf131c47ffff,23.92734353,90.53882748,Al-Aqsa Jame Masjid আল-আকসা জামে মসজিদ,"Al-Aqsa Jame Masjid, Gazipur District, Dhaka Division, Bangladesh","আল-আকসা জামে মসজিদ, গাজীপুর জেলা, ঢাকা বিভাগ, বাংলাদেশ",,,,,বাংলাদেশ,ঢাকা বিভাগ,admin2,boundaries,['place_of_worship_muslim'],[],Bangladesh,Dhaka,Gazipur,Kaliganj,Tumulia,afd09e35f4a72b65a0eff331be7dfb12
3239,540662351,893cf131c63ffff,23.92642292,90.5450862,St. John's Church সাধু জনের গির্জা,"St. John's Church, Gazipur District, Dhaka Division, Bangladesh","সাধু জনের গির্জা, গাজীপুর জেলা, ঢাকা বিভাগ, বাংলাদেশ",,,,,বাংলাদেশ,ঢাকা বিভাগ,admin2,boundaries,['place_of_worship'],[],Bangladesh,Dhaka,Gazipur,Kaliganj,Tumulia,afd09e35f4a72b65a0eff331be7dfb12
3242,540662633,893cf13188fffff,23.92481753,90.55508111,Bou Bazar Market বউ বাজার মার্কেট,"Bou Bazar Market, Kaliganj Upazila, Gazipur District, Dhaka Division, Bangladesh","বউ বাজার মার্কেট, কালিগঞ্জ উপজেলা, গাজীপুর জেলা, ঢাকা বিভাগ, বাংলাদেশ",,,,কালিগঞ্জ উপজেলা,বাংলাদেশ,ঢাকা বিভাগ,local_admin,boundaries,['marketplace'],[],Bangladesh,Dhaka,Gazipur,KaliganjPaurashava,Kaliganj,f4afc5effd4201a552fbb76c1f832a2c
3246,540662955,893cf1318b3ffff,23.92765394,90.56199931,Uttara Bijoy Filling Station উত্তরা বিজয় ফিলিং স্টেশনে,"Uttara Bijoy Filling Station, Kaliganj Upazila, Gazipur District, Dhaka Division, Bangladesh","উত্তরা বিজয় ফিলিং স্টেশনে, কালিগঞ্জ উপজেলা, গাজীপুর জেলা, ঢাকা বিভাগ, বাংলাদেশ",,,,কালিগঞ্জ উপজেলা,বাংলাদেশ,ঢাকা বিভাগ,local_admin,boundaries,['fuel'],[],Bangladesh,Dhaka,Gazipur,KaliganjPaurashava,Kaliganj,f4afc5effd4201a552fbb76c1f832a2c
3249,540663483,893cf131833ffff,23.92196807,90.56388008,"Darishom Burying Mosque,Kailgonj,Gazipur.","Darishom Burying Mosque Kailgonj Gazipur., Kaliganj Upazila, Gazipur District, Dhaka Division, Bangladesh","কালিগঞ্জ উপজেলা, গাজীপুর জেলা, ঢাকা বিভাগ, বাংলাদেশ","Darishom Burying Mosque Kailgonj Gazipur., ",,,কালিগঞ্জ উপজেলা,বাংলাদেশ,ঢাকা বিভাগ,local_admin,boundaries,['place_of_worship_muslim'],[],Bangladesh,Dhaka,Gazipur,KaliganjPaurashava,Kaliganj,f4afc5effd4201a552fbb76c1f832a2c
3253,540663919,893cf131833ffff,23.91993937,90.5652262,Kaliganj Post Office কালীগঞ্জ পোষ্ট অফিস,"Kaliganj Post Office, Kaliganj Upazila, Gazipur District, Dhaka Division, Bangladesh","কালীগঞ্জ পোষ্ট অফিস, কালিগঞ্জ উপজেলা, গাজীপুর জেলা, ঢাকা বিভাগ, বাংলাদেশ",,,,কালিগঞ্জ উপজেলা,বাংলাদেশ,ঢাকা বিভাগ,local_admin,boundaries,['post_office'],[],Bangladesh,Dhaka,Gazipur,KaliganjPaurashava,Kaliganj,f4afc5effd4201a552fbb76c1f832a2c
3258,540909021,893cf131823ffff,23.91977855,90.56651644,Kaligonj Kendrio Masjid,"Kaligonj Kendrio Masjid, Kaliganj Upazila, Gazipur District, Dhaka Division, Bangladesh","কালিগঞ্জ উপজেলা, গাজীপুর জেলা, ঢাকা বিভাগ, বাংলাদেশ","Kaligonj Kendrio Masjid, ",,,কালিগঞ্জ উপজেলা,বাংলাদেশ,ঢাকা বিভাগ,local_admin,boundaries,['place_of_worship_muslim'],[],Bangladesh,Dhaka,Gazipur,KaliganjPaurashava,Kaliganj,f4afc5effd4201a552fbb76c1f832a2c
3262,540909444,893cf131833ffff,23.92114963,90.56595237,সোনালী ব্যাংক লিমিটেড,"Kaliganj Upazila, Gazipur District, Dhaka Division, Bangladesh","সোনালী ব্যাংক লিমিটেড, কালিগঞ্জ উপজেলা, গাজীপুর জেলা, ঢাকা বিভাগ, বাংলাদেশ",,"সোনালী ব্যাংক লিমিটেড, ",['Sonali Bank Limited'],কালিগঞ্জ উপজেলা,বাংলাদেশ,ঢাকা বিভাগ,local_admin,boundaries,['bank'],[],Bangladesh,Dhaka,Gazipur,KaliganjPaurashava,Kaliganj,f4afc5effd4201a552fbb76c1f832a2c
3266,540909484,893cf131837ffff,23.92117575,90.56625271,বাংলাদেশ কৃষি ব্যাংক,"Kaliganj Upazila, Gazipur District, Dhaka Division, Bangladesh","বাংলাদেশ কৃষি ব্যাংক, কালিগঞ্জ উপজেলা, গাজীপুর জেলা, ঢাকা বিভাগ, বাংলাদেশ",,"বাংলাদেশ কৃষি ব্যাংক, ",['Krishi Bank'],কালিগঞ্জ উপজেলা,বাংলাদেশ,ঢাকা বিভাগ,local_admin,boundaries,['bank'],[],Bangladesh,Dhaka,Gazipur,KaliganjPaurashava,Kaliganj,f4afc5effd4201a552fbb76c1f832a2c
3269,540909564,893cf131837ffff,23.92119361,90.56655716,পূবালী ব্যাংক লিমিটেড,"Kaliganj Upazila, Gazipur District, Dhaka Division, Bangladesh","পূবালী ব্যাংক লিমিটেড, কালিগঞ্জ উপজেলা, গাজীপুর জেলা, ঢাকা বিভাগ, বাংলাদেশ",,"পূবালী ব্যাংক লিমিটেড, ",['Pubali Bank Limited'],কালিগঞ্জ উপজেলা,বাংলাদেশ,ঢাকা বিভাগ,local_admin,boundaries,['bank'],[],Bangladesh,Dhaka,Gazipur,KaliganjPaurashava,Kaliganj,f4afc5effd4201a552fbb76c1f832a2c
3273,540910673,893cf131837ffff,23.92158653,90.56650099,"UCBL, Kaligonj Branch","UCBL Kaligonj Branch, Kaliganj Upazila, Gazipur District, Dhaka Division, Bangladesh","কালিগঞ্জ উপজেলা, গাজীপুর জেলা, ঢাকা বিভাগ, বাংলাদেশ","UCBL Kaligonj Branch, ",,,কালিগঞ্জ উপজেলা,বাংলাদেশ,ঢাকা বিভাগ,local_admin,boundaries,['bank'],[],Bangladesh,Dhaka,Gazipur,KaliganjPaurashava,Kaliganj,f4afc5effd4201a552fbb76c1f832a2c
3275,540910857,893cf131837ffff,23.92150999,90.56786688,ডাচ বাংলা ব্যাংক,"Kaliganj Upazila, Gazipur District, Dhaka Division, Bangladesh","ডাচ বাংলা ব্যাংক, কালিগঞ্জ উপজেলা, গাজীপুর জেলা, ঢাকা বিভাগ, বাংলাদেশ",,"ডাচ বাংলা ব্যাংক, ",['Dutch Bangla Bank'],কালিগঞ্জ উপজেলা,বাংলাদেশ,ঢাকা বিভাগ,local_admin,boundaries,['bank'],[],Bangladesh,Dhaka,Gazipur,KaliganjPaurashava,Kaliganj,f4afc5effd4201a552fbb76c1f832a2c
3278,540911271,893cf131837ffff,23.92099376,90.56881616,Police Station Mosque থানার মসজিদ,"Police Station Mosque, Kaliganj Upazila, Gazipur District, Dhaka Division, Bangladesh","থানার মসজিদ, কালিগঞ্জ উপজেলা, গাজীপুর জেলা, ঢাকা বিভাগ, বাংলাদেশ",,,,কালিগঞ্জ উপজেলা,বাংলাদেশ,ঢাকা বিভাগ,local_admin,boundaries,['place_of_worship_muslim'],[],Bangladesh,Dhaka,Gazipur,KaliganjPaurashava,Kaliganj,f4afc5effd4201a552fbb76c1f832a2c
3281,540911374,893cf131837ffff,23.92144266,90.5685631,Bagerpara Jame Mosque,"Bagerpara Jame Mosque, Kaliganj Upazila, Gazipur District, Dhaka Division, Bangladesh","কালিগঞ্জ উপজেলা, গাজীপুর জেলা, ঢাকা বিভাগ, বাংলাদেশ","Bagerpara Jame Mosque, ",,,কালিগঞ্জ উপজেলা,বাংলাদেশ,ঢাকা বিভাগ,local_admin,boundaries,['place_of_worship_muslim'],[],Bangladesh,Dhaka,Gazipur,KaliganjPaurashava,Kaliganj,f4afc5effd4201a552fbb76c1f832a2c
3285,540911901,893cf131837ffff,23.92235561,90.569127,ZAHURA TRADERS,"ZAHURA TRADERS, Kaliganj Upazila, Gazipur District, Dhaka Division, Bangladesh","কালিগঞ্জ উপজেলা, গাজীপুর জেলা, ঢাকা বিভাগ, বাংলাদেশ","ZAHURA TRADERS, ",,,কালিগঞ্জ উপজেলা,বাংলাদেশ,ঢাকা বিভাগ,local_admin,boundaries,['mall'],[],Bangladesh,Dhaka,Gazipur,KaliganjPaurashava,Kaliganj,f4afc5effd4201a552fbb76c1f832a2c
3287,540912056,893cf131837ffff,23.92262927,90.56909872,Ekota Pharmecy,"Ekota Pharmecy, Kaliganj Upazila, Gazipur District, Dhaka Division, Bangladesh","কালিগঞ্জ উপজেলা, গাজীপুর জেলা, ঢাকা বিভাগ, বাংলাদেশ","Ekota Pharmecy, ",,,কালিগঞ্জ উপজেলা,বাংলাদেশ,ঢাকা বিভাগ,local_admin,boundaries,['pharmacy'],[],Bangladesh,Dhaka,Gazipur,KaliganjPaurashava,Kaliganj,f4afc5effd4201a552fbb76c1f832a2c
3289,48492975,893cf115d7bffff,23.99359658564579,90.26690285549616,জিরানি - কাশিমপুর সড়ক,"-, Zirani Kashimpur Road, Savar Subdistrict, Gazipur District, Dhaka Division, Bangladesh","জিরানি কাশিমপুর সড়ক, সাভার উপজেলা, গাজীপুর জেলা, ঢাকা বিভাগ, বাংলাদেশ",,"জিরানি - কাশিমপুর সড়ক, ",['Zirani Kashimpur Road'],সাভার উপজেলা,বাংলাদেশ,ঢাকা বিভাগ,street,,,,Bangladesh,Dhaka,Gazipur,GazipurSadar,Kashimpur,596d4fe0ab52adf10ed231d3e7b84ebc
3290,540912253,893cf1319c3ffff,23.92433217,90.57283226,Upazila Rest House উপজেলা রেস্ট হাউজ,"Upazila Rest House, Kaliganj Upazila, Gazipur District, Dhaka Division, Bangladesh","উপজেলা রেস্ট হাউজ, কালিগঞ্জ উপজেলা, গাজীপুর জেলা, ঢাকা বিভাগ, বাংলাদেশ",,,,কালিগঞ্জ উপজেলা,বাংলাদেশ,ঢাকা বিভাগ,local_admin,boundaries,['guest_house'],[],Bangladesh,Dhaka,Gazipur,KaliganjPaurashava,Kaliganj,f4afc5effd4201a552fbb76c1f832a2c
3292,48492975,893cf115d7bffff,23.99359658564579,90.26690285549616,জিরানি - কাশিমপুর সড়ক,"-, Zirani Kashimpur Road, Savar Subdistrict, Dhaka District, Dhaka Division, Bangladesh","জিরানি কাশিমপুর সড়ক, সাভার উপজেলা, ঢাকা জেলা, ঢাকা বিভাগ, বাংলাদেশ",,"জিরানি - কাশিমপুর সড়ক, ",['Zirani Kashimpur Road'],সাভার উপজেলা,বাংলাদেশ,ঢাকা বিভাগ,street,,,,Bangladesh,Dhaka,Gazipur,GazipurSadar,Kashimpur,596d4fe0ab52adf10ed231d3e7b84ebc
3293,540915241,893cf13191bffff,23.92545637,90.57717654,Nazamuddin Mamber Bari Jame Masjid,"Nazamuddin Mamber Bari Jame Masjid, Kaliganj Upazila, Gazipur District, Dhaka Division, Bangladesh","কালিগঞ্জ উপজেলা, গাজীপুর জেলা, ঢাকা বিভাগ, বাংলাদেশ","Nazamuddin Mamber Bari Jame Masjid, ",,,কালিগঞ্জ উপজেলা,বাংলাদেশ,ঢাকা বিভাগ,local_admin,boundaries,['place_of_worship_muslim'],[],Bangladesh,Dhaka,Gazipur,KaliganjPaurashava,Kaliganj,f4afc5effd4201a552fbb76c1f832a2c
3296,540920099,893cf131d6bffff,23.92878799,90.56756325,Boronagor Mosque,"Boronagor Mosque, Kaliganj Upazila, Gazipur District, Dhaka Division, Bangladesh","কালিগঞ্জ উপজেলা, গাজীপুর জেলা, ঢাকা বিভাগ, বাংলাদেশ","Boronagor Mosque, ",,,কালিগঞ্জ উপজেলা,বাংলাদেশ,ঢাকা বিভাগ,local_admin,boundaries,['place_of_worship_muslim'],[],Bangladesh,Dhaka,Gazipur,KaliganjPaurashava,Kaliganj,f4afc5effd4201a552fbb76c1f832a2c
3300,540920835,893cf131917ffff,23.92708946,90.5815934,Baligaon Eidgah Mosque বালীগাও ঈদ্গাহ মসজিদ,"Baligaon Eidgah Mosque, Kaliganj Upazila, Gazipur District, Dhaka Division, Bangladesh","বালীগাও ঈদ্গাহ মসজিদ, কালিগঞ্জ উপজেলা, গাজীপুর জেলা, ঢাকা বিভাগ, বাংলাদেশ",,,,কালিগঞ্জ উপজেলা,বাংলাদেশ,ঢাকা বিভাগ,local_admin,boundaries,['place_of_worship_muslim'],[],Bangladesh,Dhaka,Gazipur,KaliganjPaurashava,Kaliganj,f4afc5effd4201a552fbb76c1f832a2c
3303,540921563,893cf131987ffff,23.93257074,90.58081263,Chowra purbo para jame mosjid,"Chowra purbo para jame mosjid, Kaliganj Upazila, Gazipur District, Dhaka Division, Bangladesh","কালিগঞ্জ উপজেলা, গাজীপুর জেলা, ঢাকা বিভাগ, বাংলাদেশ","Chowra purbo para jame mosjid, ",,,কালিগঞ্জ উপজেলা,বাংলাদেশ,ঢাকা বিভাগ,local_admin,boundaries,['place_of_worship_muslim'],[],Bangladesh,Dhaka,Gazipur,KaliganjPaurashava,Kaliganj,f4afc5effd4201a552fbb76c1f832a2c
3306,540921759,893cf1224d7ffff,23.93505425,90.59686615,Bagerpara Jame Mosque,"Bagerpara Jame Mosque, Kaliganj Upazila, Gazipur District, Dhaka Division, Bangladesh","কালিগঞ্জ উপজেলা, গাজীপুর জেলা, ঢাকা বিভাগ, বাংলাদেশ","Bagerpara Jame Mosque, ",,,কালিগঞ্জ উপজেলা,বাংলাদেশ,ঢাকা বিভাগ,local_admin,boundaries,['place_of_worship_muslim'],[],Bangladesh,Dhaka,Gazipur,KaliganjPaurashava,Kaliganj,f4afc5effd4201a552fbb76c1f832a2c
3332,618352149,893cf1158bbffff,23.985932606447243,90.25930649449096,নবীনগর - চন্দ্রা মহাসড়ক,"-, Nabinagar - Chandra Highway, Savar Subdistrict, Gazipur District, Dhaka Division, Bangladesh","নবীনগর চন্দ্রা মহাসড়ক, নবীনগর - চন্দ্রা মহাসড়ক, সাভার উপজেলা, গাজীপুর জেলা, ঢাকা বিভাগ, বাংলাদেশ",,"নবীনগর - চন্দ্রা মহাসড়ক, ","['নবীনগর - চন্দ্রা মহাসড়ক', 'Nabinagar - Chandra Highway']",সাভার উপজেলা,বাংলাদেশ,ঢাকা বিভাগ,street,,,,Bangladesh,Dhaka,Gazipur,GazipurSadar,Kashimpur,596d4fe0ab52adf10ed231d3e7b84ebc
3335,618352149,893cf1158bbffff,23.985932606447243,90.25930649449096,নবীনগর - চন্দ্রা মহাসড়ক,"-, Nabinagar - Chandra Highway, Savar Subdistrict, Dhaka District, Dhaka Division, Bangladesh","নবীনগর চন্দ্রা মহাসড়ক, নবীনগর - চন্দ্রা মহাসড়ক, সাভার উপজেলা, ঢাকা জেলা, ঢাকা বিভাগ, বাংলাদেশ",,"নবীনগর - চন্দ্রা মহাসড়ক, ","['নবীনগর - চন্দ্রা মহাসড়ক', 'Nabinagar - Chandra Highway']",সাভার উপজেলা,বাংলাদেশ,ঢাকা বিভাগ,street,,,,Bangladesh,Dhaka,Gazipur,GazipurSadar,Kashimpur,596d4fe0ab52adf10ed231d3e7b84ebc
3446,548899248,893cf131833ffff,23.92019828,90.56615912,Kaliganj R.R.N. Pilot Govt. High School,"Kaliganj R.R.N. Pilot Govt. High School, Kaliganj Upazila, Gazipur District, Dhaka Division, Bangladesh","কালিগঞ্জ উপজেলা, গাজীপুর জেলা, ঢাকা বিভাগ, বাংলাদেশ","Kaliganj R.R.N. Pilot Govt. High School, ",,,কালিগঞ্জ উপজেলা,বাংলাদেশ,ঢাকা বিভাগ,local_admin,boundaries,['school'],[],Bangladesh,Dhaka,Gazipur,KaliganjPaurashava,Kaliganj,f4afc5effd4201a552fbb76c1f832a2c
3461,589783795,893cf1066c7ffff,23.97174894178766,90.29627516696836,"Sreepur - Kashimpur Road, Baipayl","Sreepur - Kashimpur Road Baipayl, Savar Subdistrict, Gazipur District, Dhaka Division, Bangladesh","সাভার উপজেলা, গাজীপুর জেলা, ঢাকা বিভাগ, বাংলাদেশ",Sreepur - Kashimpur Road Baipayl,,,সাভার উপজেলা,বাংলাদেশ,ঢাকা বিভাগ,street,,,,Bangladesh,Dhaka,Gazipur,GazipurSadar,Kashimpur,596d4fe0ab52adf10ed231d3e7b84ebc
3464,589783795,893cf1066c7ffff,23.97174894178766,90.29627516696836,"Sreepur - Kashimpur Road, Baipayl","Sreepur - Kashimpur Road Baipayl, Savar Subdistrict, Dhaka District, Dhaka Division, Bangladesh","সাভার উপজেলা, ঢাকা জেলা, ঢাকা বিভাগ, বাংলাদেশ",Sreepur - Kashimpur Road Baipayl,,,সাভার উপজেলা,বাংলাদেশ,ঢাকা বিভাগ,street,,,,Bangladesh,Dhaka,Gazipur,GazipurSadar,Kashimpur,596d4fe0ab52adf10ed231d3e7b84ebc
3523,503728957,893cf116067ffff,24.07935609020036,90.20779161449086,Old Dhaka-Tangail Road,"Old Dhaka-Tangail Road, Gazipur District, Dhaka Division, Bangladesh","গাজীপুর জেলা, ঢাকা বিভাগ, বাংলাদেশ",Old Dhaka-Tangail Road,,,,বাংলাদেশ,ঢাকা বিভাগ,street,,,,Bangladesh,Dhaka,Gazipur,Kaliakair,KaliakairPaurashava,48b9cf3d7bf6d79f62992d71038b2eb1
3624,819005658,893cf114eabffff,24.026055255174576,90.27573162189286,Dhaka - Tangail Highway,"Dhaka - Tangail Highway, Gazipur District, Dhaka Division, Bangladesh","গাজীপুর জেলা, ঢাকা বিভাগ, বাংলাদেশ",Dhaka - Tangail Highway,,['Dhaka - Tangail Highway'],,বাংলাদেশ,ঢাকা বিভাগ,street,,,,Bangladesh,Dhaka,Gazipur,Kaliakair,Mouchak,bdc76e7f241bb84a7b8fbe159eda9049
3640,684475470,893cf131897ffff,23.928510029999998,90.5538478,আড়ীখোলা,"Kaliganj Upazila, Gazipur District, Dhaka Division, Bangladesh","আড়ীখোলা, কালিগঞ্জ উপজেলা, গাজীপুর জেলা, ঢাকা বিভাগ, বাংলাদেশ",,"আড়ীখোলা, ",,কালিগঞ্জ উপজেলা,বাংলাদেশ,ঢাকা বিভাগ,local_admin,boundaries,['railway_station'],[],Bangladesh,Dhaka,Gazipur,KaliganjPaurashava,Kaliganj,f4afc5effd4201a552fbb76c1f832a2c
3646,586570991,893cf11402bffff,24.02814384297564,90.23741218500653,Jalshuka Road,"Jalshuka Road, Gazipur District, Dhaka Division, Bangladesh","গাজীপুর জেলা, ঢাকা বিভাগ, বাংলাদেশ",Jalshuka Road,,,,বাংলাদেশ,ঢাকা বিভাগ,street,,,,Bangladesh,Dhaka,Gazipur,Kaliakair,Atabaha,63f324f52e8614e7edfedfa3eb692a14
3722,934326120,893cf1313bbffff,23.91030739,90.51122682,St. Antonio de Pada,"St. Antonio de Pada, Gazipur District, Dhaka Division, Bangladesh","গাজীপুর জেলা, ঢাকা বিভাগ, বাংলাদেশ","St. Antonio de Pada, ",,,,বাংলাদেশ,ঢাকা বিভাগ,admin2,boundaries,['place_of_worship_christian'],[],Bangladesh,Dhaka,Gazipur,Kaliganj,Nagari,5c5a5790718019f1b8d702352b17e001
3768,1053817693,893cf114563ffff,24.0467385856642,90.24030698925985,Dhaka - Tangail Highway,"Dhaka - Tangail Highway, Gazipur District, Dhaka Division, Bangladesh","গাজীপুর জেলা, ঢাকা বিভাগ, বাংলাদেশ",Dhaka - Tangail Highway,,['Dhaka - Tangail Highway'],,বাংলাদেশ,ঢাকা বিভাগ,street,,,,Bangladesh,Dhaka,Gazipur,Kaliakair,Atabaha,63f324f52e8614e7edfedfa3eb692a14
3794,349635795,893cf116393ffff,24.080237209321403,90.20937500325874,Mawna - Kaliakair Road,"Mawna - Kaliakair Road, Gazipur District, Dhaka Division, Bangladesh","গাজীপুর জেলা, ঢাকা বিভাগ, বাংলাদেশ",Mawna - Kaliakair Road,,,,বাংলাদেশ,ঢাকা বিভাগ,street,,,,Bangladesh,Dhaka,Gazipur,Kaliakair,KaliakairPaurashava,48b9cf3d7bf6d79f62992d71038b2eb1
3842,1033227903,893cf11598bffff,23.990079237050075,90.27869680669357,ভবানীপুর-লতিফপুর রোড,"Gazipur District, Dhaka Division, Bangladesh","ভবানীপুর-লতিফপুর রোড, গাজীপুর জেলা, ঢাকা বিভাগ, বাংলাদেশ",,ভবানীপুর-লতিফপুর রোড,,,বাংলাদেশ,ঢাকা বিভাগ,street,,,,Bangladesh,Dhaka,Gazipur,GazipurSadar,Kashimpur,596d4fe0ab52adf10ed231d3e7b84ebc
3903,274830723,893cf116303ffff,24.069256956365027,90.21742950550657,পুরান ঢাকা-টাঙ্গাইল সড়ক,"Old Dhaka-Tangail Road, Gazipur District, Dhaka Division, Bangladesh","পুরান ঢাকা-টাঙ্গাইল সড়ক, গাজীপুর জেলা, ঢাকা বিভাগ, বাংলাদেশ",,"পুরান ঢাকা-টাঙ্গাইল সড়ক, ","['পুরান ঢাকা-টাঙ্গাইল সড়ক', 'Old Dhaka-Tangail Road']",,বাংলাদেশ,ঢাকা বিভাগ,street,,,,Bangladesh,Dhaka,Gazipur,Kaliakair,KaliakairPaurashava,48b9cf3d7bf6d79f62992d71038b2eb1
3923,9200008084,893cf114e07ffff,24.0253091,90.2748971,শফিপুর,"Shafipur, Gazipur District, Dhaka Division, Bangladesh","শফিপুর, গাজীপুর জেলা, ঢাকা বিভাগ, বাংলাদেশ",,"শফিপুর, ","['শফিপুর', 'Shafipur']",,বাংলাদেশ,ঢাকা বিভাগ,locality,,,,Bangladesh,Dhaka,Gazipur,Kaliakair,Mouchak,bdc76e7f241bb84a7b8fbe159eda9049
3938,4491897790,893cf1ac363ffff,24.1018097,90.5943875,,,,,,,কাপাসিয়া উপজেলা,বাংলাদেশ,ঢাকা বিভাগ,housenumber,,,,Bangladesh,Dhaka,Gazipur,Kapasia,Durgapur,9c4abd5b2c304fd5f80acee03c890354
3951,2895149455,893cf114563ffff,24.0472727,90.2384011,চন্দ্রা,"Chandra, Gazipur District, Dhaka Division, Bangladesh","চন্দ্রা, গাজীপুর জেলা, ঢাকা বিভাগ, বাংলাদেশ",,"চন্দ্রা, ",['Chandra'],,বাংলাদেশ,ঢাকা বিভাগ,locality,,,,Bangladesh,Dhaka,Gazipur,Kaliakair,Atabaha,63f324f52e8614e7edfedfa3eb692a14
3966,9137760438,893cf116393ffff,24.0775779,90.2097272,কালিয়াকৈর,"Kaliakair, Gazipur District, Dhaka Division, Bangladesh","কালিয়াকৈর, গাজীপুর জেলা, ঢাকা বিভাগ, বাংলাদেশ",,"কালিয়াকৈর, ","['কালিয়াকৈর', 'Kaliakair']",,বাংলাদেশ,ঢাকা বিভাগ,locality,,,,Bangladesh,Dhaka,Gazipur,Kaliakair,KaliakairPaurashava,48b9cf3d7bf6d79f62992d71038b2eb1
3970,3977928771,893cf1b9067ffff,24.1279162,90.2435466,Chapair,"Chapair, Gazipur District, Dhaka Division, Bangladesh","গাজীপুর জেলা, ঢাকা বিভাগ, বাংলাদেশ","Chapair, ",,,,বাংলাদেশ,ঢাকা বিভাগ,locality,,,,Bangladesh,Dhaka,Gazipur,Kaliakair,Chapair,9096fc8d2ceda155688d5ed89d29c07c
4047,9480551969,893cf1ad967ffff,24.0716799,90.6328375,,"Kapasia, Gazipur District, Dhaka Division, Bangladesh","কাপাসিয়া উপজেলা, গাজীপুর জেলা, ঢাকা বিভাগ, বাংলাদেশ",,,,কাপাসিয়া উপজেলা,বাংলাদেশ,ঢাকা বিভাগ,local_admin,boundaries,['ferry_terminal'],[],Bangladesh,Dhaka,Gazipur,Kapasia,Durgapur,9c4abd5b2c304fd5f80acee03c890354
4062,9487712650,893cc4db4bbffff,24.1954045,90.6576355,,"Kapasia, Gazipur District, Dhaka Division, Bangladesh","কাপাসিয়া উপজেলা, গাজীপুর জেলা, ঢাকা বিভাগ, বাংলাদেশ",,,,কাপাসিয়া উপজেলা,বাংলাদেশ,ঢাকা বিভাগ,local_admin,boundaries,['ford'],[],Bangladesh,Dhaka,Gazipur,Kapasia,Barishaba,4f313be8ca822f7763500a7824cf549c
4099,3977920851,893cf11462bffff,24.0215032,90.2153854,Atabaha,"Atabaha, Gazipur District, Dhaka Division, Bangladesh","গাজীপুর জেলা, ঢাকা বিভাগ, বাংলাদেশ","Atabaha, ",,,,বাংলাদেশ,ঢাকা বিভাগ,locality,,,,Bangladesh,Dhaka,Gazipur,Kaliakair,Atabaha,63f324f52e8614e7edfedfa3eb692a14
4134,9195785051,893cf115c2fffff,23.9933613,90.2537492,জিরানী,"Zirani, Savar Subdistrict, Dhaka District, Dhaka Division, Bangladesh","জিরানী, সাভার উপজেলা, ঢাকা জেলা, ঢাকা বিভাগ, বাংলাদেশ",,"জিরানী, ","['জিরানী', 'Zirani']",সাভার উপজেলা,বাংলাদেশ,ঢাকা বিভাগ,locality,,,,Bangladesh,Dhaka,Gazipur,GazipurSadar,Kashimpur,596d4fe0ab52adf10ed231d3e7b84ebc
4169,3977928768,893cf1b9eabffff,24.1305902,90.2847302,Boali,"Boali, Gazipur District, Dhaka Division, Bangladesh","গাজীপুর জেলা, ঢাকা বিভাগ, বাংলাদেশ","Boali, ",,,,বাংলাদেশ,ঢাকা বিভাগ,locality,,,,Bangladesh,Dhaka,Gazipur,Kaliakair,Boali,38df94bcb32e443a944bf153c0910ad1
4172,383708835,893cf1ad63bffff,24.06686835913936,90.5161448981769,Abdul Kabir Sikder Road,"Abdul Kabir Sikder Road, Kapasia, Gazipur District, Dhaka Division, Bangladesh","কাপাসিয়া উপজেলা, গাজীপুর জেলা, ঢাকা বিভাগ, বাংলাদেশ",Abdul Kabir Sikder Road,,,কাপাসিয়া উপজেলা,বাংলাদেশ,ঢাকা বিভাগ,street,,,,Bangladesh,Dhaka,Gazipur,Kapasia,Chandpur,d4a115e5c9fb7a470296854b15b69fb2
4188,9200099371,893cf11599bffff,23.9929577,90.2776959,ভবানীপুর,"Bhabanipur, Gazipur District, Dhaka Division, Bangladesh","ভবানীপুর, গাজীপুর জেলা, ঢাকা বিভাগ, বাংলাদেশ",,"ভবানীপুর, ","['ভবানীপুর', 'Bhabanipur']",,বাংলাদেশ,ঢাকা বিভাগ,locality,,,,Bangladesh,Dhaka,Gazipur,GazipurSadar,Kashimpur,596d4fe0ab52adf10ed231d3e7b84ebc
4197,3977928803,893cf11480bffff,24.0273773,90.2958494,মৌচাক,"Mouchak, Gazipur District, Dhaka Division, Bangladesh","মৌচাক, গাজীপুর জেলা, ঢাকা বিভাগ, বাংলাদেশ",,"মৌচাক, ","['মৌচাক', 'Mouchak']",,বাংলাদেশ,ঢাকা বিভাগ,locality,,,,Bangladesh,Dhaka,Gazipur,Kaliakair,Mouchak,bdc76e7f241bb84a7b8fbe159eda9049
4211,3977928811,893cf11630fffff,24.0672894,90.2183155,শ্রীফলতলী,"Srifoltoli, Gazipur District, Dhaka Division, Bangladesh","শ্রীফলতলী, গাজীপুর জেলা, ঢাকা বিভাগ, বাংলাদেশ",,"শ্রীফলতলী, ","['শ্রীফলতলী', 'Srifoltoli']",,বাংলাদেশ,ঢাকা বিভাগ,locality,,,,Bangladesh,Dhaka,Gazipur,Kaliakair,Sreefaltali,fe0f7c3e9b132d9b39c7fc03266d8e32
4230,683373089,893cf131883ffff,23.925331749720186,90.55315386248304,Arikhola-Boali Road,"Arikhola-Boali Road, Kaliganj Upazila, Gazipur District, Dhaka Division, Bangladesh","কালিগঞ্জ উপজেলা, গাজীপুর জেলা, ঢাকা বিভাগ, বাংলাদেশ",Arikhola-Boali Road,,['Bou Bazar Market Road'],কালিগঞ্জ উপজেলা,বাংলাদেশ,ঢাকা বিভাগ,street,,,,Bangladesh,Dhaka,Gazipur,KaliganjPaurashava,Kaliganj,f4afc5effd4201a552fbb76c1f832a2c
4249,383711199,893cf1a8937ffff,24.08641078586716,90.50255541279839,Raja Bari Road,"Raja Bari Road, Kapasia, Gazipur District, Dhaka Division, Bangladesh","কাপাসিয়া উপজেলা, গাজীপুর জেলা, ঢাকা বিভাগ, বাংলাদেশ",Raja Bari Road,,,কাপাসিয়া উপজেলা,বাংলাদেশ,ঢাকা বিভাগ,street,,,,Bangladesh,Dhaka,Gazipur,Sreepur,Rajabari,058429620bccc25eabd39bc5fb09526f
4251,383711199,893cf1a8937ffff,24.08641078586716,90.50255541279839,Raja Bari Road,"Raja Bari Road, Sreepur Gazipur, Gazipur District, Dhaka Division, Bangladesh","গাজীপুর জেলা, ঢাকা বিভাগ, বাংলাদেশ",Raja Bari Road,,,Sreepur (Gazipur),বাংলাদেশ,ঢাকা বিভাগ,street,,,,Bangladesh,Dhaka,Gazipur,Sreepur,Rajabari,058429620bccc25eabd39bc5fb09526f
4259,383708458,893cf1ad63bffff,24.067092472578683,90.5169602935298,Sayed Ali Sikder Road,"Sayed Ali Sikder Road, Kapasia, Gazipur District, Dhaka Division, Bangladesh","কাপাসিয়া উপজেলা, গাজীপুর জেলা, ঢাকা বিভাগ, বাংলাদেশ",Sayed Ali Sikder Road,,,কাপাসিয়া উপজেলা,বাংলাদেশ,ঢাকা বিভাগ,street,,,,Bangladesh,Dhaka,Gazipur,Kapasia,Chandpur,d4a115e5c9fb7a470296854b15b69fb2
4278,1042585084,893cf1ac1cfffff,24.13128605,90.58979495,Monohordhi-Kapasia Road,"Monohordhi-Kapasia Road, Kapasia, Gazipur District, Dhaka Division, Bangladesh","কাপাসিয়া উপজেলা, গাজীপুর জেলা, ঢাকা বিভাগ, বাংলাদেশ",Monohordhi-Kapasia Road,,,কাপাসিয়া উপজেলা,বাংলাদেশ,ঢাকা বিভাগ,street,,,,Bangladesh,Dhaka,Gazipur,Kapasia,Targaon,e3c52c28bad3c932ee2b12d95ffb63be
4298,1042585083,893cf1ac033ffff,24.126190725917873,90.5790750197926,Monohordhi-Kapasia Road,"Monohordhi-Kapasia Road, Kapasia, Gazipur District, Dhaka Division, Bangladesh","কাপাসিয়া উপজেলা, গাজীপুর জেলা, ঢাকা বিভাগ, বাংলাদেশ",Monohordhi-Kapasia Road,,,কাপাসিয়া উপজেলা,বাংলাদেশ,ঢাকা বিভাগ,street,,,,Bangladesh,Dhaka,Gazipur,Kapasia,Targaon,e3c52c28bad3c932ee2b12d95ffb63be
4327,10015545291,893cf1ac857ffff,24.1188858,90.6342157,,"Kapasia, Gazipur District, Dhaka Division, Bangladesh","কাপাসিয়া উপজেলা, গাজীপুর জেলা, ঢাকা বিভাগ, বাংলাদেশ",,,,কাপাসিয়া উপজেলা,বাংলাদেশ,ঢাকা বিভাগ,local_admin,boundaries,['ford'],[],Bangladesh,Dhaka,Gazipur,Kapasia,Karihata,6a6e78ad0b5fb7f8f150673819915abe
4360,255616054,893cc4db35bffff,24.15144511,90.68431549,Khirati Bazar,"Khirati Bazar, Kapasia, Gazipur District, Dhaka Division, Bangladesh","কাপাসিয়া উপজেলা, গাজীপুর জেলা, ঢাকা বিভাগ, বাংলাদেশ","Khirati Bazar, ",,,কাপাসিয়া উপজেলা,বাংলাদেশ,ঢাকা বিভাগ,local_admin,boundaries,['marketplace'],[],Bangladesh,Dhaka,Gazipur,Kapasia,Ghagotia,446107acf8ea5eba7ffa609cd5395cd0
4362,255617674,893cc4db29bffff,24.15877659,90.66108805,Chalar Bazar,"Chalar Bazar, Kapasia, Gazipur District, Dhaka Division, Bangladesh","কাপাসিয়া উপজেলা, গাজীপুর জেলা, ঢাকা বিভাগ, বাংলাদেশ","Chalar Bazar, ",,,কাপাসিয়া উপজেলা,বাংলাদেশ,ঢাকা বিভাগ,local_admin,boundaries,['marketplace'],[],Bangladesh,Dhaka,Gazipur,Kapasia,Ghagotia,446107acf8ea5eba7ffa609cd5395cd0
4450,712677046,893cf131193ffff,23.936341875440654,90.50746420615489,Kaliganj-Ghorashal Highway,"Kaliganj-Ghorashal Highway, Gazipur District, Dhaka Division, Bangladesh","গাজীপুর জেলা, ঢাকা বিভাগ, বাংলাদেশ",Kaliganj-Ghorashal Highway,,,,বাংলাদেশ,ঢাকা বিভাগ,street,,,,Bangladesh,Dhaka,Gazipur,GazipurSadar,Baria,b2c08d6ac8568e3731ec529c60ed83fb
4451,712677046,893cf131193ffff,23.936341875440654,90.50746420615489,Kaliganj-Ghorashal Highway,"Kaliganj-Ghorashal Highway, Gazipur District, Dhaka Division, Bangladesh","গাজীপুর জেলা, ঢাকা বিভাগ, বাংলাদেশ",Kaliganj-Ghorashal Highway,,,,বাংলাদেশ,ঢাকা বিভাগ,street,,,,Bangladesh,Dhaka,Gazipur,Kaliganj,Nagari,5c5a5790718019f1b8d702352b17e001
4474,420113391,893cc4db66fffff,24.1581804,90.65834865,Rezaul Haque Welfare Trust Hospital,"Rezaul Haque Welfare Trust Hospital, Kapasia, Gazipur District, Dhaka Division, Bangladesh","কাপাসিয়া উপজেলা, গাজীপুর জেলা, ঢাকা বিভাগ, বাংলাদেশ","Rezaul Haque Welfare Trust Hospital, ",,,কাপাসিয়া উপজেলা,বাংলাদেশ,ঢাকা বিভাগ,local_admin,boundaries,['hospital'],[],Bangladesh,Dhaka,Gazipur,Kapasia,Ghagotia,446107acf8ea5eba7ffa609cd5395cd0
