,osm_id,h3level9,lat,lon,name,name_en,name_bn,need_translate_en2bn,need_translate_bn2en,alt_names,local_admin_name,admin0_name,admin2_name,addr_level,poi_addr_match,poi_class,poi_keywords,country,division,district,thana,union,region_hash
551,2344313632,893cf08a123ffff,23.8162206,88.7444092,Gangni Upazila Health Complex,"Gangni Upazila Health Complex, Gangni Upazila, Meherpur District, Khulna Division, Bangladesh","গাংনী উপজেলা, মেহেরপুর জেলা, খুলনা বিভাগ, বাংলাদেশ","Gangni Upazila Health Complex, ",,,গাংনী উপজেলা,বাংলাদেশ,খুলনা বিভাগ,local_admin,boundaries,['hospital'],[],Bangladesh,Khulna,Meherpur,Gangni,GangniPaurashava,b4335c086351e66ec2ba3d5bb393bc32
633,5105598021,893cf081e33ffff,23.8525441,88.7980606,ষোলটাকা (Sholotata),"Sholotata, ","ষোলটাকা, ",,,['Sholotata'],গাংনী উপজেলা,বাংলাদেশ,খুলনা বিভাগ,housenumber,sameSource,['company'],[],Bangladesh,Khulna,Meherpur,Gangni,SholaTaka,10dacabc8c6319215990ea3367f1da97
1053,6696851931,893cf098b77ffff,23.8402548,88.7051647,Aminul Store,"Aminul Store, Bhatpara, Gangni Upazila, Meherpur District, Khulna Division, Bangladesh","ভাটপাড়া, গাংনী উপজেলা, মেহেরপুর জেলা, খুলনা বিভাগ, বাংলাদেশ","Aminul Store, ",,,গাংনী উপজেলা,বাংলাদেশ,খুলনা বিভাগ,locality,boundaries,['department_store'],[],Bangladesh,Khulna,Meherpur,Gangni,Shaharbati,b059dde550d9f4b2378fd1b68e1a9c5c
1056,6716312586,893cf080287ffff,23.8967099,88.7785331,,"Gangni Upazila, Meherpur District, Khulna Division, Bangladesh","গাংনী উপজেলা, মেহেরপুর জেলা, খুলনা বিভাগ, বাংলাদেশ",,,,গাংনী উপজেলা,বাংলাদেশ,খুলনা বিভাগ,local_admin,boundaries,['ford'],[],Bangladesh,Khulna,Meherpur,Gangni,Tentulbaria,ce3c8d159395448094cb68eb628536a2
1062,7076865967,893cf08202fffff,23.9611225,88.7663073,Tekala Mathpara Road,"Tekala Mathpara Road, Gangni Upazila, Meherpur District, Khulna Division, Bangladesh","গাংনী উপজেলা, মেহেরপুর জেলা, খুলনা বিভাগ, বাংলাদেশ","Tekala Mathpara Road, ",,['তেকালা মাঠপাড়া সড়ক'],গাংনী উপজেলা,বাংলাদেশ,খুলনা বিভাগ,local_admin,boundaries,['ford'],[],Bangladesh,Khulna,Meherpur,Gangni,Kazipur,be8933ee5a10bc5f1018a6ed25c5b0b0
1070,7076865968,893cf08202fffff,23.9612389,88.7664418,Baitun Nur Jame Mosque,"Baitun Nur Jame Mosque, ",,"Baitun Nur Jame Mosque, ",,,গাংনী উপজেলা,বাংলাদেশ,খুলনা বিভাগ,housenumber,sameSource,['place_of_worship_muslim'],[],Bangladesh,Khulna,Meherpur,Gangni,Kazipur,be8933ee5a10bc5f1018a6ed25c5b0b0
1086,7076865969,893cf08202fffff,23.9608508,88.7675106,Tekala Bajar Mosque,"Tekala Bajar Mosque, Gangni Upazila, Meherpur District, Khulna Division, Bangladesh","গাংনী উপজেলা, মেহেরপুর জেলা, খুলনা বিভাগ, বাংলাদেশ","Tekala Bajar Mosque, ",,,গাংনী উপজেলা,বাংলাদেশ,খুলনা বিভাগ,local_admin,boundaries,['place_of_worship_muslim'],[],Bangladesh,Khulna,Meherpur,Gangni,Kazipur,be8933ee5a10bc5f1018a6ed25c5b0b0
1121,2407518365,893cf0d584bffff,23.6443935,88.59644779999999,,"Meherpur Sadar Upazila, Meherpur District, Khulna Division, Bangladesh","মেহেরপুর সদর উপজেলা, মেহেরপুর জেলা, খুলনা বিভাগ, বাংলাদেশ",,,,মেহেরপুর সদর উপজেলা,বাংলাদেশ,খুলনা বিভাগ,local_admin,boundaries,['helipad'],[],Bangladesh,Khulna,Meherpur,MujibNagar,Bagoan,3f761bf68d6f8a0194ffb3fee48d06de
1125,3220652331,893cf0d584bffff,23.644479,88.5956231,,"Meherpur Sadar Upazila, Meherpur District, Khulna Division, Bangladesh","মেহেরপুর সদর উপজেলা, মেহেরপুর জেলা, খুলনা বিভাগ, বাংলাদেশ",,,,মেহেরপুর সদর উপজেলা,বাংলাদেশ,খুলনা বিভাগ,local_admin,boundaries,['helipad'],[],Bangladesh,Khulna,Meherpur,MujibNagar,Bagoan,3f761bf68d6f8a0194ffb3fee48d06de
1154,4747259879,893cf0d581bffff,23.653848,88.5985529,Mujibnagar Bus Stop,"Mujibnagar Bus Stop, Meherpur Sadar Upazila, Meherpur District, Khulna Division, Bangladesh","মেহেরপুর সদর উপজেলা, মেহেরপুর জেলা, খুলনা বিভাগ, বাংলাদেশ",Mujibnagar Bus Stop,,,মেহেরপুর সদর উপজেলা,বাংলাদেশ,খুলনা বিভাগ,street,boundaries,['bus_stop'],[],Bangladesh,Khulna,Meherpur,MujibNagar,Bagoan,3f761bf68d6f8a0194ffb3fee48d06de
1157,4747259881,893cf0d5e37ffff,23.6527657,88.5895748,Bhoberpara Church,"Bhoberpara Church, Meherpur Sadar Upazila, Meherpur District, Khulna Division, Bangladesh","মেহেরপুর সদর উপজেলা, মেহেরপুর জেলা, খুলনা বিভাগ, বাংলাদেশ","Bhoberpara Church, ",,,মেহেরপুর সদর উপজেলা,বাংলাদেশ,খুলনা বিভাগ,local_admin,boundaries,['place_of_worship_christian'],[],Bangladesh,Khulna,Meherpur,MujibNagar,Bagoan,3f761bf68d6f8a0194ffb3fee48d06de
1184,8671592088,893cf082ccfffff,23.9757544,88.7955995,,"Gangni Upazila, Meherpur District, Khulna Division, Bangladesh","গাংনী উপজেলা, মেহেরপুর জেলা, খুলনা বিভাগ, বাংলাদেশ",,,,গাংনী উপজেলা,বাংলাদেশ,খুলনা বিভাগ,local_admin,boundaries,['ford'],[],Bangladesh,Khulna,Meherpur,Gangni,Kazipur,be8933ee5a10bc5f1018a6ed25c5b0b0
1256,9768603905,893cf08a13bffff,23.8151522,88.7432772,Abir Pharmay,"Abir Pharmay, Gangni Upazila, Meherpur District, Khulna Division, Bangladesh","গাংনী উপজেলা, মেহেরপুর জেলা, খুলনা বিভাগ, বাংলাদেশ","Abir Pharmay, ",,,গাংনী উপজেলা,বাংলাদেশ,খুলনা বিভাগ,local_admin,boundaries,['pharmacy'],[],Bangladesh,Khulna,Meherpur,Gangni,GangniPaurashava,b4335c086351e66ec2ba3d5bb393bc32
1261,9768603906,893cf08a13bffff,23.8151977,88.7433545,Reshma Drug House,"Reshma Drug House, Gangni Upazila, Meherpur District, Khulna Division, Bangladesh","গাংনী উপজেলা, মেহেরপুর জেলা, খুলনা বিভাগ, বাংলাদেশ","Reshma Drug House, ",,,গাংনী উপজেলা,বাংলাদেশ,খুলনা বিভাগ,local_admin,boundaries,['pharmacy'],[],Bangladesh,Khulna,Meherpur,Gangni,GangniPaurashava,b4335c086351e66ec2ba3d5bb393bc32
1262,9768603907,893cf08a13bffff,23.8152275,88.7434155,Ayesha Pharmacy,"Ayesha Pharmacy, Gangni Upazila, Meherpur District, Khulna Division, Bangladesh","গাংনী উপজেলা, মেহেরপুর জেলা, খুলনা বিভাগ, বাংলাদেশ","Ayesha Pharmacy, ",,,গাংনী উপজেলা,বাংলাদেশ,খুলনা বিভাগ,local_admin,boundaries,['pharmacy'],[],Bangladesh,Khulna,Meherpur,Gangni,GangniPaurashava,b4335c086351e66ec2ba3d5bb393bc32
1265,9768603908,893cf08a13bffff,23.8152554,88.7434795,Kabir Pharmacy,"Kabir Pharmacy, Gangni Upazila, Meherpur District, Khulna Division, Bangladesh","গাংনী উপজেলা, মেহেরপুর জেলা, খুলনা বিভাগ, বাংলাদেশ","Kabir Pharmacy, ",,,গাংনী উপজেলা,বাংলাদেশ,খুলনা বিভাগ,local_admin,boundaries,['pharmacy'],[],Bangladesh,Khulna,Meherpur,Gangni,GangniPaurashava,b4335c086351e66ec2ba3d5bb393bc32
1268,9768603909,893cf08a13bffff,23.8152916,88.7435384,Fatima Drug House,"Fatima Drug House, Gangni Upazila, Meherpur District, Khulna Division, Bangladesh","গাংনী উপজেলা, মেহেরপুর জেলা, খুলনা বিভাগ, বাংলাদেশ","Fatima Drug House, ",,,গাংনী উপজেলা,বাংলাদেশ,খুলনা বিভাগ,local_admin,boundaries,['pharmacy'],[],Bangladesh,Khulna,Meherpur,Gangni,GangniPaurashava,b4335c086351e66ec2ba3d5bb393bc32
1270,9768603910,893cf08a123ffff,23.8153,88.7436055,Uzzal Drug House,"Uzzal Drug House, Gangni Upazila, Meherpur District, Khulna Division, Bangladesh","গাংনী উপজেলা, মেহেরপুর জেলা, খুলনা বিভাগ, বাংলাদেশ","Uzzal Drug House, ",,,গাংনী উপজেলা,বাংলাদেশ,খুলনা বিভাগ,local_admin,boundaries,['pharmacy'],[],Bangladesh,Khulna,Meherpur,Gangni,GangniPaurashava,b4335c086351e66ec2ba3d5bb393bc32
1273,9768603911,893cf08a123ffff,23.8153167,88.7436675,Kabir Pharmacy,"Kabir Pharmacy, Gangni Upazila, Meherpur District, Khulna Division, Bangladesh","গাংনী উপজেলা, মেহেরপুর জেলা, খুলনা বিভাগ, বাংলাদেশ","Kabir Pharmacy, ",,,গাংনী উপজেলা,বাংলাদেশ,খুলনা বিভাগ,local_admin,boundaries,['pharmacy'],[],Bangladesh,Khulna,Meherpur,Gangni,GangniPaurashava,b4335c086351e66ec2ba3d5bb393bc32
1275,9768603912,893cf08a123ffff,23.8154488,88.7441239,Sayed Drug House,"Sayed Drug House, Gangni Upazila, Meherpur District, Khulna Division, Bangladesh","গাংনী উপজেলা, মেহেরপুর জেলা, খুলনা বিভাগ, বাংলাদেশ","Sayed Drug House, ",,,গাংনী উপজেলা,বাংলাদেশ,খুলনা বিভাগ,local_admin,boundaries,['pharmacy'],[],Bangladesh,Khulna,Meherpur,Gangni,GangniPaurashava,b4335c086351e66ec2ba3d5bb393bc32
1283,9768603913,893cf08a123ffff,23.8154664,88.7441655,Melon Pharmacy,"Melon Pharmacy, Gangni Upazila, Meherpur District, Khulna Division, Bangladesh","গাংনী উপজেলা, মেহেরপুর জেলা, খুলনা বিভাগ, বাংলাদেশ","Melon Pharmacy, ",,,গাংনী উপজেলা,বাংলাদেশ,খুলনা বিভাগ,local_admin,boundaries,['pharmacy'],[],Bangladesh,Khulna,Meherpur,Gangni,GangniPaurashava,b4335c086351e66ec2ba3d5bb393bc32
1286,9768603914,893cf08a123ffff,23.815604,88.7444537,Jahir Drug House,"Jahir Drug House, Gangni Upazila, Meherpur District, Khulna Division, Bangladesh","গাংনী উপজেলা, মেহেরপুর জেলা, খুলনা বিভাগ, বাংলাদেশ","Jahir Drug House, ",,,গাংনী উপজেলা,বাংলাদেশ,খুলনা বিভাগ,local_admin,boundaries,['pharmacy'],[],Bangladesh,Khulna,Meherpur,Gangni,GangniPaurashava,b4335c086351e66ec2ba3d5bb393bc32
1661,5738200205,893cf0d5853ffff,23.6505035,88.5957097,Surjodoy Dakbanglow,"Surjodoy Dakbanglow, Meherpur Sadar Upazila, Meherpur District, Khulna Division, Bangladesh","মেহেরপুর সদর উপজেলা, মেহেরপুর জেলা, খুলনা বিভাগ, বাংলাদেশ","Surjodoy Dakbanglow, ",,['সূর্যোদয় ডাকবাংলো'],মেহেরপুর সদর উপজেলা,বাংলাদেশ,খুলনা বিভাগ,local_admin,boundaries,['hotel'],[],Bangladesh,Khulna,Meherpur,MujibNagar,Bagoan,3f761bf68d6f8a0194ffb3fee48d06de
1662,5738209936,893cf0d5853ffff,23.6496628,88.5965843,"Parjatan Motel , Mujibnangar","Parjatan Motel Mujibnangar, Meherpur Sadar Upazila, Meherpur District, Khulna Division, Bangladesh","মেহেরপুর সদর উপজেলা, মেহেরপুর জেলা, খুলনা বিভাগ, বাংলাদেশ","Parjatan Motel Mujibnangar, ",,"['পর্যটন মোটেল, মুজিবনগর']",মেহেরপুর সদর উপজেলা,বাংলাদেশ,খুলনা বিভাগ,local_admin,boundaries,['motel'],[],Bangladesh,Khulna,Meherpur,MujibNagar,Bagoan,3f761bf68d6f8a0194ffb3fee48d06de
1663,5738399243,893cf0d5857ffff,23.6499089,88.5977239,Mujibnagar Mosque,"Mujibnagar Mosque, Meherpur Sadar Upazila, Meherpur District, Khulna Division, Bangladesh","মেহেরপুর সদর উপজেলা, মেহেরপুর জেলা, খুলনা বিভাগ, বাংলাদেশ","Mujibnagar Mosque, ",,,মেহেরপুর সদর উপজেলা,বাংলাদেশ,খুলনা বিভাগ,local_admin,boundaries,['place_of_worship_muslim'],[],Bangladesh,Khulna,Meherpur,MujibNagar,Bagoan,3f761bf68d6f8a0194ffb3fee48d06de
1664,5738399245,893cf0d5843ffff,23.6491035,88.5975604,Government Child Family,"Government Child Family, Meherpur Sadar Upazila, Meherpur District, Khulna Division, Bangladesh","মেহেরপুর সদর উপজেলা, মেহেরপুর জেলা, খুলনা বিভাগ, বাংলাদেশ","Government Child Family, ",,['সরকারি শিশু পরিবার'],মেহেরপুর সদর উপজেলা,বাংলাদেশ,খুলনা বিভাগ,local_admin,boundaries,['social_facility'],[],Bangladesh,Khulna,Meherpur,MujibNagar,Bagoan,3f761bf68d6f8a0194ffb3fee48d06de
1665,5738399262,893cf0d584bffff,23.6453919,88.5957277,Mujibnagar Auditorium,"Mujibnagar Auditorium, Meherpur Sadar Upazila, Meherpur District, Khulna Division, Bangladesh","মেহেরপুর সদর উপজেলা, মেহেরপুর জেলা, খুলনা বিভাগ, বাংলাদেশ","Mujibnagar Auditorium, ",,['মুজিবনগর অডিটোরিয়াম'],মেহেরপুর সদর উপজেলা,বাংলাদেশ,খুলনা বিভাগ,local_admin,boundaries,['theatre'],[],Bangladesh,Khulna,Meherpur,MujibNagar,Bagoan,3f761bf68d6f8a0194ffb3fee48d06de
1666,5738399268,893cf0d5857ffff,23.650643,88.5972948,Mujibnagar Post Office,"Mujibnagar Post Office, Meherpur Sadar Upazila, Meherpur District, Khulna Division, Bangladesh","মেহেরপুর সদর উপজেলা, মেহেরপুর জেলা, খুলনা বিভাগ, বাংলাদেশ","Mujibnagar Post Office, ",,['মুজিবনগর পোস্ট অফিস'],মেহেরপুর সদর উপজেলা,বাংলাদেশ,খুলনা বিভাগ,local_admin,boundaries,['post_office'],[],Bangladesh,Khulna,Meherpur,MujibNagar,Bagoan,3f761bf68d6f8a0194ffb3fee48d06de
1667,5738457101,893cf0d581bffff,23.6546134,88.5998075,Mujibnagar Upazilla Parishad,"Mujibnagar Upazilla Parishad, Meherpur Sadar Upazila, Meherpur District, Khulna Division, Bangladesh","মেহেরপুর সদর উপজেলা, মেহেরপুর জেলা, খুলনা বিভাগ, বাংলাদেশ","Mujibnagar Upazilla Parishad, ",,['মুজিবনগর উপজেলা পরিষদ'],মেহেরপুর সদর উপজেলা,বাংলাদেশ,খুলনা বিভাগ,local_admin,boundaries,['government'],[],Bangladesh,Khulna,Meherpur,MujibNagar,Bagoan,3f761bf68d6f8a0194ffb3fee48d06de
1668,5738457113,893cf0d581bffff,23.6539105,88.5990046,Monoroma Park & Mini Zoo,"Monoroma Park & Mini Zoo, Meherpur Sadar Upazila, Meherpur District, Khulna Division, Bangladesh","মেহেরপুর সদর উপজেলা, মেহেরপুর জেলা, খুলনা বিভাগ, বাংলাদেশ","Monoroma Park & Mini Zoo, ",,,মেহেরপুর সদর উপজেলা,বাংলাদেশ,খুলনা বিভাগ,local_admin,boundaries,['zoo'],[],Bangladesh,Khulna,Meherpur,MujibNagar,Bagoan,3f761bf68d6f8a0194ffb3fee48d06de
1669,5738457114,893cf0d581bffff,23.6531497,88.5999147,Anannya Park,"Anannya Park, Meherpur Sadar Upazila, Meherpur District, Khulna Division, Bangladesh","মেহেরপুর সদর উপজেলা, মেহেরপুর জেলা, খুলনা বিভাগ, বাংলাদেশ","Anannya Park, ",,['অনন্যা পার্ক'],মেহেরপুর সদর উপজেলা,বাংলাদেশ,খুলনা বিভাগ,local_admin,boundaries,['park'],[],Bangladesh,Khulna,Meherpur,MujibNagar,Bagoan,3f761bf68d6f8a0194ffb3fee48d06de
1681,6715959851,893cf0d58d3ffff,23.6578628,88.5906514,,"Meherpur Sadar Upazila, Meherpur District, Khulna Division, Bangladesh","মেহেরপুর সদর উপজেলা, মেহেরপুর জেলা, খুলনা বিভাগ, বাংলাদেশ",,,,মেহেরপুর সদর উপজেলা,বাংলাদেশ,খুলনা বিভাগ,local_admin,boundaries,['ford'],[],Bangladesh,Khulna,Meherpur,MujibNagar,Bagoan,3f761bf68d6f8a0194ffb3fee48d06de
1706,604536542,893cf098b0fffff,23.84417782,88.70193591,DC Eco Park,"DC Eco Park, Bhatpara, Gangni Upazila, Meherpur District, Khulna Division, Bangladesh","ভাটপাড়া, গাংনী উপজেলা, মেহেরপুর জেলা, খুলনা বিভাগ, বাংলাদেশ","DC Eco Park, ",,['জেলা প্রশাসক ইকো পার্ক'],গাংনী উপজেলা,বাংলাদেশ,খুলনা বিভাগ,locality,boundaries,"['attraction', 'park']",[],Bangladesh,Khulna,Meherpur,Gangni,Shaharbati,b059dde550d9f4b2378fd1b68e1a9c5c
1718,605339592,893cf098b0fffff,23.84434648,88.70199726,Bhatpara Neelkuthi,"Bhatpara Neelkuthi, Bhatpara, Gangni Upazila, Meherpur District, Khulna Division, Bangladesh","ভাটপাড়া, গাংনী উপজেলা, মেহেরপুর জেলা, খুলনা বিভাগ, বাংলাদেশ","Bhatpara Neelkuthi, ",,['ভাটপাড়া নীলকুঠি'],গাংনী উপজেলা,বাংলাদেশ,খুলনা বিভাগ,locality,boundaries,['ruins'],[],Bangladesh,Khulna,Meherpur,Gangni,Shaharbati,b059dde550d9f4b2378fd1b68e1a9c5c
1742,712216834,893cf081ccbffff,23.87169392,88.7870234,,"Gangni Upazila, Meherpur District, Khulna Division, Bangladesh","গাংনী উপজেলা, মেহেরপুর জেলা, খুলনা বিভাগ, বাংলাদেশ",,,,গাংনী উপজেলা,বাংলাদেশ,খুলনা বিভাগ,local_admin,boundaries,['bridge'],[],Bangladesh,Khulna,Meherpur,Gangni,Bamandi,57bbe2276a1e7ee95d0b431fd3528248
1753,2407077350,893cf080373ffff,23.8903021,88.8054504,Bamundi Government Primary School,"Bamundi Government Primary School, Gangni Upazila, Meherpur District, Khulna Division, Bangladesh","গাংনী উপজেলা, মেহেরপুর জেলা, খুলনা বিভাগ, বাংলাদেশ","Bamundi Government Primary School, ",,,গাংনী উপজেলা,বাংলাদেশ,খুলনা বিভাগ,local_admin,boundaries,['school'],[],Bangladesh,Khulna,Meherpur,Gangni,Bamandi,57bbe2276a1e7ee95d0b431fd3528248
1819,5105598021,893cf081e33ffff,23.8525441,88.7980606,ষোলটাকা (Sholotata),"Sholotata, ","ষোলটাকা, ",,,,গাংনী উপজেলা,বাংলাদেশ,খুলনা বিভাগ,housenumber,,,,Bangladesh,Khulna,Meherpur,Gangni,SholaTaka,10dacabc8c6319215990ea3367f1da97
1822,7076865968,893cf08202fffff,23.9612389,88.7664418,Baitun Nur Jame Mosque,"Baitun Nur Jame Mosque, ",,"Baitun Nur Jame Mosque, ",,,গাংনী উপজেলা,বাংলাদেশ,খুলনা বিভাগ,housenumber,,,,Bangladesh,Khulna,Meherpur,Gangni,Kazipur,be8933ee5a10bc5f1018a6ed25c5b0b0
1890,234883862,893cf080017ffff,23.91431981983218,88.78503712154121,Daulotpur - Meherpur Road,"Daulotpur - Meherpur Road, Gangni Upazila, Meherpur District, Khulna Division, Bangladesh","গাংনী উপজেলা, মেহেরপুর জেলা, খুলনা বিভাগ, বাংলাদেশ",Daulotpur - Meherpur Road,,,গাংনী উপজেলা,বাংলাদেশ,খুলনা বিভাগ,street,,,,Bangladesh,Khulna,Meherpur,Gangni,Kazipur,be8933ee5a10bc5f1018a6ed25c5b0b0
1968,330493110,893cf089c1bffff,23.71791686044926,88.74991544598302,মেহেরপুর-চুয়াডাঙ্গা সড়ক,"Meherpur-Chuadanga Road, Alamdanga Upazila, Chuadanga District, Khulna Division, Bangladesh","মেহেরপুর-চুয়াডাঙ্গা সড়ক, আলমডাঙ্গা উপজেলা, চুয়াডাঙ্গা জেলা, খুলনা বিভাগ, বাংলাদেশ",,"মেহেরপুর-চুয়াডাঙ্গা সড়ক, ",['Meherpur-Chuadanga Road'],আলমডাঙ্গা উপজেলা,বাংলাদেশ,খুলনা বিভাগ,street,,,,Bangladesh,Khulna,Meherpur,MeherpurSadar,Pirojpur,76749eb3b611582900a5d9388529493a
1969,330493110,893cf089c1bffff,23.71791686044926,88.74991544598302,মেহেরপুর-চুয়াডাঙ্গা সড়ক,"Meherpur-Chuadanga Road, Damurhuda Upazila, Chuadanga District, Khulna Division, Bangladesh","মেহেরপুর-চুয়াডাঙ্গা সড়ক, দামুড়হুদা উপজেলা, চুয়াডাঙ্গা জেলা, খুলনা বিভাগ, বাংলাদেশ",,"মেহেরপুর-চুয়াডাঙ্গা সড়ক, ",['Meherpur-Chuadanga Road'],দামুড়হুদা উপজেলা,বাংলাদেশ,খুলনা বিভাগ,street,,,,Bangladesh,Khulna,Meherpur,MeherpurSadar,Pirojpur,76749eb3b611582900a5d9388529493a
1973,330493110,893cf089c1bffff,23.71791686044926,88.74991544598302,মেহেরপুর-চুয়াডাঙ্গা সড়ক,"Meherpur-Chuadanga Road, Meherpur Sadar Upazila, Meherpur District, Khulna Division, Bangladesh","মেহেরপুর-চুয়াডাঙ্গা সড়ক, মেহেরপুর সদর উপজেলা, মেহেরপুর জেলা, খুলনা বিভাগ, বাংলাদেশ",,"মেহেরপুর-চুয়াডাঙ্গা সড়ক, ",['Meherpur-Chuadanga Road'],মেহেরপুর সদর উপজেলা,বাংলাদেশ,খুলনা বিভাগ,street,,,,Bangladesh,Khulna,Meherpur,MeherpurSadar,Pirojpur,76749eb3b611582900a5d9388529493a
1976,330493110,893cf089c1bffff,23.71791686044926,88.74991544598302,মেহেরপুর-চুয়াডাঙ্গা সড়ক,"Meherpur-Chuadanga Road, Meherpur Sadar Upazila, Chuadanga District, Khulna Division, Bangladesh","মেহেরপুর-চুয়াডাঙ্গা সড়ক, মেহেরপুর সদর উপজেলা, চুয়াডাঙ্গা জেলা, খুলনা বিভাগ, বাংলাদেশ",,"মেহেরপুর-চুয়াডাঙ্গা সড়ক, ",['Meherpur-Chuadanga Road'],মেহেরপুর সদর উপজেলা,বাংলাদেশ,খুলনা বিভাগ,street,,,,Bangladesh,Khulna,Meherpur,MeherpurSadar,Pirojpur,76749eb3b611582900a5d9388529493a
2073,531050835,893cf08134bffff,23.834901768120798,88.75873135096134,কুষ্টিয়া - মেহেরপুর মহাসড়ক,"-, Kushtia - Meherpur Highway, Gangni Upazila, Meherpur District, Khulna Division, Bangladesh","কুষ্টিয়া মেহেরপুর মহাসড়ক, মেহেরপুর - কুষ্টিয়া মহাসড়ক, গাংনী উপজেলা, মেহেরপুর জেলা, খুলনা বিভাগ, বাংলাদেশ",,"কুষ্টিয়া - মেহেরপুর মহাসড়ক, ","['মেহেরপুর - কুষ্টিয়া মহাসড়ক', 'Kushtia - Meherpur Highway']",গাংনী উপজেলা,বাংলাদেশ,খুলনা বিভাগ,street,,,,Bangladesh,Khulna,Meherpur,Gangni,GangniPaurashava,b4335c086351e66ec2ba3d5bb393bc32
2093,164208899,893cf098e17ffff,23.85846800625321,88.65954798528169,Kahuli Road,"Kahuli Road, Bhatpara, Gangni Upazila, Meherpur District, Khulna Division, Bangladesh","কাথুলি সড়ক, ভাটপাড়া, গাংনী উপজেলা, মেহেরপুর জেলা, খুলনা বিভাগ, বাংলাদেশ","Kahuli Road, ",,['কাথুলি সড়ক'],গাংনী উপজেলা,বাংলাদেশ,খুলনা বিভাগ,street,,,,Bangladesh,Khulna,Meherpur,Gangni,Kathuli,9c0083a76ff300c90901d5a70ac17064
2126,315945268,893cf0d585bffff,23.64696513,88.5945029,Mujibnagar Ambagan,"Mujibnagar Ambagan, Meherpur Sadar Upazila, Meherpur District, Khulna Division, Bangladesh","মেহেরপুর সদর উপজেলা, মেহেরপুর জেলা, খুলনা বিভাগ, বাংলাদেশ","Mujibnagar Ambagan, ",,,মেহেরপুর সদর উপজেলা,বাংলাদেশ,খুলনা বিভাগ,local_admin,boundaries,['park'],[],Bangladesh,Khulna,Meherpur,MujibNagar,Bagoan,3f761bf68d6f8a0194ffb3fee48d06de
2128,315945269,893cf0d5843ffff,23.64793773,88.59622892,,"Meherpur Sadar Upazila, Meherpur District, Khulna Division, Bangladesh","মেহেরপুর সদর উপজেলা, মেহেরপুর জেলা, খুলনা বিভাগ, বাংলাদেশ",,,,মেহেরপুর সদর উপজেলা,বাংলাদেশ,খুলনা বিভাগ,local_admin,boundaries,['park'],[],Bangladesh,Khulna,Meherpur,MujibNagar,Bagoan,3f761bf68d6f8a0194ffb3fee48d06de
2130,315945270,893cf0d5843ffff,23.64780355,88.59725524,,"Meherpur Sadar Upazila, Meherpur District, Khulna Division, Bangladesh","মেহেরপুর সদর উপজেলা, মেহেরপুর জেলা, খুলনা বিভাগ, বাংলাদেশ",,,,মেহেরপুর সদর উপজেলা,বাংলাদেশ,খুলনা বিভাগ,local_admin,boundaries,['park'],[],Bangladesh,Khulna,Meherpur,MujibNagar,Bagoan,3f761bf68d6f8a0194ffb3fee48d06de
2132,315945271,893cf0d585bffff,23.6471832,88.5937006,Mujibnagar Complex,"Mujibnagar Complex, Meherpur Sadar Upazila, Meherpur District, Khulna Division, Bangladesh","মেহেরপুর সদর উপজেলা, মেহেরপুর জেলা, খুলনা বিভাগ, বাংলাদেশ","Mujibnagar Complex, ",,,মেহেরপুর সদর উপজেলা,বাংলাদেশ,খুলনা বিভাগ,local_admin,boundaries,['monument'],[],Bangladesh,Khulna,Meherpur,MujibNagar,Bagoan,3f761bf68d6f8a0194ffb3fee48d06de
2205,5754496206,893cf08a127ffff,23.8178712,88.7497084,গাংনী,"Gangni, Gangni Upazila, Meherpur District, Khulna Division, Bangladesh","গাংনী, গাংনী উপজেলা, মেহেরপুর জেলা, খুলনা বিভাগ, বাংলাদেশ",,"গাংনী, ",['Gangni'],গাংনী উপজেলা,বাংলাদেশ,খুলনা বিভাগ,locality,,,,Bangladesh,Khulna,Meherpur,Gangni,GangniPaurashava,b4335c086351e66ec2ba3d5bb393bc32
2245,6696623219,893cf0818b7ffff,23.8689911,88.8195054,,"Gangni Upazila, Meherpur District, Khulna Division, Bangladesh","গাংনী উপজেলা, মেহেরপুর জেলা, খুলনা বিভাগ, বাংলাদেশ",,,,গাংনী উপজেলা,বাংলাদেশ,খুলনা বিভাগ,local_admin,boundaries,['ford'],[],Bangladesh,Khulna,Meherpur,Gangni,Bamandi,57bbe2276a1e7ee95d0b431fd3528248
2247,6696623252,893cf081d4bffff,23.8698483,88.8127998,,"Gangni Upazila, Meherpur District, Khulna Division, Bangladesh","গাংনী উপজেলা, মেহেরপুর জেলা, খুলনা বিভাগ, বাংলাদেশ",,,,গাংনী উপজেলা,বাংলাদেশ,খুলনা বিভাগ,local_admin,boundaries,['ford'],[],Bangladesh,Khulna,Meherpur,Gangni,Bamandi,57bbe2276a1e7ee95d0b431fd3528248
2249,6716382670,893cf08e417ffff,23.8749686,88.8624811,,"Daulatpur Upazila (Kushtia), Kushtia District, Khulna Division, Bangladesh","দৌলতপুর উপজেলা কুষ্টিয়া, কুষ্টিয়া জেলা, খুলনা বিভাগ, বাংলাদেশ",,,,দৌলতপুর উপজেলা (কুষ্টিয়া),বাংলাদেশ,খুলনা বিভাগ,local_admin,boundaries,['ford'],[],Bangladesh,Khulna,Meherpur,Gangni,Matmura,f2dbaf9e05bd0a1912416e5863b076e0
2444,2407518052,893cf0d58b3ffff,23.6650485,88.6036721,Mujibnagar High School,"Mujibnagar High School, Meherpur Sadar Upazila, Meherpur District, Khulna Division, Bangladesh","মেহেরপুর সদর উপজেলা, মেহেরপুর জেলা, খুলনা বিভাগ, বাংলাদেশ","Mujibnagar High School, ",,,মেহেরপুর সদর উপজেলা,বাংলাদেশ,খুলনা বিভাগ,local_admin,boundaries,['school'],[],Bangladesh,Khulna,Meherpur,MujibNagar,Bagoan,3f761bf68d6f8a0194ffb3fee48d06de
2448,2407520062,893cf0d6d2fffff,23.7789572,88.6258536,Meherpur Police Station,"Meherpur Police Station, Meherpur Sadar Upazila, Meherpur District, Khulna Division, Bangladesh","মেহেরপুর সদর উপজেলা, মেহেরপুর জেলা, খুলনা বিভাগ, বাংলাদেশ","Meherpur Police Station, ",,,মেহেরপুর সদর উপজেলা,বাংলাদেশ,খুলনা বিভাগ,local_admin,boundaries,['police'],[],Bangladesh,Khulna,Meherpur,MeherpurSadar,MeherpurPaurashava,42bb69c9242d8819274628e9c511b5d6
2545,4747259874,893cf0d58b3ffff,23.6646652,88.6042189,Kedargonj Bus Stop,"Kedargonj Bus Stop, Meherpur Sadar Upazila, Meherpur District, Khulna Division, Bangladesh","মেহেরপুর সদর উপজেলা, মেহেরপুর জেলা, খুলনা বিভাগ, বাংলাদেশ",Kedargonj Bus Stop,,,মেহেরপুর সদর উপজেলা,বাংলাদেশ,খুলনা বিভাগ,street,boundaries,['bus_stop'],[],Bangladesh,Khulna,Meherpur,MujibNagar,Bagoan,3f761bf68d6f8a0194ffb3fee48d06de
2547,4747259882,893cf0d6987ffff,23.7734344,88.6313244,Basudeb Mishtanno Vandar,"Basudeb Mishtanno Vandar, Meherpur Sadar Upazila, Meherpur District, Khulna Division, Bangladesh","মেহেরপুর সদর উপজেলা, মেহেরপুর জেলা, খুলনা বিভাগ, বাংলাদেশ","Basudeb Mishtanno Vandar, ",,,মেহেরপুর সদর উপজেলা,বাংলাদেশ,খুলনা বিভাগ,local_admin,boundaries,['restaurant'],[],Bangladesh,Khulna,Meherpur,MeherpurSadar,MeherpurPaurashava,42bb69c9242d8819274628e9c511b5d6
2548,4747259884,893cf0d69abffff,23.7693606,88.6360226,Meherpur Bus Stand,"Meherpur Bus Stand, Meherpur Sadar Upazila, Meherpur District, Khulna Division, Bangladesh","মেহেরপুর সদর উপজেলা, মেহেরপুর জেলা, খুলনা বিভাগ, বাংলাদেশ","Meherpur Bus Stand, ",,,মেহেরপুর সদর উপজেলা,বাংলাদেশ,খুলনা বিভাগ,local_admin,boundaries,['bus_station'],[],Bangladesh,Khulna,Meherpur,MeherpurSadar,MeherpurPaurashava,42bb69c9242d8819274628e9c511b5d6
2550,4747259885,893cf08b06bffff,23.7485822,88.6794357,Amjhupi Bus Stop,"Amjhupi Bus Stop, Meherpur Sadar Upazila, Meherpur District, Khulna Division, Bangladesh","মেহেরপুর সদর উপজেলা, মেহেরপুর জেলা, খুলনা বিভাগ, বাংলাদেশ",Amjhupi Bus Stop,,,মেহেরপুর সদর উপজেলা,বাংলাদেশ,খুলনা বিভাগ,street,boundaries,['bus_stop'],[],Bangladesh,Khulna,Meherpur,MeherpurSadar,Amjhupi,4c5a696bef35a61b9945331b1b95cc34
2553,4747259893,893cf08b2afffff,23.7411704,88.6781943,Amjhupi Neelkuthi,"Amjhupi Neelkuthi, Meherpur Sadar Upazila, Meherpur District, Khulna Division, Bangladesh","মেহেরপুর সদর উপজেলা, মেহেরপুর জেলা, খুলনা বিভাগ, বাংলাদেশ","Amjhupi Neelkuthi, ",,,মেহেরপুর সদর উপজেলা,বাংলাদেশ,খুলনা বিভাগ,local_admin,boundaries,['archaeological_site'],[],Bangladesh,Khulna,Meherpur,MeherpurSadar,Amjhupi,4c5a696bef35a61b9945331b1b95cc34
2555,4747259902,893cf0d6997ffff,23.7768276,88.6312228,Hotel Onabil,"Hotel Onabil, Meherpur Sadar Upazila, Meherpur District, Khulna Division, Bangladesh","মেহেরপুর সদর উপজেলা, মেহেরপুর জেলা, খুলনা বিভাগ, বাংলাদেশ","Hotel Onabil, ",,,মেহেরপুর সদর উপজেলা,বাংলাদেশ,খুলনা বিভাগ,local_admin,boundaries,['hotel'],[],Bangladesh,Khulna,Meherpur,MeherpurSadar,MeherpurPaurashava,42bb69c9242d8819274628e9c511b5d6
2664,8675787629,893cf082e2fffff,23.9533378,88.8099277,,"Gangni Upazila, Meherpur District, Khulna Division, Bangladesh","গাংনী উপজেলা, মেহেরপুর জেলা, খুলনা বিভাগ, বাংলাদেশ",,,,গাংনী উপজেলা,বাংলাদেশ,খুলনা বিভাগ,local_admin,boundaries,['ford'],[],Bangladesh,Khulna,Meherpur,Gangni,Kazipur,be8933ee5a10bc5f1018a6ed25c5b0b0
2761,5153462040,893cf0d69afffff,23.7693481,88.6415455,Shaheed Minar,"Shaheed Minar, Meherpur Sadar Upazila, Meherpur District, Khulna Division, Bangladesh","মেহেরপুর সদর উপজেলা, মেহেরপুর জেলা, খুলনা বিভাগ, বাংলাদেশ","Shaheed Minar, ",,,মেহেরপুর সদর উপজেলা,বাংলাদেশ,খুলনা বিভাগ,local_admin,boundaries,['monument'],[],Bangladesh,Khulna,Meherpur,MeherpurSadar,MeherpurPaurashava,42bb69c9242d8819274628e9c511b5d6
2762,5153465425,893cf0d6937ffff,23.7689358,88.6420909,Meherpur Government College,"Meherpur Government College, Meherpur Sadar Upazila, Meherpur District, Khulna Division, Bangladesh","মেহেরপুর সদর উপজেলা, মেহেরপুর জেলা, খুলনা বিভাগ, বাংলাদেশ","Meherpur Government College, ",,,মেহেরপুর সদর উপজেলা,বাংলাদেশ,খুলনা বিভাগ,local_admin,boundaries,['college'],[],Bangladesh,Khulna,Meherpur,MeherpurSadar,MeherpurPaurashava,42bb69c9242d8819274628e9c511b5d6
2764,5153472829,893cf099c4fffff,23.8153376,88.6261998,Ujalpur High School,"Ujalpur High School, Ujalpur, Meherpur Sadar Upazila, Meherpur District, Khulna Division, Bangladesh","উজলপুর, মেহেরপুর সদর উপজেলা, মেহেরপুর জেলা, খুলনা বিভাগ, বাংলাদেশ","Ujalpur High School, ",,,মেহেরপুর সদর উপজেলা,বাংলাদেশ,খুলনা বিভাগ,locality,boundaries,['school'],[],Bangladesh,Khulna,Meherpur,MeherpurSadar,Kutubpur,28476d09abc9100282d926c8290d5d2e
2767,5153998749,893cf0d6987ffff,23.7742464,88.632851,Meherpur Government Mohila College,"Meherpur Government Mohila College, Meherpur Sadar Upazila, Meherpur District, Khulna Division, Bangladesh","মেহেরপুর সদর উপজেলা, মেহেরপুর জেলা, খুলনা বিভাগ, বাংলাদেশ","Meherpur Government Mohila College, ",,['মেহেরপুর সরকারী মহিলা কলেজ'],মেহেরপুর সদর উপজেলা,বাংলাদেশ,খুলনা বিভাগ,local_admin,boundaries,['college'],[],Bangladesh,Khulna,Meherpur,MeherpurSadar,MeherpurPaurashava,42bb69c9242d8819274628e9c511b5d6
2770,5154003615,893cf0d6987ffff,23.7740675,88.6341937,Meherpur Government High School,"Meherpur Government High School, Meherpur Sadar Upazila, Meherpur District, Khulna Division, Bangladesh","মেহেরপুর সদর উপজেলা, মেহেরপুর জেলা, খুলনা বিভাগ, বাংলাদেশ","Meherpur Government High School, ",,['মেহেরপুর সরকারী বালক উচ্চ বিদ্যালয়'],মেহেরপুর সদর উপজেলা,বাংলাদেশ,খুলনা বিভাগ,local_admin,boundaries,['school'],[],Bangladesh,Khulna,Meherpur,MeherpurSadar,MeherpurPaurashava,42bb69c9242d8819274628e9c511b5d6
2773,5155304137,893cf099c7bffff,23.817313,88.6275935,Ujalpur Government Primary School,"Ujalpur Government Primary School, Ujalpur, Meherpur Sadar Upazila, Meherpur District, Khulna Division, Bangladesh","উজলপুর, মেহেরপুর সদর উপজেলা, মেহেরপুর জেলা, খুলনা বিভাগ, বাংলাদেশ","Ujalpur Government Primary School, ",,['উজলপুর সরকারি প্রাথমিক বিদ্যালয়'],মেহেরপুর সদর উপজেলা,বাংলাদেশ,খুলনা বিভাগ,locality,boundaries,['school'],[],Bangladesh,Khulna,Meherpur,MeherpurSadar,Kutubpur,28476d09abc9100282d926c8290d5d2e
2776,5155321529,893cf099c7bffff,23.8168826,88.6274254,Kutubpur Union Council,"Kutubpur Union Council, Ujalpur, Meherpur Sadar Upazila, Meherpur District, Khulna Division, Bangladesh","উজলপুর, মেহেরপুর সদর উপজেলা, মেহেরপুর জেলা, খুলনা বিভাগ, বাংলাদেশ","Kutubpur Union Council, ",,,মেহেরপুর সদর উপজেলা,বাংলাদেশ,খুলনা বিভাগ,locality,boundaries,['town_hall'],[],Bangladesh,Khulna,Meherpur,MeherpurSadar,Kutubpur,28476d09abc9100282d926c8290d5d2e
2779,5155360235,893cf099e17ffff,23.8057001,88.6211974,Bhairab Girls High School,"Bhairab Girls High School, Ujalpur, Meherpur Sadar Upazila, Meherpur District, Khulna Division, Bangladesh","উজলপুর, মেহেরপুর সদর উপজেলা, মেহেরপুর জেলা, খুলনা বিভাগ, বাংলাদেশ","Bhairab Girls High School, ",,,মেহেরপুর সদর উপজেলা,বাংলাদেশ,খুলনা বিভাগ,locality,boundaries,['school'],[],Bangladesh,Khulna,Meherpur,MeherpurSadar,Kutubpur,28476d09abc9100282d926c8290d5d2e
2782,5155373330,893cf099c47ffff,23.8176443,88.6257783,Ujalpur Community Clinic,"Ujalpur Community Clinic, Ujalpur, Meherpur Sadar Upazila, Meherpur District, Khulna Division, Bangladesh","উজলপুর, মেহেরপুর সদর উপজেলা, মেহেরপুর জেলা, খুলনা বিভাগ, বাংলাদেশ","Ujalpur Community Clinic, ",,,মেহেরপুর সদর উপজেলা,বাংলাদেশ,খুলনা বিভাগ,locality,boundaries,['clinic'],[],Bangladesh,Khulna,Meherpur,MeherpurSadar,Kutubpur,28476d09abc9100282d926c8290d5d2e
2785,5155408881,893cf0998dbffff,23.8103207,88.6315596,Bangladesh Krishi Bank,"Bangladesh Krishi Bank, Ujalpur, Meherpur Sadar Upazila, Meherpur District, Khulna Division, Bangladesh","উজলপুর, মেহেরপুর সদর উপজেলা, মেহেরপুর জেলা, খুলনা বিভাগ, বাংলাদেশ","Bangladesh Krishi Bank, ",,['বাংলাদেশ কৃষি ব্যাংক'],মেহেরপুর সদর উপজেলা,বাংলাদেশ,খুলনা বিভাগ,locality,boundaries,['bank'],[],Bangladesh,Khulna,Meherpur,MeherpurSadar,Kutubpur,28476d09abc9100282d926c8290d5d2e
2788,5155559813,893cf0d69a3ffff,23.7726568,88.6379829,Romesh Clinic,"Romesh Clinic, Meherpur Sadar Upazila, Meherpur District, Khulna Division, Bangladesh","মেহেরপুর সদর উপজেলা, মেহেরপুর জেলা, খুলনা বিভাগ, বাংলাদেশ","Romesh Clinic, ",,,মেহেরপুর সদর উপজেলা,বাংলাদেশ,খুলনা বিভাগ,local_admin,boundaries,['clinic'],[],Bangladesh,Khulna,Meherpur,MeherpurSadar,MeherpurPaurashava,42bb69c9242d8819274628e9c511b5d6
2791,5155566983,893cf0d69afffff,23.7716784,88.6423364,Taher Clinic,"Taher Clinic, Meherpur Sadar Upazila, Meherpur District, Khulna Division, Bangladesh","মেহেরপুর সদর উপজেলা, মেহেরপুর জেলা, খুলনা বিভাগ, বাংলাদেশ","Taher Clinic, ",,,মেহেরপুর সদর উপজেলা,বাংলাদেশ,খুলনা বিভাগ,local_admin,boundaries,['clinic'],[],Bangladesh,Khulna,Meherpur,MeherpurSadar,MeherpurPaurashava,42bb69c9242d8819274628e9c511b5d6
2793,5155574979,893cf0d6917ffff,23.7695633,88.6354337,Shohag Guest House,"Shohag Guest House, Meherpur Sadar Upazila, Meherpur District, Khulna Division, Bangladesh","মেহেরপুর সদর উপজেলা, মেহেরপুর জেলা, খুলনা বিভাগ, বাংলাদেশ","Shohag Guest House, ",,,মেহেরপুর সদর উপজেলা,বাংলাদেশ,খুলনা বিভাগ,local_admin,boundaries,['hotel'],[],Bangladesh,Khulna,Meherpur,MeherpurSadar,MeherpurPaurashava,42bb69c9242d8819274628e9c511b5d6
2795,5155577168,893cf0d6917ffff,23.769436,88.6344863,Fin Tower,"Fin Tower, Meherpur Sadar Upazila, Meherpur District, Khulna Division, Bangladesh","মেহেরপুর সদর উপজেলা, মেহেরপুর জেলা, খুলনা বিভাগ, বাংলাদেশ","Fin Tower, ",,,মেহেরপুর সদর উপজেলা,বাংলাদেশ,খুলনা বিভাগ,local_admin,boundaries,['hotel'],[],Bangladesh,Khulna,Meherpur,MeherpurSadar,MeherpurPaurashava,42bb69c9242d8819274628e9c511b5d6
2823,604879948,893cf0d581bffff,23.6553628,88.5991611,Mujibnagar Thana,"Mujibnagar Thana, Meherpur Sadar Upazila, Meherpur District, Khulna Division, Bangladesh","মেহেরপুর সদর উপজেলা, মেহেরপুর জেলা, খুলনা বিভাগ, বাংলাদেশ","Mujibnagar Thana, ",,['মুজিবনগর থানা'],মেহেরপুর সদর উপজেলা,বাংলাদেশ,খুলনা বিভাগ,local_admin,boundaries,['government'],[],Bangladesh,Khulna,Meherpur,MujibNagar,Bagoan,3f761bf68d6f8a0194ffb3fee48d06de
2838,9705706613,893cf080c97ffff,23.9347044,88.828113,M.G.G.M. High School,"M.G.G.M. High School, Daulatpur Upazila (Kushtia), Kushtia District, Khulna Division, Bangladesh","দৌলতপুর উপজেলা কুষ্টিয়া, কুষ্টিয়া জেলা, খুলনা বিভাগ, বাংলাদেশ","M.G.G.M. High School, ",,,দৌলতপুর উপজেলা (কুষ্টিয়া),বাংলাদেশ,খুলনা বিভাগ,local_admin,boundaries,"['educational_institution', 'school']",[],Bangladesh,Khulna,Meherpur,Gangni,Matmura,f2dbaf9e05bd0a1912416e5863b076e0
2905,315945274,893cf0d58cbffff,23.65284039075727,88.59382102902575,Bhoberpara Road,"Bhoberpara Road, Meherpur Sadar Upazila, Meherpur District, Khulna Division, Bangladesh","মেহেরপুর সদর উপজেলা, মেহেরপুর জেলা, খুলনা বিভাগ, বাংলাদেশ",Bhoberpara Road,,,মেহেরপুর সদর উপজেলা,বাংলাদেশ,খুলনা বিভাগ,street,,,,Bangladesh,Khulna,Meherpur,MujibNagar,Bagoan,3f761bf68d6f8a0194ffb3fee48d06de
2910,403108129,893cf080373ffff,23.88916403,88.80359265,,"Gangni Upazila, Meherpur District, Khulna Division, Bangladesh","গাংনী উপজেলা, মেহেরপুর জেলা, খুলনা বিভাগ, বাংলাদেশ",,,,গাংনী উপজেলা,বাংলাদেশ,খুলনা বিভাগ,local_admin,boundaries,['college'],[],Bangladesh,Khulna,Meherpur,Gangni,Bamandi,57bbe2276a1e7ee95d0b431fd3528248
3002,164137026,893cf0d6d87ffff,23.789260869259188,88.6148331078389,Govipur Road,"Govipur Road, Meherpur Sadar Upazila, Meherpur District, Khulna Division, Bangladesh","মেহেরপুর সদর উপজেলা, মেহেরপুর জেলা, খুলনা বিভাগ, বাংলাদেশ",Govipur Road,,,মেহেরপুর সদর উপজেলা,বাংলাদেশ,খুলনা বিভাগ,street,,,,Bangladesh,Khulna,Meherpur,MeherpurSadar,Buripota,707400df9bc6df8e9eb9a53b3398ec83
3137,5587543400,893cf099a4bffff,23.7771562,88.6322308,বড় বাজার চাঁদনী,"Meherpur Sadar Upazila, Meherpur District, Khulna Division, Bangladesh","বড় বাজার চাঁদনী, মেহেরপুর সদর উপজেলা, মেহেরপুর জেলা, খুলনা বিভাগ, বাংলাদেশ",,"বড় বাজার চাঁদনী, ",,মেহেরপুর সদর উপজেলা,বাংলাদেশ,খুলনা বিভাগ,local_admin,boundaries,['marketplace'],[],Bangladesh,Khulna,Meherpur,MeherpurSadar,MeherpurPaurashava,42bb69c9242d8819274628e9c511b5d6
3139,5670853763,893cf0d6987ffff,23.773921,88.6314227,Over Trump,"Over Trump, Meherpur Sadar Upazila, Meherpur District, Khulna Division, Bangladesh","মেহেরপুর সদর উপজেলা, মেহেরপুর জেলা, খুলনা বিভাগ, বাংলাদেশ","Over Trump, ",,,মেহেরপুর সদর উপজেলা,বাংলাদেশ,খুলনা বিভাগ,local_admin,boundaries,['food_court'],[],Bangladesh,Khulna,Meherpur,MeherpurSadar,MeherpurPaurashava,42bb69c9242d8819274628e9c511b5d6
3141,5675048751,893cf0d698fffff,23.770551,88.6322179,Food Republic,"Food Republic, Meherpur Sadar Upazila, Meherpur District, Khulna Division, Bangladesh","মেহেরপুর সদর উপজেলা, মেহেরপুর জেলা, খুলনা বিভাগ, বাংলাদেশ","Food Republic, ",,,মেহেরপুর সদর উপজেলা,বাংলাদেশ,খুলনা বিভাগ,local_admin,boundaries,['fast_food'],[],Bangladesh,Khulna,Meherpur,MeherpurSadar,MeherpurPaurashava,42bb69c9242d8819274628e9c511b5d6
3144,5675048752,893cf0d698fffff,23.7705781,88.6323632,Meherpur News,"Meherpur News, Meherpur Sadar Upazila, Meherpur District, Khulna Division, Bangladesh","মেহেরপুর সদর উপজেলা, মেহেরপুর জেলা, খুলনা বিভাগ, বাংলাদেশ","Meherpur News, ",,,মেহেরপুর সদর উপজেলা,বাংলাদেশ,খুলনা বিভাগ,local_admin,boundaries,['newspaper'],[],Bangladesh,Khulna,Meherpur,MeherpurSadar,MeherpurPaurashava,42bb69c9242d8819274628e9c511b5d6
3147,5681054656,893cf099a4bffff,23.777549,88.6314047,Rupali Bank Limited,"Rupali Bank Limited, Meherpur Sadar Upazila, Meherpur District, Khulna Division, Bangladesh","মেহেরপুর সদর উপজেলা, মেহেরপুর জেলা, খুলনা বিভাগ, বাংলাদেশ","Rupali Bank Limited, ",,['Mohammed Ali Market'],মেহেরপুর সদর উপজেলা,বাংলাদেশ,খুলনা বিভাগ,local_admin,boundaries,['bank'],[],Bangladesh,Khulna,Meherpur,MeherpurSadar,MeherpurPaurashava,42bb69c9242d8819274628e9c511b5d6
3150,5681054657,893cf099a4bffff,23.7780719,88.6313254,Agarwala Bostraloy,"Agarwala Bostraloy, Meherpur Sadar Upazila, Meherpur District, Khulna Division, Bangladesh","মেহেরপুর সদর উপজেলা, মেহেরপুর জেলা, খুলনা বিভাগ, বাংলাদেশ","Agarwala Bostraloy, ",,,মেহেরপুর সদর উপজেলা,বাংলাদেশ,খুলনা বিভাগ,local_admin,boundaries,['clothes'],[],Bangladesh,Khulna,Meherpur,MeherpurSadar,MeherpurPaurashava,42bb69c9242d8819274628e9c511b5d6
3151,5681054658,893cf099a5bffff,23.7784418,88.6313852,Big Bazar,"Big Bazar, Meherpur Sadar Upazila, Meherpur District, Khulna Division, Bangladesh","মেহেরপুর সদর উপজেলা, মেহেরপুর জেলা, খুলনা বিভাগ, বাংলাদেশ","Big Bazar, ",,,মেহেরপুর সদর উপজেলা,বাংলাদেশ,খুলনা বিভাগ,local_admin,boundaries,['mall'],[],Bangladesh,Khulna,Meherpur,MeherpurSadar,MeherpurPaurashava,42bb69c9242d8819274628e9c511b5d6
3154,5681054659,893cf099a5bffff,23.7788885,88.6315656,Sri Sri Shibaloy Sharshoto Asrom,"Sri Sri Shibaloy Sharshoto Asrom, Meherpur Sadar Upazila, Meherpur District, Khulna Division, Bangladesh","মেহেরপুর সদর উপজেলা, মেহেরপুর জেলা, খুলনা বিভাগ, বাংলাদেশ","Sri Sri Shibaloy Sharshoto Asrom, ",,,মেহেরপুর সদর উপজেলা,বাংলাদেশ,খুলনা বিভাগ,local_admin,boundaries,['place_of_worship'],[],Bangladesh,Khulna,Meherpur,MeherpurSadar,MeherpurPaurashava,42bb69c9242d8819274628e9c511b5d6
3157,5722667451,893cf0d6987ffff,23.7737721,88.6314286,La Vogue,"La Vogue, Meherpur Sadar Upazila, Meherpur District, Khulna Division, Bangladesh","মেহেরপুর সদর উপজেলা, মেহেরপুর জেলা, খুলনা বিভাগ, বাংলাদেশ","La Vogue, ",,,মেহেরপুর সদর উপজেলা,বাংলাদেশ,খুলনা বিভাগ,local_admin,boundaries,['restaurant'],[],Bangladesh,Khulna,Meherpur,MeherpurSadar,MeherpurPaurashava,42bb69c9242d8819274628e9c511b5d6
3159,5722822830,893cf099eb7ffff,23.8137126,88.625125,Ujalpur Uttor Para Jame Mosque,"Ujalpur Uttor Para Jame Mosque, Ujalpur, Meherpur Sadar Upazila, Meherpur District, Khulna Division, Bangladesh","উজলপুর, মেহেরপুর সদর উপজেলা, মেহেরপুর জেলা, খুলনা বিভাগ, বাংলাদেশ","Ujalpur Uttor Para Jame Mosque, ",,['উজলপুর উত্তর পাড়া জামে মসজিদ'],মেহেরপুর সদর উপজেলা,বাংলাদেশ,খুলনা বিভাগ,locality,boundaries,['place_of_worship_muslim'],[],Bangladesh,Khulna,Meherpur,MeherpurSadar,Kutubpur,28476d09abc9100282d926c8290d5d2e
3161,5722822837,893cf099eb7ffff,23.8138182,88.6261335,Shifa Pharmacy,"Shifa Pharmacy, Ujalpur, Meherpur Sadar Upazila, Meherpur District, Khulna Division, Bangladesh","উজলপুর, মেহেরপুর সদর উপজেলা, মেহেরপুর জেলা, খুলনা বিভাগ, বাংলাদেশ","Shifa Pharmacy, ",,['শিফা ফার্মেসি'],মেহেরপুর সদর উপজেলা,বাংলাদেশ,খুলনা বিভাগ,locality,boundaries,['pharmacy'],[],Bangladesh,Khulna,Meherpur,MeherpurSadar,Kutubpur,28476d09abc9100282d926c8290d5d2e
3163,5735414102,893cf0d69afffff,23.7705334,88.6411687,মেহেরপুর ফায়ার সার্ভিস,"Meherpur Sadar Upazila, Meherpur District, Khulna Division, Bangladesh","মেহেরপুর ফায়ার সার্ভিস, মেহেরপুর সদর উপজেলা, মেহেরপুর জেলা, খুলনা বিভাগ, বাংলাদেশ",,"মেহেরপুর ফায়ার সার্ভিস, ",['Meherpur Fire Service'],মেহেরপুর সদর উপজেলা,বাংলাদেশ,খুলনা বিভাগ,local_admin,boundaries,['fire_station'],[],Bangladesh,Khulna,Meherpur,MeherpurSadar,MeherpurPaurashava,42bb69c9242d8819274628e9c511b5d6
3165,5735510248,893cf0d6933ffff,23.7664896,88.6407999,Meherpur Shaheed Minar,"Meherpur Shaheed Minar, Meherpur Sadar Upazila, Meherpur District, Khulna Division, Bangladesh","মেহেরপুর সদর উপজেলা, মেহেরপুর জেলা, খুলনা বিভাগ, বাংলাদেশ","Meherpur Shaheed Minar, ",,,মেহেরপুর সদর উপজেলা,বাংলাদেশ,খুলনা বিভাগ,local_admin,boundaries,['monument'],[],Bangladesh,Khulna,Meherpur,MeherpurSadar,MeherpurPaurashava,42bb69c9242d8819274628e9c511b5d6
3167,5735746569,893cf0d6933ffff,23.7679239,88.6411092,Meherpur Govt. College Mosque,"Meherpur Govt. College Mosque, Meherpur Sadar Upazila, Meherpur District, Khulna Division, Bangladesh","মেহেরপুর সদর উপজেলা, মেহেরপুর জেলা, খুলনা বিভাগ, বাংলাদেশ","Meherpur Govt. College Mosque, ",,['মেহেরপুর সরকারি কলেজ মসজিদ'],মেহেরপুর সদর উপজেলা,বাংলাদেশ,খুলনা বিভাগ,local_admin,boundaries,['place_of_worship_muslim'],[],Bangladesh,Khulna,Meherpur,MeherpurSadar,MeherpurPaurashava,42bb69c9242d8819274628e9c511b5d6
3169,5735746574,893cf0d69afffff,23.7700496,88.6406746,Meherpur Government Technical School and College,"Meherpur Government Technical School and College, Meherpur Sadar Upazila, Meherpur District, Khulna Division, Bangladesh","মেহেরপুর সদর উপজেলা, মেহেরপুর জেলা, খুলনা বিভাগ, বাংলাদেশ","Meherpur Government Technical School and College, ",,['মেহেরপুর সরকারি কারিগরি বিদ্যালয় এন্ড কলেজ'],মেহেরপুর সদর উপজেলা,বাংলাদেশ,খুলনা বিভাগ,local_admin,boundaries,['school'],[],Bangladesh,Khulna,Meherpur,MeherpurSadar,MeherpurPaurashava,42bb69c9242d8819274628e9c511b5d6
3171,5735747125,893cf08b4bbffff,23.7802413,88.6585521,মেহেরপুর পল্লী বিদ্যুৎ সমিতি,"Meherpur Sadar Upazila, Meherpur District, Khulna Division, Bangladesh","মেহেরপুর পল্লী বিদ্যুৎ সমিতি, মেহেরপুর সদর উপজেলা, মেহেরপুর জেলা, খুলনা বিভাগ, বাংলাদেশ",,"মেহেরপুর পল্লী বিদ্যুৎ সমিতি, ",,মেহেরপুর সদর উপজেলা,বাংলাদেশ,খুলনা বিভাগ,local_admin,boundaries,['substation'],[],Bangladesh,Khulna,Meherpur,MeherpurSadar,Amjhupi,4c5a696bef35a61b9945331b1b95cc34
3175,5735983315,893cf099dc3ffff,23.8330294,88.6401695,Kulbaria High School,"Kulbaria High School, Kulbaria, Meherpur Sadar Upazila, Meherpur District, Khulna Division, Bangladesh","কুলবাড়িয়া, কুলবাড়িয়া, মেহেরপুর সদর উপজেলা, মেহেরপুর জেলা, খুলনা বিভাগ, বাংলাদেশ","Kulbaria High School, ",,['কুল্বাড়িয়া মাধ্যমিক বিদ্যালয়'],মেহেরপুর সদর উপজেলা,বাংলাদেশ,খুলনা বিভাগ,local_admin,boundaries,['school'],[],Bangladesh,Khulna,Meherpur,MeherpurSadar,Kutubpur,28476d09abc9100282d926c8290d5d2e
3177,5736071307,893cf099a7bffff,23.7794677,88.6389862,Kutumbari Restaurant,"Kutumbari Restaurant, Meherpur Sadar Upazila, Meherpur District, Khulna Division, Bangladesh","মেহেরপুর সদর উপজেলা, মেহেরপুর জেলা, খুলনা বিভাগ, বাংলাদেশ","Kutumbari Restaurant, ",,['কুটুমবাড়ি রেস্টুরেন্ট'],মেহেরপুর সদর উপজেলা,বাংলাদেশ,খুলনা বিভাগ,local_admin,boundaries,['restaurant'],[],Bangladesh,Khulna,Meherpur,MeherpurSadar,MeherpurPaurashava,42bb69c9242d8819274628e9c511b5d6
3179,5741930009,893cf099ea3ffff,23.8090776,88.6248892,Ujalpur Mollah Para Jame Mosque,"Ujalpur Mollah Para Jame Mosque, Ujalpur, Meherpur Sadar Upazila, Meherpur District, Khulna Division, Bangladesh","উজলপুর, মেহেরপুর সদর উপজেলা, মেহেরপুর জেলা, খুলনা বিভাগ, বাংলাদেশ","Ujalpur Mollah Para Jame Mosque, ",,,মেহেরপুর সদর উপজেলা,বাংলাদেশ,খুলনা বিভাগ,locality,boundaries,['place_of_worship_muslim'],[],Bangladesh,Khulna,Meherpur,MeherpurSadar,Kutubpur,28476d09abc9100282d926c8290d5d2e
3181,5741930014,893cf099eabffff,23.8058168,88.6241056,Ujalpur Kuthipara Jame Mosque,"Ujalpur Kuthipara Jame Mosque, Ujalpur, Meherpur Sadar Upazila, Meherpur District, Khulna Division, Bangladesh","উজলপুর, মেহেরপুর সদর উপজেলা, মেহেরপুর জেলা, খুলনা বিভাগ, বাংলাদেশ","Ujalpur Kuthipara Jame Mosque, ",,,মেহেরপুর সদর উপজেলা,বাংলাদেশ,খুলনা বিভাগ,locality,boundaries,['place_of_worship_muslim'],[],Bangladesh,Khulna,Meherpur,MeherpurSadar,Kutubpur,28476d09abc9100282d926c8290d5d2e
3182,5741930019,893cf099ea7ffff,23.8122439,88.6291196,Ujalpur Baganpara Jame Mosque,"Ujalpur Baganpara Jame Mosque, Ujalpur, Meherpur Sadar Upazila, Meherpur District, Khulna Division, Bangladesh","উজলপুর, মেহেরপুর সদর উপজেলা, মেহেরপুর জেলা, খুলনা বিভাগ, বাংলাদেশ","Ujalpur Baganpara Jame Mosque, ",,,মেহেরপুর সদর উপজেলা,বাংলাদেশ,খুলনা বিভাগ,locality,boundaries,['place_of_worship_muslim'],[],Bangladesh,Khulna,Meherpur,MeherpurSadar,Kutubpur,28476d09abc9100282d926c8290d5d2e
3183,5741930020,893cf0998d3ffff,23.813155,88.6323707,Ujalpur Sahajipara Jame Mosque,"Ujalpur Sahajipara Jame Mosque, Ujalpur, Meherpur Sadar Upazila, Meherpur District, Khulna Division, Bangladesh","উজলপুর, মেহেরপুর সদর উপজেলা, মেহেরপুর জেলা, খুলনা বিভাগ, বাংলাদেশ","Ujalpur Sahajipara Jame Mosque, ",,,মেহেরপুর সদর উপজেলা,বাংলাদেশ,খুলনা বিভাগ,locality,boundaries,['place_of_worship_muslim'],[],Bangladesh,Khulna,Meherpur,MeherpurSadar,Kutubpur,28476d09abc9100282d926c8290d5d2e
3184,5788924446,893cf099a7bffff,23.7795545,88.6408776,Prime Lab Diagonistic and Consultaion Center,"Prime Lab Diagonistic and Consultaion Center, Meherpur Sadar Upazila, Meherpur District, Khulna Division, Bangladesh","মেহেরপুর সদর উপজেলা, মেহেরপুর জেলা, খুলনা বিভাগ, বাংলাদেশ","Prime Lab Diagonistic and Consultaion Center, ",,,মেহেরপুর সদর উপজেলা,বাংলাদেশ,খুলনা বিভাগ,local_admin,boundaries,['hospital'],[],Bangladesh,Khulna,Meherpur,MeherpurSadar,MeherpurPaurashava,42bb69c9242d8819274628e9c511b5d6
3186,5788924447,893cf099a7bffff,23.7790321,88.6418166,Sono Diagonistic and Clinic,"Sono Diagonistic and Clinic, Meherpur Sadar Upazila, Meherpur District, Khulna Division, Bangladesh","মেহেরপুর সদর উপজেলা, মেহেরপুর জেলা, খুলনা বিভাগ, বাংলাদেশ","Sono Diagonistic and Clinic, ",,,মেহেরপুর সদর উপজেলা,বাংলাদেশ,খুলনা বিভাগ,local_admin,boundaries,['hospital'],[],Bangladesh,Khulna,Meherpur,MeherpurSadar,MeherpurPaurashava,42bb69c9242d8819274628e9c511b5d6
3188,5887461527,893cf099eb3ffff,23.813079600000002,88.6237334,কায়েম বিশ্বাস স্মৃতি সংঘ,"Ujalpur, Meherpur Sadar Upazila, Meherpur District, Khulna Division, Bangladesh","কায়েম বিশ্বাস স্মৃতি সংঘ, উজলপুর, মেহেরপুর সদর উপজেলা, মেহেরপুর জেলা, খুলনা বিভাগ, বাংলাদেশ",,"কায়েম বিশ্বাস স্মৃতি সংঘ, ",,মেহেরপুর সদর উপজেলা,বাংলাদেশ,খুলনা বিভাগ,locality,boundaries,['social_facility'],[],Bangladesh,Khulna,Meherpur,MeherpurSadar,Kutubpur,28476d09abc9100282d926c8290d5d2e
3193,315945277,893cf0d5853ffff,23.650853464057853,88.59625556599627,Mujibnagar Rd,"Mujibnagar Rd, Meherpur Sadar Upazila, Meherpur District, Khulna Division, Bangladesh","মেহেরপুর সদর উপজেলা, মেহেরপুর জেলা, খুলনা বিভাগ, বাংলাদেশ",Mujibnagar Rd,,,মেহেরপুর সদর উপজেলা,বাংলাদেশ,খুলনা বিভাগ,street,,,,Bangladesh,Khulna,Meherpur,MujibNagar,Bagoan,3f761bf68d6f8a0194ffb3fee48d06de
3326,530843132,893cf09820fffff,23.838210911027087,88.61044070358682,Meherpur-Ujalpur-Fatepur-Teroghoria-Sholmari Road,"Meherpur-Ujalpur-Fatepur-Teroghoria-Sholmari Road, Meherpur Sadar Upazila, Meherpur District, Khulna Division, Bangladesh","মেহেরপুর সদর উপজেলা, মেহেরপুর জেলা, খুলনা বিভাগ, বাংলাদেশ",Meherpur-Ujalpur-Fatepur-Teroghoria-Sholmari Road,,,মেহেরপুর সদর উপজেলা,বাংলাদেশ,খুলনা বিভাগ,street,,,,Bangladesh,Khulna,Meherpur,MeherpurSadar,Kutubpur,28476d09abc9100282d926c8290d5d2e
3331,765885206,893cf0d5817ffff,23.658337833166637,88.60213870849809,Meherpur Mujibnagar Road,"Meherpur Mujibnagar Road, Meherpur Sadar Upazila, Meherpur District, Khulna Division, Bangladesh","মেহেরপুর সদর উপজেলা, মেহেরপুর জেলা, খুলনা বিভাগ, বাংলাদেশ",Meherpur Mujibnagar Road,,,মেহেরপুর সদর উপজেলা,বাংলাদেশ,খুলনা বিভাগ,street,,,,Bangladesh,Khulna,Meherpur,MujibNagar,Bagoan,3f761bf68d6f8a0194ffb3fee48d06de
3385,6235275825,893cf0d5e27ffff,23.6499262,88.5930663,মুজিবনগর,"Mujibnogor, Meherpur Sadar Upazila, Meherpur District, Khulna Division, Bangladesh","মুজিবনগর, মেহেরপুর সদর উপজেলা, মেহেরপুর জেলা, খুলনা বিভাগ, বাংলাদেশ",,"মুজিবনগর, ","['মুজিবনগর', 'Mujibnogor']",মেহেরপুর সদর উপজেলা,বাংলাদেশ,খুলনা বিভাগ,local_admin,,,,Bangladesh,Khulna,Meherpur,MujibNagar,Bagoan,3f761bf68d6f8a0194ffb3fee48d06de
3398,6716272756,893cf098e9bffff,23.8611135,88.6487239,,"Gangni Upazila, Meherpur District, Khulna Division, Bangladesh","গাংনী উপজেলা, মেহেরপুর জেলা, খুলনা বিভাগ, বাংলাদেশ",,,,গাংনী উপজেলা,বাংলাদেশ,খুলনা বিভাগ,local_admin,boundaries,['ford'],[],Bangladesh,Khulna,Meherpur,Gangni,Kathuli,9c0083a76ff300c90901d5a70ac17064
3437,164137992,893cf081943ffff,23.858663170036955,88.8341669134819,বামুন্দী-আলমডাঙ্গা সড়ক,"Bamundi - Alamdanga Road, Gangni Upazila, Meherpur District, Khulna Division, Bangladesh","বামুন্দী-আলমডাঙ্গা সড়ক, গাংনী উপজেলা, মেহেরপুর জেলা, খুলনা বিভাগ, বাংলাদেশ",,"বামুন্দী-আলমডাঙ্গা সড়ক, ",['Bamundi - Alamdanga Road'],গাংনী উপজেলা,বাংলাদেশ,খুলনা বিভাগ,street,,,,Bangladesh,Khulna,Meherpur,Gangni,Matmura,f2dbaf9e05bd0a1912416e5863b076e0
3438,164137992,893cf081943ffff,23.858663170036955,88.8341669134819,বামুন্দী-আলমডাঙ্গা সড়ক,"Bamundi - Alamdanga Road, Gangni Upazila, Meherpur District, Khulna Division, Bangladesh","বামুন্দী-আলমডাঙ্গা সড়ক, গাংনী উপজেলা, মেহেরপুর জেলা, খুলনা বিভাগ, বাংলাদেশ",,"বামুন্দী-আলমডাঙ্গা সড়ক, ",['Bamundi - Alamdanga Road'],গাংনী উপজেলা,বাংলাদেশ,খুলনা বিভাগ,street,,,,Bangladesh,Khulna,Meherpur,Gangni,SholaTaka,10dacabc8c6319215990ea3367f1da97
3483,230957400,893cf08030fffff,23.892155106828046,88.805452824873,Kazipur Road,"Kazipur Road, Gangni Upazila, Meherpur District, Khulna Division, Bangladesh","গাংনী উপজেলা, মেহেরপুর জেলা, খুলনা বিভাগ, বাংলাদেশ",Kazipur Road,,,গাংনী উপজেলা,বাংলাদেশ,খুলনা বিভাগ,street,,,,Bangladesh,Khulna,Meherpur,Gangni,Bamandi,57bbe2276a1e7ee95d0b431fd3528248
3529,7462206785,893cf0d6903ffff,23.7665467,88.6334874,Bhai Bhai Farmacy ভাই ভাই ফার্মেসী,"Bhai Bhai Farmacy, Meherpur Sadar Upazila, Meherpur District, Khulna Division, Bangladesh","ভাই ভাই ফার্মেসী, মেহেরপুর সদর উপজেলা, মেহেরপুর জেলা, খুলনা বিভাগ, বাংলাদেশ",,,,মেহেরপুর সদর উপজেলা,বাংলাদেশ,খুলনা বিভাগ,local_admin,boundaries,['pharmacy'],[],Bangladesh,Khulna,Meherpur,MeherpurSadar,MeherpurPaurashava,42bb69c9242d8819274628e9c511b5d6
3531,7462235302,893cf0d6917ffff,23.769531,88.6337957,Rony Restaurand রনি রেস্তোরা,"Rony Restaurand, Meherpur Sadar Upazila, Meherpur District, Khulna Division, Bangladesh","রনি রেস্তোরা, মেহেরপুর সদর উপজেলা, মেহেরপুর জেলা, খুলনা বিভাগ, বাংলাদেশ",,,,মেহেরপুর সদর উপজেলা,বাংলাদেশ,খুলনা বিভাগ,local_admin,boundaries,['restaurant'],[],Bangladesh,Khulna,Meherpur,MeherpurSadar,MeherpurPaurashava,42bb69c9242d8819274628e9c511b5d6
3533,7462245811,893cf0d6917ffff,23.7695792,88.6348691,Fin Food ফিন ফুড,"Fin Food, Meherpur Sadar Upazila, Meherpur District, Khulna Division, Bangladesh","ফিন ফুড, মেহেরপুর সদর উপজেলা, মেহেরপুর জেলা, খুলনা বিভাগ, বাংলাদেশ",,,,মেহেরপুর সদর উপজেলা,বাংলাদেশ,খুলনা বিভাগ,local_admin,boundaries,['restaurant'],[],Bangladesh,Khulna,Meherpur,MeherpurSadar,MeherpurPaurashava,42bb69c9242d8819274628e9c511b5d6
3535,7462253002,893cf0d6917ffff,23.7694578,88.6350494,BRTC Bus Counter বিআরটিসি বাস কাউন্টার,"BRTC Bus Counter, Meherpur Sadar Upazila, Meherpur District, Khulna Division, Bangladesh","বিআরটিসি বাস কাউন্টার, মেহেরপুর সদর উপজেলা, মেহেরপুর জেলা, খুলনা বিভাগ, বাংলাদেশ",,,,মেহেরপুর সদর উপজেলা,বাংলাদেশ,খুলনা বিভাগ,street,boundaries,['bus_stop'],[],Bangladesh,Khulna,Meherpur,MeherpurSadar,MeherpurPaurashava,42bb69c9242d8819274628e9c511b5d6
3546,8944875157,893cf0d6917ffff,23.7695589,88.6329083,Hotel Bazar More,"Hotel Bazar More, Meherpur Sadar Upazila, Meherpur District, Khulna Division, Bangladesh","মেহেরপুর সদর উপজেলা, মেহেরপুর জেলা, খুলনা বিভাগ, বাংলাদেশ","Hotel Bazar More, ",,,মেহেরপুর সদর উপজেলা,বাংলাদেশ,খুলনা বিভাগ,local_admin,boundaries,['hotel'],[],Bangladesh,Khulna,Meherpur,MeherpurSadar,MeherpurPaurashava,42bb69c9242d8819274628e9c511b5d6
3552,403108132,893cf081d17ffff,23.884996150270005,88.82276242537348,কুষ্টিয়া - মেহেরপুর মহাসড়ক,"-, Kushtia - Meherpur Highway, Gangni Upazila, Meherpur District, Khulna Division, Bangladesh","কুষ্টিয়া মেহেরপুর মহাসড়ক, গাংনী উপজেলা, মেহেরপুর জেলা, খুলনা বিভাগ, বাংলাদেশ",,"কুষ্টিয়া - মেহেরপুর মহাসড়ক, ",['Kushtia - Meherpur Highway'],গাংনী উপজেলা,বাংলাদেশ,খুলনা বিভাগ,street,,,,Bangladesh,Khulna,Meherpur,Gangni,Matmura,f2dbaf9e05bd0a1912416e5863b076e0
3743,2393800873,893cf08030fffff,23.8938537,88.8045702,বামুন্দী,"Bamundi, Gangni Upazila, Meherpur District, Khulna Division, Bangladesh","বামুন্দী, গাংনী উপজেলা, মেহেরপুর জেলা, খুলনা বিভাগ, বাংলাদেশ",,"বামুন্দী, ",['Bamundi'],গাংনী উপজেলা,বাংলাদেশ,খুলনা বিভাগ,locality,,,,Bangladesh,Khulna,Meherpur,Gangni,Bamandi,57bbe2276a1e7ee95d0b431fd3528248
3774,9667426383,893cf08b063ffff,23.7494087,88.6795811,,"Meherpur Sadar Upazila, Meherpur District, Khulna Division, Bangladesh","মেহেরপুর সদর উপজেলা, মেহেরপুর জেলা, খুলনা বিভাগ, বাংলাদেশ",,,,মেহেরপুর সদর উপজেলা,বাংলাদেশ,খুলনা বিভাগ,local_admin,boundaries,['school'],[],Bangladesh,Khulna,Meherpur,MeherpurSadar,Amjhupi,4c5a696bef35a61b9945331b1b95cc34
3775,9667484938,893cf08b06bffff,23.7486595,88.6787339,Islami Bank Bangladesh Ltd,"Islami Bank Bangladesh Ltd, Meherpur Sadar Upazila, Meherpur District, Khulna Division, Bangladesh","মেহেরপুর সদর উপজেলা, মেহেরপুর জেলা, খুলনা বিভাগ, বাংলাদেশ","Islami Bank Bangladesh Ltd, ",,,মেহেরপুর সদর উপজেলা,বাংলাদেশ,খুলনা বিভাগ,local_admin,boundaries,['bank'],[],Bangladesh,Khulna,Meherpur,MeherpurSadar,Amjhupi,4c5a696bef35a61b9945331b1b95cc34
3776,9667502003,893cf08b06bffff,23.7480455,88.6801467,Shopno Shoe & Bag House,"Shopno Shoe & Bag House, Meherpur Sadar Upazila, Meherpur District, Khulna Division, Bangladesh","মেহেরপুর সদর উপজেলা, মেহেরপুর জেলা, খুলনা বিভাগ, বাংলাদেশ","Shopno Shoe & Bag House, ",,,মেহেরপুর সদর উপজেলা,বাংলাদেশ,খুলনা বিভাগ,local_admin,boundaries,['shoes'],[],Bangladesh,Khulna,Meherpur,MeherpurSadar,Amjhupi,4c5a696bef35a61b9945331b1b95cc34
3777,9667504659,893cf08b06bffff,23.7481683,88.6794535,Shohag Garments,"Shohag Garments, Meherpur Sadar Upazila, Meherpur District, Khulna Division, Bangladesh","মেহেরপুর সদর উপজেলা, মেহেরপুর জেলা, খুলনা বিভাগ, বাংলাদেশ","Shohag Garments, ",,,মেহেরপুর সদর উপজেলা,বাংলাদেশ,খুলনা বিভাগ,local_admin,boundaries,['clothes'],[],Bangladesh,Khulna,Meherpur,MeherpurSadar,Amjhupi,4c5a696bef35a61b9945331b1b95cc34
3779,9667505949,893cf08b06bffff,23.7485311,88.6794027,Payel Bostro bitan,"Payel Bostro bitan, Meherpur Sadar Upazila, Meherpur District, Khulna Division, Bangladesh","মেহেরপুর সদর উপজেলা, মেহেরপুর জেলা, খুলনা বিভাগ, বাংলাদেশ","Payel Bostro bitan, ",,,মেহেরপুর সদর উপজেলা,বাংলাদেশ,খুলনা বিভাগ,local_admin,boundaries,['clothes'],[],Bangladesh,Khulna,Meherpur,MeherpurSadar,Amjhupi,4c5a696bef35a61b9945331b1b95cc34
3781,9667510747,893cf08b063ffff,23.7491414,88.6784026,Sonali Bank Limited,"Sonali Bank Limited, Meherpur Sadar Upazila, Meherpur District, Khulna Division, Bangladesh","মেহেরপুর সদর উপজেলা, মেহেরপুর জেলা, খুলনা বিভাগ, বাংলাদেশ","Sonali Bank Limited, ",,,মেহেরপুর সদর উপজেলা,বাংলাদেশ,খুলনা বিভাগ,local_admin,boundaries,['bank'],[],Bangladesh,Khulna,Meherpur,MeherpurSadar,Amjhupi,4c5a696bef35a61b9945331b1b95cc34
3783,9667518253,893cf08b063ffff,23.7486483,88.6795389,Haque Pharmacy,"Haque Pharmacy, Meherpur Sadar Upazila, Meherpur District, Khulna Division, Bangladesh","মেহেরপুর সদর উপজেলা, মেহেরপুর জেলা, খুলনা বিভাগ, বাংলাদেশ","Haque Pharmacy, ",,,মেহেরপুর সদর উপজেলা,বাংলাদেশ,খুলনা বিভাগ,local_admin,boundaries,['chemist'],[],Bangladesh,Khulna,Meherpur,MeherpurSadar,Amjhupi,4c5a696bef35a61b9945331b1b95cc34
3785,9667525745,893cf08b063ffff,23.7485571,88.6797503,Haque Super Market,"Haque Super Market, Meherpur Sadar Upazila, Meherpur District, Khulna Division, Bangladesh","মেহেরপুর সদর উপজেলা, মেহেরপুর জেলা, খুলনা বিভাগ, বাংলাদেশ","Haque Super Market, ",,,মেহেরপুর সদর উপজেলা,বাংলাদেশ,খুলনা বিভাগ,local_admin,boundaries,['supermarket'],[],Bangladesh,Khulna,Meherpur,MeherpurSadar,Amjhupi,4c5a696bef35a61b9945331b1b95cc34
3787,9667526304,893cf08b06bffff,23.7482036,88.6799515,Look At Me Fassion,"Look At Me Fassion, Meherpur Sadar Upazila, Meherpur District, Khulna Division, Bangladesh","মেহেরপুর সদর উপজেলা, মেহেরপুর জেলা, খুলনা বিভাগ, বাংলাদেশ","Look At Me Fassion, ",,,মেহেরপুর সদর উপজেলা,বাংলাদেশ,খুলনা বিভাগ,local_admin,boundaries,['clothes'],[],Bangladesh,Khulna,Meherpur,MeherpurSadar,Amjhupi,4c5a696bef35a61b9945331b1b95cc34
3793,9667528488,893cf08b06fffff,23.747760800000002,88.6812586,Mayer Doa Enterprize,"Mayer Doa Enterprize, Meherpur Sadar Upazila, Meherpur District, Khulna Division, Bangladesh","মেহেরপুর সদর উপজেলা, মেহেরপুর জেলা, খুলনা বিভাগ, বাংলাদেশ","Mayer Doa Enterprize, ",,,মেহেরপুর সদর উপজেলা,বাংলাদেশ,খুলনা বিভাগ,local_admin,boundaries,['electronics'],[],Bangladesh,Khulna,Meherpur,MeherpurSadar,Amjhupi,4c5a696bef35a61b9945331b1b95cc34
3795,9667529127,893cf08b063ffff,23.7499805,88.6792177,"Johura Market, Amjhupi","Johura Market Amjhupi, Meherpur Sadar Upazila, Meherpur District, Khulna Division, Bangladesh","মেহেরপুর সদর উপজেলা, মেহেরপুর জেলা, খুলনা বিভাগ, বাংলাদেশ","Johura Market Amjhupi, ",,,মেহেরপুর সদর উপজেলা,বাংলাদেশ,খুলনা বিভাগ,local_admin,boundaries,['marketplace'],[],Bangladesh,Khulna,Meherpur,MeherpurSadar,Amjhupi,4c5a696bef35a61b9945331b1b95cc34
3797,9667546242,893cf08b06fffff,23.7478985,88.6808622,Riyaz Garments,"Riyaz Garments, Meherpur Sadar Upazila, Meherpur District, Khulna Division, Bangladesh","মেহেরপুর সদর উপজেলা, মেহেরপুর জেলা, খুলনা বিভাগ, বাংলাদেশ","Riyaz Garments, ",,,মেহেরপুর সদর উপজেলা,বাংলাদেশ,খুলনা বিভাগ,local_admin,boundaries,['clothes'],[],Bangladesh,Khulna,Meherpur,MeherpurSadar,Amjhupi,4c5a696bef35a61b9945331b1b95cc34
3799,9667546243,893cf08b06fffff,23.7479375,88.6815127,Top 10 Garments & Bastralaya,"Top 10 Garments & Bastralaya, Meherpur Sadar Upazila, Meherpur District, Khulna Division, Bangladesh","মেহেরপুর সদর উপজেলা, মেহেরপুর জেলা, খুলনা বিভাগ, বাংলাদেশ","Top 10 Garments & Bastralaya, ",,,মেহেরপুর সদর উপজেলা,বাংলাদেশ,খুলনা বিভাগ,local_admin,boundaries,['clothes'],[],Bangladesh,Khulna,Meherpur,MeherpurSadar,Amjhupi,4c5a696bef35a61b9945331b1b95cc34
3801,9667557628,893cf08b06fffff,23.7477682,88.6813826,Sayed Computer,"Sayed Computer, Meherpur Sadar Upazila, Meherpur District, Khulna Division, Bangladesh","মেহেরপুর সদর উপজেলা, মেহেরপুর জেলা, খুলনা বিভাগ, বাংলাদেশ","Sayed Computer, ",,,মেহেরপুর সদর উপজেলা,বাংলাদেশ,খুলনা বিভাগ,local_admin,boundaries,['computer'],[],Bangladesh,Khulna,Meherpur,MeherpurSadar,Amjhupi,4c5a696bef35a61b9945331b1b95cc34
3803,9667557884,893cf08b06fffff,23.7481627,88.6809232,Khoiruddin Super Market,"Khoiruddin Super Market, Meherpur Sadar Upazila, Meherpur District, Khulna Division, Bangladesh","মেহেরপুর সদর উপজেলা, মেহেরপুর জেলা, খুলনা বিভাগ, বাংলাদেশ","Khoiruddin Super Market, ",,,মেহেরপুর সদর উপজেলা,বাংলাদেশ,খুলনা বিভাগ,local_admin,boundaries,['supermarket'],[],Bangladesh,Khulna,Meherpur,MeherpurSadar,Amjhupi,4c5a696bef35a61b9945331b1b95cc34
3804,9667563779,893cf08b063ffff,23.7494632,88.6792299,Vai Vai Hardware Store,"Vai Vai Hardware Store, Meherpur Sadar Upazila, Meherpur District, Khulna Division, Bangladesh","মেহেরপুর সদর উপজেলা, মেহেরপুর জেলা, খুলনা বিভাগ, বাংলাদেশ","Vai Vai Hardware Store, ",,,মেহেরপুর সদর উপজেলা,বাংলাদেশ,খুলনা বিভাগ,local_admin,boundaries,['hardware'],[],Bangladesh,Khulna,Meherpur,MeherpurSadar,Amjhupi,4c5a696bef35a61b9945331b1b95cc34
3806,9667570972,893cf08b063ffff,23.7490651,88.6784189,"Grameen Bank, Amjhupi","Grameen Bank Amjhupi, Meherpur Sadar Upazila, Meherpur District, Khulna Division, Bangladesh","মেহেরপুর সদর উপজেলা, মেহেরপুর জেলা, খুলনা বিভাগ, বাংলাদেশ","Grameen Bank Amjhupi, ",,,মেহেরপুর সদর উপজেলা,বাংলাদেশ,খুলনা বিভাগ,local_admin,boundaries,['bank'],[],Bangladesh,Khulna,Meherpur,MeherpurSadar,Amjhupi,4c5a696bef35a61b9945331b1b95cc34
3807,9667580723,893cf08b06bffff,23.7477068,88.6794881,Jyoti Electronics,"Jyoti Electronics, Meherpur Sadar Upazila, Meherpur District, Khulna Division, Bangladesh","মেহেরপুর সদর উপজেলা, মেহেরপুর জেলা, খুলনা বিভাগ, বাংলাদেশ","Jyoti Electronics, ",,,মেহেরপুর সদর উপজেলা,বাংলাদেশ,খুলনা বিভাগ,local_admin,boundaries,['electronics'],[],Bangladesh,Khulna,Meherpur,MeherpurSadar,Amjhupi,4c5a696bef35a61b9945331b1b95cc34
3809,9667581732,893cf08b063ffff,23.7503266,88.6793702,Halima Garments & Clothing Store,"Halima Garments & Clothing Store, Meherpur Sadar Upazila, Meherpur District, Khulna Division, Bangladesh","মেহেরপুর সদর উপজেলা, মেহেরপুর জেলা, খুলনা বিভাগ, বাংলাদেশ","Halima Garments & Clothing Store, ",,,মেহেরপুর সদর উপজেলা,বাংলাদেশ,খুলনা বিভাগ,local_admin,boundaries,['clothes'],[],Bangladesh,Khulna,Meherpur,MeherpurSadar,Amjhupi,4c5a696bef35a61b9945331b1b95cc34
3811,9667582252,893cf08b06bffff,23.7483097,88.6793539,Atarul Tea Stall,"Atarul Tea Stall, Meherpur Sadar Upazila, Meherpur District, Khulna Division, Bangladesh","মেহেরপুর সদর উপজেলা, মেহেরপুর জেলা, খুলনা বিভাগ, বাংলাদেশ","Atarul Tea Stall, ",,,মেহেরপুর সদর উপজেলা,বাংলাদেশ,খুলনা বিভাগ,local_admin,boundaries,['tea'],[],Bangladesh,Khulna,Meherpur,MeherpurSadar,Amjhupi,4c5a696bef35a61b9945331b1b95cc34
3813,9667582909,893cf08b063ffff,23.7493572,88.6793092,Pharmacy,"Pharmacy, Meherpur Sadar Upazila, Meherpur District, Khulna Division, Bangladesh","মেহেরপুর সদর উপজেলা, মেহেরপুর জেলা, খুলনা বিভাগ, বাংলাদেশ","Pharmacy, ",,,মেহেরপুর সদর উপজেলা,বাংলাদেশ,খুলনা বিভাগ,local_admin,boundaries,['chemist'],[],Bangladesh,Khulna,Meherpur,MeherpurSadar,Amjhupi,4c5a696bef35a61b9945331b1b95cc34
3840,230956609,893cf0d6987ffff,23.77518186,88.63172537,Shaheed Dr. Shamsujjoha Park,"Shaheed Dr. Shamsujjoha Park, Meherpur Sadar Upazila, Meherpur District, Khulna Division, Bangladesh","মেহেরপুর সদর উপজেলা, মেহেরপুর জেলা, খুলনা বিভাগ, বাংলাদেশ","Shaheed Dr. Shamsujjoha Park, ",,['শহীদ ড: শামসুজ্জোহা পার্ক'],মেহেরপুর সদর উপজেলা,বাংলাদেশ,খুলনা বিভাগ,local_admin,boundaries,['park'],[],Bangladesh,Khulna,Meherpur,MeherpurSadar,MeherpurPaurashava,42bb69c9242d8819274628e9c511b5d6
3850,315946581,893cf0d5d43ffff,23.66948798,88.60332153,Mujibnagar Health Complex,"Mujibnagar Health Complex, Meherpur Sadar Upazila, Meherpur District, Khulna Division, Bangladesh","মেহেরপুর সদর উপজেলা, মেহেরপুর জেলা, খুলনা বিভাগ, বাংলাদেশ","Mujibnagar Health Complex, ",,,মেহেরপুর সদর উপজেলা,বাংলাদেশ,খুলনা বিভাগ,local_admin,boundaries,['hospital'],[],Bangladesh,Khulna,Meherpur,MujibNagar,Monakhali,8bb2fbe491a76045b2b0ce3ea8ea84a5
3893,481829351,893cf0d58b3ffff,23.66539202,88.60419681,Kedargonj Bazar,"Kedargonj Bazar, Meherpur Sadar Upazila, Meherpur District, Khulna Division, Bangladesh","মেহেরপুর সদর উপজেলা, মেহেরপুর জেলা, খুলনা বিভাগ, বাংলাদেশ","Kedargonj Bazar, ",,,মেহেরপুর সদর উপজেলা,বাংলাদেশ,খুলনা বিভাগ,local_admin,boundaries,['marketplace'],[],Bangladesh,Khulna,Meherpur,MujibNagar,Bagoan,3f761bf68d6f8a0194ffb3fee48d06de
4161,530863365,893cf0d69b3ffff,23.77486285,88.63411882,বয়েজ স্কুল খেলার মাঠ,"Meherpur Sadar Upazila, Meherpur District, Khulna Division, Bangladesh","বয়েজ স্কুল খেলার মাঠ, মেহেরপুর সদর উপজেলা, মেহেরপুর জেলা, খুলনা বিভাগ, বাংলাদেশ",,"বয়েজ স্কুল খেলার মাঠ, ",,মেহেরপুর সদর উপজেলা,বাংলাদেশ,খুলনা বিভাগ,local_admin,boundaries,['playground'],[],Bangladesh,Khulna,Meherpur,MeherpurSadar,MeherpurPaurashava,42bb69c9242d8819274628e9c511b5d6
4163,531037520,893cf099eb7ffff,23.81483983,88.62605153,,"Ujalpur, Meherpur Sadar Upazila, Meherpur District, Khulna Division, Bangladesh","উজলপুর, মেহেরপুর সদর উপজেলা, মেহেরপুর জেলা, খুলনা বিভাগ, বাংলাদেশ",,,,মেহেরপুর সদর উপজেলা,বাংলাদেশ,খুলনা বিভাগ,locality,boundaries,['playground'],[],Bangladesh,Khulna,Meherpur,MeherpurSadar,Kutubpur,28476d09abc9100282d926c8290d5d2e
4165,531039024,893cf099c7bffff,23.81656743,88.62737492,Ujalpur Haat,"Ujalpur Haat, Ujalpur, Meherpur Sadar Upazila, Meherpur District, Khulna Division, Bangladesh","উজলপুর, মেহেরপুর সদর উপজেলা, মেহেরপুর জেলা, খুলনা বিভাগ, বাংলাদেশ","Ujalpur Haat, ",,,মেহেরপুর সদর উপজেলা,বাংলাদেশ,খুলনা বিভাগ,locality,boundaries,['marketplace'],[],Bangladesh,Khulna,Meherpur,MeherpurSadar,Kutubpur,28476d09abc9100282d926c8290d5d2e
4167,531076133,893cf0d6933ffff,23.76716734,88.64133854,,"Meherpur Sadar Upazila, Meherpur District, Khulna Division, Bangladesh","মেহেরপুর সদর উপজেলা, মেহেরপুর জেলা, খুলনা বিভাগ, বাংলাদেশ",,,,মেহেরপুর সদর উপজেলা,বাংলাদেশ,খুলনা বিভাগ,local_admin,boundaries,['playground'],[],Bangladesh,Khulna,Meherpur,MeherpurSadar,MeherpurPaurashava,42bb69c9242d8819274628e9c511b5d6
4385,547967442,893cf099a6bffff,23.7779628,88.6420993,Meherpur General Hospital,"Meherpur General Hospital, Meherpur Sadar Upazila, Meherpur District, Khulna Division, Bangladesh","মেহেরপুর সদর উপজেলা, মেহেরপুর জেলা, খুলনা বিভাগ, বাংলাদেশ","Meherpur General Hospital, ",,,মেহেরপুর সদর উপজেলা,বাংলাদেশ,খুলনা বিভাগ,local_admin,boundaries,['hospital'],[],Bangladesh,Khulna,Meherpur,MeherpurSadar,MeherpurPaurashava,42bb69c9242d8819274628e9c511b5d6
4421,584554612,893cf0d6987ffff,23.77454397,88.63154916,Sonali Bank Ltd,"Sonali Bank Ltd, Meherpur Sadar Upazila, Meherpur District, Khulna Division, Bangladesh","মেহেরপুর সদর উপজেলা, মেহেরপুর জেলা, খুলনা বিভাগ, বাংলাদেশ","Sonali Bank Ltd, ",,,মেহেরপুর সদর উপজেলা,বাংলাদেশ,খুলনা বিভাগ,local_admin,boundaries,['bank'],[],Bangladesh,Khulna,Meherpur,MeherpurSadar,MeherpurPaurashava,42bb69c9242d8819274628e9c511b5d6
4424,584554861,893cf0d6987ffff,23.77524989,88.63208231,Meherpur Water Tower,"Meherpur Water Tower, Meherpur Sadar Upazila, Meherpur District, Khulna Division, Bangladesh","মেহেরপুর সদর উপজেলা, মেহেরপুর জেলা, খুলনা বিভাগ, বাংলাদেশ","Meherpur Water Tower, ",,,মেহেরপুর সদর উপজেলা,বাংলাদেশ,খুলনা বিভাগ,local_admin,boundaries,['water_tower'],[],Bangladesh,Khulna,Meherpur,MeherpurSadar,MeherpurPaurashava,42bb69c9242d8819274628e9c511b5d6
4426,596314439,893cf0d6903ffff,23.76631585,88.63366582,,"Meherpur Sadar Upazila, Meherpur District, Khulna Division, Bangladesh","মেহেরপুর সদর উপজেলা, মেহেরপুর জেলা, খুলনা বিভাগ, বাংলাদেশ",,,,মেহেরপুর সদর উপজেলা,বাংলাদেশ,খুলনা বিভাগ,local_admin,boundaries,['pitch'],[],Bangladesh,Khulna,Meherpur,MeherpurSadar,MeherpurPaurashava,42bb69c9242d8819274628e9c511b5d6
4428,596314493,893cf0d690fffff,23.76538345,88.63534623,Meherpur Stadium,"Meherpur Stadium, Meherpur Sadar Upazila, Meherpur District, Khulna Division, Bangladesh","মেহেরপুর সদর উপজেলা, মেহেরপুর জেলা, খুলনা বিভাগ, বাংলাদেশ","Meherpur Stadium, ",,['মেহেরপুর স্টেডিয়াম'],মেহেরপুর সদর উপজেলা,বাংলাদেশ,খুলনা বিভাগ,local_admin,boundaries,['stadium'],[],Bangladesh,Khulna,Meherpur,MeherpurSadar,MeherpurPaurashava,42bb69c9242d8819274628e9c511b5d6
4430,604434132,893cf0d6923ffff,23.76514678,88.64162508,Meherpur Paura Cemeteries,"Meherpur Paura Cemeteries, Meherpur Sadar Upazila, Meherpur District, Khulna Division, Bangladesh","মেহেরপুর সদর উপজেলা, মেহেরপুর জেলা, খুলনা বিভাগ, বাংলাদেশ","Meherpur Paura Cemeteries, ",,['মেহেরপুর পৌর্ব গোরস্থান'],মেহেরপুর সদর উপজেলা,বাংলাদেশ,খুলনা বিভাগ,local_admin,boundaries,['cemetery'],[],Bangladesh,Khulna,Meherpur,MeherpurSadar,MeherpurPaurashava,42bb69c9242d8819274628e9c511b5d6
4432,604434160,893cf0d6967ffff,23.75801856,88.64064787,Meherpur Prison,"Meherpur Prison, Meherpur Sadar Upazila, Meherpur District, Khulna Division, Bangladesh","মেহেরপুর সদর উপজেলা, মেহেরপুর জেলা, খুলনা বিভাগ, বাংলাদেশ","Meherpur Prison, ",,['মেহেরপুর জেলখানা'],মেহেরপুর সদর উপজেলা,বাংলাদেশ,খুলনা বিভাগ,local_admin,boundaries,['prison'],[],Bangladesh,Khulna,Meherpur,MeherpurSadar,Amda,4aaa7391100e50cc24a47cf1ad84de8d
4433,604492683,893cf099e17ffff,23.80749382,88.62136999,Ujalpur Bridge,"Ujalpur Bridge, Meherpur Sadar Upazila, Meherpur District, Khulna Division, Bangladesh","মেহেরপুর সদর উপজেলা, মেহেরপুর জেলা, খুলনা বিভাগ, বাংলাদেশ","Ujalpur Bridge, ",,"['উজলপুর ব্রীজ', 'Ujalpur Bridge']",মেহেরপুর সদর উপজেলা,বাংলাদেশ,খুলনা বিভাগ,local_admin,boundaries,['bridge'],[],Bangladesh,Khulna,Meherpur,MeherpurSadar,Kutubpur,28476d09abc9100282d926c8290d5d2e
4435,604517314,893cf0d5d6bffff,23.66710856,88.61311567,,"Meherpur Sadar Upazila, Meherpur District, Khulna Division, Bangladesh","মেহেরপুর সদর উপজেলা, মেহেরপুর জেলা, খুলনা বিভাগ, বাংলাদেশ",,,,মেহেরপুর সদর উপজেলা,বাংলাদেশ,খুলনা বিভাগ,local_admin,boundaries,['bridge'],[],Bangladesh,Khulna,Meherpur,MujibNagar,Monakhali,8bb2fbe491a76045b2b0ce3ea8ea84a5
4437,604517315,893cf0d5d77ffff,23.673724,88.61458782,,"Meherpur Sadar Upazila, Meherpur District, Khulna Division, Bangladesh","মেহেরপুর সদর উপজেলা, মেহেরপুর জেলা, খুলনা বিভাগ, বাংলাদেশ",,,,মেহেরপুর সদর উপজেলা,বাংলাদেশ,খুলনা বিভাগ,local_admin,boundaries,['bridge'],[],Bangladesh,Khulna,Meherpur,MujibNagar,Monakhali,8bb2fbe491a76045b2b0ce3ea8ea84a5
4441,604536539,893cf099dc3ffff,23.8325771,88.64006568,,"Kulbaria, Meherpur Sadar Upazila, Meherpur District, Khulna Division, Bangladesh","কুলবাড়িয়া, কুলবাড়িয়া, মেহেরপুর সদর উপজেলা, মেহেরপুর জেলা, খুলনা বিভাগ, বাংলাদেশ",,,,মেহেরপুর সদর উপজেলা,বাংলাদেশ,খুলনা বিভাগ,local_admin,boundaries,['playground'],[],Bangladesh,Khulna,Meherpur,MeherpurSadar,Kutubpur,28476d09abc9100282d926c8290d5d2e
4443,604536541,893cf098367ffff,23.83986488,88.64184355,,"Meherpur Sadar Upazila, Meherpur District, Khulna Division, Bangladesh","মেহেরপুর সদর উপজেলা, মেহেরপুর জেলা, খুলনা বিভাগ, বাংলাদেশ",,,,মেহেরপুর সদর উপজেলা,বাংলাদেশ,খুলনা বিভাগ,local_admin,boundaries,['bridge'],[],Bangladesh,Khulna,Meherpur,MeherpurSadar,Kutubpur,28476d09abc9100282d926c8290d5d2e
4445,604550518,893cf099a7bffff,23.77894924,88.6418104,Sono Diagonistic and Clinic,"Sono Diagonistic and Clinic, Meherpur Sadar Upazila, Meherpur District, Khulna Division, Bangladesh","মেহেরপুর সদর উপজেলা, মেহেরপুর জেলা, খুলনা বিভাগ, বাংলাদেশ","Sono Diagonistic and Clinic, ",,,মেহেরপুর সদর উপজেলা,বাংলাদেশ,খুলনা বিভাগ,local_admin,boundaries,['clinic'],[],Bangladesh,Khulna,Meherpur,MeherpurSadar,MeherpurPaurashava,42bb69c9242d8819274628e9c511b5d6
4450,604868473,893cf0d581bffff,23.65410532,88.60008983,,"Meherpur Sadar Upazila, Meherpur District, Khulna Division, Bangladesh","মেহেরপুর সদর উপজেলা, মেহেরপুর জেলা, খুলনা বিভাগ, বাংলাদেশ",,,,মেহেরপুর সদর উপজেলা,বাংলাদেশ,খুলনা বিভাগ,local_admin,boundaries,['playground'],[],Bangladesh,Khulna,Meherpur,MujibNagar,Bagoan,3f761bf68d6f8a0194ffb3fee48d06de
4451,605319631,893cf099e53ffff,23.7979916,88.6147631,,"Meherpur Sadar Upazila, Meherpur District, Khulna Division, Bangladesh","মেহেরপুর সদর উপজেলা, মেহেরপুর জেলা, খুলনা বিভাগ, বাংলাদেশ",,,,মেহেরপুর সদর উপজেলা,বাংলাদেশ,খুলনা বিভাগ,local_admin,boundaries,['bridge'],[],Bangladesh,Khulna,Meherpur,MeherpurSadar,Buripota,707400df9bc6df8e9eb9a53b3398ec83
4452,605319633,893cf0d6d23ffff,23.77937365,88.62513328,,"Meherpur Sadar Upazila, Meherpur District, Khulna Division, Bangladesh","মেহেরপুর সদর উপজেলা, মেহেরপুর জেলা, খুলনা বিভাগ, বাংলাদেশ",,,,মেহেরপুর সদর উপজেলা,বাংলাদেশ,খুলনা বিভাগ,local_admin,boundaries,['bridge'],[],Bangladesh,Khulna,Meherpur,MeherpurSadar,Buripota,707400df9bc6df8e9eb9a53b3398ec83
4460,702018363,893cf0d6987ffff,23.77465021,88.63338245,মহিলা কলেজ হোস্টেল,"Meherpur Sadar Upazila, Meherpur District, Khulna Division, Bangladesh","মহিলা কলেজ হোস্টেল, মেহেরপুর সদর উপজেলা, মেহেরপুর জেলা, খুলনা বিভাগ, বাংলাদেশ",,"মহিলা কলেজ হোস্টেল, ",,মেহেরপুর সদর উপজেলা,বাংলাদেশ,খুলনা বিভাগ,local_admin,boundaries,['hostel'],[],Bangladesh,Khulna,Meherpur,MeherpurSadar,MeherpurPaurashava,42bb69c9242d8819274628e9c511b5d6
4461,702018365,893cf0d6987ffff,23.774906,88.6331822,Boys School Hostel বয়েজ স্কুল হোস্টেল,"Boys School Hostel, Meherpur Sadar Upazila, Meherpur District, Khulna Division, Bangladesh","বয়েজ স্কুল হোস্টেল, মেহেরপুর সদর উপজেলা, মেহেরপুর জেলা, খুলনা বিভাগ, বাংলাদেশ",,,,মেহেরপুর সদর উপজেলা,বাংলাদেশ,খুলনা বিভাগ,local_admin,boundaries,['hostel'],[],Bangladesh,Khulna,Meherpur,MeherpurSadar,MeherpurPaurashava,42bb69c9242d8819274628e9c511b5d6
4513,1052028661,893cf08b067ffff,23.752476,88.6828335,Joarderpara Jam-E Mosque,"Joarderpara Jam-E Mosque, Meherpur Sadar Upazila, Meherpur District, Khulna Division, Bangladesh","মেহেরপুর সদর উপজেলা, মেহেরপুর জেলা, খুলনা বিভাগ, বাংলাদেশ","Joarderpara Jam-E Mosque, ",,,মেহেরপুর সদর উপজেলা,বাংলাদেশ,খুলনা বিভাগ,local_admin,boundaries,['place_of_worship_muslim'],[],Bangladesh,Khulna,Meherpur,MeherpurSadar,Amjhupi,4c5a696bef35a61b9945331b1b95cc34
4516,1052048995,893cf08b063ffff,23.7512606,88.6803642,Sheikhpara Jam-E Mosque,"Sheikhpara Jam-E Mosque, Meherpur Sadar Upazila, Meherpur District, Khulna Division, Bangladesh","মেহেরপুর সদর উপজেলা, মেহেরপুর জেলা, খুলনা বিভাগ, বাংলাদেশ","Sheikhpara Jam-E Mosque, ",,,মেহেরপুর সদর উপজেলা,বাংলাদেশ,খুলনা বিভাগ,local_admin,boundaries,['place_of_worship_muslim'],[],Bangladesh,Khulna,Meherpur,MeherpurSadar,Amjhupi,4c5a696bef35a61b9945331b1b95cc34
4524,8257288,893cf0d6997ffff,23.77602841,88.6310007,Meherpur Govt. Girls High School,"Meherpur Govt. Girls High School, Meherpur Sadar Upazila, Meherpur District, Khulna Division, Bangladesh","মেহেরপুর সদর উপজেলা, মেহেরপুর জেলা, খুলনা বিভাগ, বাংলাদেশ","Meherpur Govt. Girls High School, ",,,মেহেরপুর সদর উপজেলা,বাংলাদেশ,খুলনা বিভাগ,local_admin,boundaries,['school'],[],Bangladesh,Khulna,Meherpur,MeherpurSadar,MeherpurPaurashava,42bb69c9242d8819274628e9c511b5d6
4528,1758031116,893cf0d6933ffff,23.7669197,88.6403696,,,,,,,মেহেরপুর সদর উপজেলা,বাংলাদেশ,খুলনা বিভাগ,housenumber,,,,Bangladesh,Khulna,Meherpur,MeherpurSadar,MeherpurPaurashava,42bb69c9242d8819274628e9c511b5d6
4551,7461631576,893cf0d698fffff,23.7701353,88.6311867,Sanowar Hasan Dipu's House,"Sanowar Hasan Dipu's House, ",,"Sanowar Hasan Dipu's House, ",,,মেহেরপুর সদর উপজেলা,বাংলাদেশ,খুলনা বিভাগ,housenumber,,,,Bangladesh,Khulna,Meherpur,MeherpurSadar,MeherpurPaurashava,42bb69c9242d8819274628e9c511b5d6
4588,797790543,893cf0d698fffff,23.77018663,88.63124532,Md. Sanowar Hasan Dipu,"Md. Sanowar Hasan Dipu, ",,"Md. Sanowar Hasan Dipu, ",,,মেহেরপুর সদর উপজেলা,বাংলাদেশ,খুলনা বিভাগ,housenumber,,,,Bangladesh,Khulna,Meherpur,MeherpurSadar,MeherpurPaurashava,42bb69c9242d8819274628e9c511b5d6
4595,801640982,893cf0d698fffff,23.769962540358957,88.63212298042893,য়াদবপুর রোড,"Meherpur Sadar Upazila, Meherpur District, Khulna Division, Bangladesh","য়াদবপুর রোড, মেহেরপুর সদর উপজেলা, মেহেরপুর জেলা, খুলনা বিভাগ, বাংলাদেশ",,য়াদবপুর রোড,['মেহেরপুর-যাদবপুর সড়ক'],মেহেরপুর সদর উপজেলা,বাংলাদেশ,খুলনা বিভাগ,street,,,,Bangladesh,Khulna,Meherpur,MeherpurSadar,MeherpurPaurashava,42bb69c9242d8819274628e9c511b5d6
4596,776127351,893cf0d6917ffff,23.76977575,88.63273655,Meherpur Main Road,"Meherpur Main Road, Meherpur Sadar Upazila, Meherpur District, Khulna Division, Bangladesh","মেহেরপুর সদর উপজেলা, মেহেরপুর জেলা, খুলনা বিভাগ, বাংলাদেশ",Meherpur Main Road,,,মেহেরপুর সদর উপজেলা,বাংলাদেশ,খুলনা বিভাগ,street,,,,Bangladesh,Khulna,Meherpur,MeherpurSadar,MeherpurPaurashava,42bb69c9242d8819274628e9c511b5d6
4634,658983147,893cf0d432fffff,23.690932256921393,88.60424527529918,Meherpur Mujibnagar Road,"Meherpur Mujibnagar Road, Meherpur Sadar Upazila, Meherpur District, Khulna Division, Bangladesh","মেহেরপুর সদর উপজেলা, মেহেরপুর জেলা, খুলনা বিভাগ, বাংলাদেশ",Meherpur Mujibnagar Road,,,মেহেরপুর সদর উপজেলা,বাংলাদেশ,খুলনা বিভাগ,street,,,,Bangladesh,Khulna,Meherpur,MujibNagar,Dariapur,853f94c2669c006d38849f97907fee99
4637,531039882,893cf099c4fffff,23.816586820045956,88.62582913049245,Eidgah Para Road,"Eidgah Para Road, Ujalpur, Meherpur Sadar Upazila, Meherpur District, Khulna Division, Bangladesh","উজলপুর, মেহেরপুর সদর উপজেলা, মেহেরপুর জেলা, খুলনা বিভাগ, বাংলাদেশ",Eidgah Para Road,,,মেহেরপুর সদর উপজেলা,বাংলাদেশ,খুলনা বিভাগ,street,,,,Bangladesh,Khulna,Meherpur,MeherpurSadar,Kutubpur,28476d09abc9100282d926c8290d5d2e
4644,658983146,893cf0d4c5bffff,23.71271905,88.6127433,Meherpur Mujibnagar Road,"Meherpur Mujibnagar Road, Meherpur Sadar Upazila, Meherpur District, Khulna Division, Bangladesh","মেহেরপুর সদর উপজেলা, মেহেরপুর জেলা, খুলনা বিভাগ, বাংলাদেশ",Meherpur Mujibnagar Road,,,মেহেরপুর সদর উপজেলা,বাংলাদেশ,খুলনা বিভাগ,street,,,,Bangladesh,Khulna,Meherpur,MujibNagar,Dariapur,853f94c2669c006d38849f97907fee99
4657,531040151,893cf099eb3ffff,23.81164112752317,88.62466201716018,Ghat Para Road,"Ghat Para Road, Ujalpur, Meherpur Sadar Upazila, Meherpur District, Khulna Division, Bangladesh","উজলপুর, মেহেরপুর সদর উপজেলা, মেহেরপুর জেলা, খুলনা বিভাগ, বাংলাদেশ",Ghat Para Road,,,মেহেরপুর সদর উপজেলা,বাংলাদেশ,খুলনা বিভাগ,street,,,,Bangladesh,Khulna,Meherpur,MeherpurSadar,Kutubpur,28476d09abc9100282d926c8290d5d2e
4686,1050809420,893cf0d69abffff,23.768819098093203,88.63675180762243,মেহেরপুর-চুয়াডাঙ্গা সড়ক,"Meherpur-Chuadanga Road, Meherpur Sadar Upazila, Meherpur District, Khulna Division, Bangladesh","মেহেরপুর-চুয়াডাঙ্গা সড়ক, মেহেরপুর সদর উপজেলা, মেহেরপুর জেলা, খুলনা বিভাগ, বাংলাদেশ",,"মেহেরপুর-চুয়াডাঙ্গা সড়ক, ",['Meherpur-Chuadanga Road'],মেহেরপুর সদর উপজেলা,বাংলাদেশ,খুলনা বিভাগ,street,,,,Bangladesh,Khulna,Meherpur,MeherpurSadar,MeherpurPaurashava,42bb69c9242d8819274628e9c511b5d6
4688,530863602,893cf0d6987ffff,23.77405936666333,88.63299650132245,Mohila College Road,"Mohila College Road, Meherpur Sadar Upazila, Meherpur District, Khulna Division, Bangladesh","মহিলা কলেজ রাস্তা, মেহেরপুর সদর উপজেলা, মেহেরপুর জেলা, খুলনা বিভাগ, বাংলাদেশ","Mohila College Road, ",,['মহিলা কলেজ রাস্তা'],মেহেরপুর সদর উপজেলা,বাংলাদেশ,খুলনা বিভাগ,street,,,,Bangladesh,Khulna,Meherpur,MeherpurSadar,MeherpurPaurashava,42bb69c9242d8819274628e9c511b5d6
4703,768108999,893cf08b063ffff,23.75136596022864,88.67996926235966,Amjhupi Road,"Amjhupi Road, Meherpur Sadar Upazila, Meherpur District, Khulna Division, Bangladesh","মেহেরপুর সদর উপজেলা, মেহেরপুর জেলা, খুলনা বিভাগ, বাংলাদেশ",Amjhupi Road,,,মেহেরপুর সদর উপজেলা,বাংলাদেশ,খুলনা বিভাগ,street,,,,Bangladesh,Khulna,Meherpur,MeherpurSadar,Amjhupi,4c5a696bef35a61b9945331b1b95cc34
4715,531039760,893cf099c6bffff,23.814060691086617,88.63025547467716,Chalk Para - Bagan Para Road,"Chalk Para - Bagan Para Road, Ujalpur, Meherpur Sadar Upazila, Meherpur District, Khulna Division, Bangladesh","উজলপুর, মেহেরপুর সদর উপজেলা, মেহেরপুর জেলা, খুলনা বিভাগ, বাংলাদেশ",Chalk Para - Bagan Para Road,,,মেহেরপুর সদর উপজেলা,বাংলাদেশ,খুলনা বিভাগ,street,,,,Bangladesh,Khulna,Meherpur,MeherpurSadar,Kutubpur,28476d09abc9100282d926c8290d5d2e
4718,531034768,893cf099ea3ffff,23.811921222104175,88.62590335976014,Ujalpur Main Road,"Ujalpur Main Road, Ujalpur, Meherpur Sadar Upazila, Meherpur District, Khulna Division, Bangladesh","উজলপুর, মেহেরপুর সদর উপজেলা, মেহেরপুর জেলা, খুলনা বিভাগ, বাংলাদেশ",Ujalpur Main Road,,,মেহেরপুর সদর উপজেলা,বাংলাদেশ,খুলনা বিভাগ,street,,,,Bangladesh,Khulna,Meherpur,MeherpurSadar,Kutubpur,28476d09abc9100282d926c8290d5d2e
4736,531044495,893cf099e1bffff,23.80279178537534,88.61914465526797,Ujalpur - Kalachandpur Road,"Ujalpur - Kalachandpur Road, Ujalpur, Meherpur Sadar Upazila, Meherpur District, Khulna Division, Bangladesh","উজলপুর, মেহেরপুর সদর উপজেলা, মেহেরপুর জেলা, খুলনা বিভাগ, বাংলাদেশ",Ujalpur - Kalachandpur Road,,,মেহেরপুর সদর উপজেলা,বাংলাদেশ,খুলনা বিভাগ,street,,,,Bangladesh,Khulna,Meherpur,MeherpurSadar,Buripota,707400df9bc6df8e9eb9a53b3398ec83
4765,531036427,893cf099eb3ffff,23.812598344407935,88.6245021259265,Biswas Para Road,"Biswas Para Road, Ujalpur, Meherpur Sadar Upazila, Meherpur District, Khulna Division, Bangladesh","উজলপুর, মেহেরপুর সদর উপজেলা, মেহেরপুর জেলা, খুলনা বিভাগ, বাংলাদেশ",Biswas Para Road,,,মেহেরপুর সদর উপজেলা,বাংলাদেশ,খুলনা বিভাগ,street,,,,Bangladesh,Khulna,Meherpur,MeherpurSadar,Kutubpur,28476d09abc9100282d926c8290d5d2e
4775,531052916,893cf0d6d2fffff,23.77903750454629,88.62830653080744,Meherpur Thana Road,"Meherpur Thana Road, Meherpur Sadar Upazila, Meherpur District, Khulna Division, Bangladesh","মেহেরপুর সদর উপজেলা, মেহেরপুর জেলা, খুলনা বিভাগ, বাংলাদেশ",Meherpur Thana Road,,,মেহেরপুর সদর উপজেলা,বাংলাদেশ,খুলনা বিভাগ,street,,,,Bangladesh,Khulna,Meherpur,MeherpurSadar,MeherpurPaurashava,42bb69c9242d8819274628e9c511b5d6
4781,530844222,893cf099e17ffff,23.807495276818766,88.62137215788162,Ujalpur Bridge,"Ujalpur Bridge, Meherpur Sadar Upazila, Meherpur District, Khulna Division, Bangladesh","মেহেরপুর সদর উপজেলা, মেহেরপুর জেলা, খুলনা বিভাগ, বাংলাদেশ",Ujalpur Bridge,,,মেহেরপুর সদর উপজেলা,বাংলাদেশ,খুলনা বিভাগ,street,,,,Bangladesh,Khulna,Meherpur,MeherpurSadar,Kutubpur,28476d09abc9100282d926c8290d5d2e
4817,531039392,893cf099c6bffff,23.816074131319994,88.62978575021032,Top Market Road,"Top Market Road, Ujalpur, Meherpur Sadar Upazila, Meherpur District, Khulna Division, Bangladesh","উজলপুর, মেহেরপুর সদর উপজেলা, মেহেরপুর জেলা, খুলনা বিভাগ, বাংলাদেশ",Top Market Road,,,মেহেরপুর সদর উপজেলা,বাংলাদেশ,খুলনা বিভাগ,street,,,,Bangladesh,Khulna,Meherpur,MeherpurSadar,Kutubpur,28476d09abc9100282d926c8290d5d2e
4820,584600735,893cf0d6917ffff,23.76913614391166,88.633014127787,Meherpur Main Road,"Meherpur Main Road, Meherpur Sadar Upazila, Meherpur District, Khulna Division, Bangladesh","মেহেরপুর সদর উপজেলা, মেহেরপুর জেলা, খুলনা বিভাগ, বাংলাদেশ",Meherpur Main Road,,,মেহেরপুর সদর উপজেলা,বাংলাদেশ,খুলনা বিভাগ,street,,,,Bangladesh,Khulna,Meherpur,MeherpurSadar,MeherpurPaurashava,42bb69c9242d8819274628e9c511b5d6
4833,768108995,893cf08b063ffff,23.75079308372575,88.68045373879762,Sheikhpara Rd,"Sheikhpara Rd, Meherpur Sadar Upazila, Meherpur District, Khulna Division, Bangladesh","মেহেরপুর সদর উপজেলা, মেহেরপুর জেলা, খুলনা বিভাগ, বাংলাদেশ",Sheikhpara Rd,,,মেহেরপুর সদর উপজেলা,বাংলাদেশ,খুলনা বিভাগ,street,,,,Bangladesh,Khulna,Meherpur,MeherpurSadar,Amjhupi,4c5a696bef35a61b9945331b1b95cc34
4859,531052201,893cf099a4fffff,23.779413062456605,88.6374654726832,Meherpur Hospital Road,"Meherpur Hospital Road, Meherpur Sadar Upazila, Meherpur District, Khulna Division, Bangladesh","মেহেরপুর সদর উপজেলা, মেহেরপুর জেলা, খুলনা বিভাগ, বাংলাদেশ",Meherpur Hospital Road,,,মেহেরপুর সদর উপজেলা,বাংলাদেশ,খুলনা বিভাগ,street,,,,Bangladesh,Khulna,Meherpur,MeherpurSadar,MeherpurPaurashava,42bb69c9242d8819274628e9c511b5d6
4864,584600738,893cf0d6913ffff,23.769439770075646,88.63074318471334,য়াদবপুর রোড,"Meherpur Sadar Upazila, Meherpur District, Khulna Division, Bangladesh","য়াদবপুর রোড, মেহেরপুর সদর উপজেলা, মেহেরপুর জেলা, খুলনা বিভাগ, বাংলাদেশ",,য়াদবপুর রোড,['শহীদ গফুর সড়ক'],মেহেরপুর সদর উপজেলা,বাংলাদেশ,খুলনা বিভাগ,street,,,,Bangladesh,Khulna,Meherpur,MeherpurSadar,MeherpurPaurashava,42bb69c9242d8819274628e9c511b5d6
4877,531073445,893cf08b4dbffff,23.771502528697336,88.64290807624786,Taher Clinic Para Road,"Taher Clinic Para Road, Meherpur Sadar Upazila, Meherpur District, Khulna Division, Bangladesh","মেহেরপুর সদর উপজেলা, মেহেরপুর জেলা, খুলনা বিভাগ, বাংলাদেশ",Taher Clinic Para Road,,,মেহেরপুর সদর উপজেলা,বাংলাদেশ,খুলনা বিভাগ,street,,,,Bangladesh,Khulna,Meherpur,MeherpurSadar,MeherpurPaurashava,42bb69c9242d8819274628e9c511b5d6
4919,531035493,893cf099ea7ffff,23.81209090802993,88.62885066764814,Baganpara Road,"Baganpara Road, Ujalpur, Meherpur Sadar Upazila, Meherpur District, Khulna Division, Bangladesh","উজলপুর, মেহেরপুর সদর উপজেলা, মেহেরপুর জেলা, খুলনা বিভাগ, বাংলাদেশ",Baganpara Road,,,মেহেরপুর সদর উপজেলা,বাংলাদেশ,খুলনা বিভাগ,street,,,,Bangladesh,Khulna,Meherpur,MeherpurSadar,Kutubpur,28476d09abc9100282d926c8290d5d2e
4932,1050803982,893cf0d58b3ffff,23.664284199999997,88.60423945,Meherpur Mujibnagar Road,"Meherpur Mujibnagar Road, Meherpur Sadar Upazila, Meherpur District, Khulna Division, Bangladesh","মেহেরপুর সদর উপজেলা, মেহেরপুর জেলা, খুলনা বিভাগ, বাংলাদেশ",Meherpur Mujibnagar Road,,,মেহেরপুর সদর উপজেলা,বাংলাদেশ,খুলনা বিভাগ,street,,,,Bangladesh,Khulna,Meherpur,MujibNagar,Bagoan,3f761bf68d6f8a0194ffb3fee48d06de
4994,531050835,893cf08b59bffff,23.787439737907082,88.67253310336342,কুষ্টিয়া - মেহেরপুর মহাসড়ক,"-, Kushtia - Meherpur Highway, Meherpur Sadar Upazila, Meherpur District, Khulna Division, Bangladesh","কুষ্টিয়া মেহেরপুর মহাসড়ক, মেহেরপুর - কুষ্টিয়া মহাসড়ক, মেহেরপুর সদর উপজেলা, মেহেরপুর জেলা, খুলনা বিভাগ, বাংলাদেশ",,"কুষ্টিয়া - মেহেরপুর মহাসড়ক, ","['মেহেরপুর - কুষ্টিয়া মহাসড়ক', 'Kushtia - Meherpur Highway']",মেহেরপুর সদর উপজেলা,বাংলাদেশ,খুলনা বিভাগ,street,,,,Bangladesh,Khulna,Meherpur,MeherpurSadar,Amjhupi,4c5a696bef35a61b9945331b1b95cc34
53,481829352,893cf08b2a7ffff,23.74477856408408,88.67904403828689,Amjhupi Rd,"Amjhupi Rd, Meherpur Sadar Upazila, Meherpur District, Khulna Division, Bangladesh","মেহেরপুর সদর উপজেলা, মেহেরপুর জেলা, খুলনা বিভাগ, বাংলাদেশ",Amjhupi Rd,,,মেহেরপুর সদর উপজেলা,বাংলাদেশ,খুলনা বিভাগ,street,,,,Bangladesh,Khulna,Meherpur,MeherpurSadar,Amjhupi,4c5a696bef35a61b9945331b1b95cc34
125,531042886,893cf099eafffff,23.80703474844762,88.62961816476162,Ujalpur Gorsthan Road,"Ujalpur Gorsthan Road, Ujalpur, Meherpur Sadar Upazila, Meherpur District, Khulna Division, Bangladesh","উজলপুর, মেহেরপুর সদর উপজেলা, মেহেরপুর জেলা, খুলনা বিভাগ, বাংলাদেশ",Ujalpur Gorsthan Road,,,মেহেরপুর সদর উপজেলা,বাংলাদেশ,খুলনা বিভাগ,street,,,,Bangladesh,Khulna,Meherpur,MeherpurSadar,Kutubpur,28476d09abc9100282d926c8290d5d2e
220,531036567,893cf099eb3ffff,23.813435996305348,88.6245450554198,Uttor Para Road,"Uttor Para Road, Ujalpur, Meherpur Sadar Upazila, Meherpur District, Khulna Division, Bangladesh","উজলপুর, মেহেরপুর সদর উপজেলা, মেহেরপুর জেলা, খুলনা বিভাগ, বাংলাদেশ",Uttor Para Road,,,মেহেরপুর সদর উপজেলা,বাংলাদেশ,খুলনা বিভাগ,street,,,,Bangladesh,Khulna,Meherpur,MeherpurSadar,Kutubpur,28476d09abc9100282d926c8290d5d2e
228,768109036,893cf08b067ffff,23.75173354330101,88.68232819461105,Joarderpara Rd,"Joarderpara Rd, Meherpur Sadar Upazila, Meherpur District, Khulna Division, Bangladesh","মেহেরপুর সদর উপজেলা, মেহেরপুর জেলা, খুলনা বিভাগ, বাংলাদেশ",Joarderpara Rd,,,মেহেরপুর সদর উপজেলা,বাংলাদেশ,খুলনা বিভাগ,street,,,,Bangladesh,Khulna,Meherpur,MeherpurSadar,Amjhupi,4c5a696bef35a61b9945331b1b95cc34
234,531072181,893cf0d69a3ffff,23.77269255120751,88.63871124671314,Mollick Para Road,"Mollick Para Road, Meherpur Sadar Upazila, Meherpur District, Khulna Division, Bangladesh","মেহেরপুর সদর উপজেলা, মেহেরপুর জেলা, খুলনা বিভাগ, বাংলাদেশ",Mollick Para Road,,,মেহেরপুর সদর উপজেলা,বাংলাদেশ,খুলনা বিভাগ,street,,,,Bangladesh,Khulna,Meherpur,MeherpurSadar,MeherpurPaurashava,42bb69c9242d8819274628e9c511b5d6
254,1052008329,893cf08b067ffff,23.751594997240517,88.68207974716127,Joarderpara Rd,"Joarderpara Rd, Meherpur Sadar Upazila, Meherpur District, Khulna Division, Bangladesh","মেহেরপুর সদর উপজেলা, মেহেরপুর জেলা, খুলনা বিভাগ, বাংলাদেশ",Joarderpara Rd,,,মেহেরপুর সদর উপজেলা,বাংলাদেশ,খুলনা বিভাগ,street,,,,Bangladesh,Khulna,Meherpur,MeherpurSadar,Amjhupi,4c5a696bef35a61b9945331b1b95cc34
279,797803489,893cf0d698fffff,23.7701296108568,88.63135574675061,শহীদ গফুর সড়ক,"Meherpur Sadar Upazila, Meherpur District, Khulna Division, Bangladesh","শহীদ গফুর সড়ক, মেহেরপুর সদর উপজেলা, মেহেরপুর জেলা, খুলনা বিভাগ, বাংলাদেশ",,শহীদ গফুর সড়ক,,মেহেরপুর সদর উপজেলা,বাংলাদেশ,খুলনা বিভাগ,street,,,,Bangladesh,Khulna,Meherpur,MeherpurSadar,MeherpurPaurashava,42bb69c9242d8819274628e9c511b5d6
282,604914152,893cf099e3bffff,23.803426404344037,88.62696598267743,Meherpur-Ujalpur-Fatepur-Teroghoria-Sholmari Road,"Meherpur-Ujalpur-Fatepur-Teroghoria-Sholmari Road, Ujalpur, Meherpur Sadar Upazila, Meherpur District, Khulna Division, Bangladesh","উজলপুর, মেহেরপুর সদর উপজেলা, মেহেরপুর জেলা, খুলনা বিভাগ, বাংলাদেশ",Meherpur-Ujalpur-Fatepur-Teroghoria-Sholmari Road,,,মেহেরপুর সদর উপজেলা,বাংলাদেশ,খুলনা বিভাগ,street,,,,Bangladesh,Khulna,Meherpur,MeherpurSadar,MeherpurPaurashava,42bb69c9242d8819274628e9c511b5d6
311,1052007871,893cf08b067ffff,23.752184528766477,88.68206086139966,Joarderpara Rd,"Joarderpara Rd, Meherpur Sadar Upazila, Meherpur District, Khulna Division, Bangladesh","মেহেরপুর সদর উপজেলা, মেহেরপুর জেলা, খুলনা বিভাগ, বাংলাদেশ",Joarderpara Rd,,,মেহেরপুর সদর উপজেলা,বাংলাদেশ,খুলনা বিভাগ,street,,,,Bangladesh,Khulna,Meherpur,MeherpurSadar,Amjhupi,4c5a696bef35a61b9945331b1b95cc34
320,1050803983,893cf0d58b3ffff,23.663977850000002,88.60413545,Meherpur Mujibnagar Road,"Meherpur Mujibnagar Road, Meherpur Sadar Upazila, Meherpur District, Khulna Division, Bangladesh","মেহেরপুর সদর উপজেলা, মেহেরপুর জেলা, খুলনা বিভাগ, বাংলাদেশ",Meherpur Mujibnagar Road,,,মেহেরপুর সদর উপজেলা,বাংলাদেশ,খুলনা বিভাগ,street,,,,Bangladesh,Khulna,Meherpur,MujibNagar,Bagoan,3f761bf68d6f8a0194ffb3fee48d06de
335,801640981,893cf0d698fffff,23.770669666246135,88.63171373552001,Rabindranath Sarak,"Rabindranath Sarak, Meherpur Sadar Upazila, Meherpur District, Khulna Division, Bangladesh","মেহেরপুর সদর উপজেলা, মেহেরপুর জেলা, খুলনা বিভাগ, বাংলাদেশ",Rabindranath Sarak,,['রবীন্দ্রনাথ সড়ক'],মেহেরপুর সদর উপজেলা,বাংলাদেশ,খুলনা বিভাগ,street,,,,Bangladesh,Khulna,Meherpur,MeherpurSadar,MeherpurPaurashava,42bb69c9242d8819274628e9c511b5d6
351,164136981,893cf0d69a7ffff,23.772851770325257,88.64228590043899,College Road,"College Road, Meherpur Sadar Upazila, Meherpur District, Khulna Division, Bangladesh","মেহেরপুর সদর উপজেলা, মেহেরপুর জেলা, খুলনা বিভাগ, বাংলাদেশ",College Road,,,মেহেরপুর সদর উপজেলা,বাংলাদেশ,খুলনা বিভাগ,street,,,,Bangladesh,Khulna,Meherpur,MeherpurSadar,MeherpurPaurashava,42bb69c9242d8819274628e9c511b5d6
400,768109012,893cf08b077ffff,23.75194687264602,88.68108204305861,Joarderpara Rd,"Joarderpara Rd, Meherpur Sadar Upazila, Meherpur District, Khulna Division, Bangladesh","মেহেরপুর সদর উপজেলা, মেহেরপুর জেলা, খুলনা বিভাগ, বাংলাদেশ",Joarderpara Rd,,,মেহেরপুর সদর উপজেলা,বাংলাদেশ,খুলনা বিভাগ,street,,,,Bangladesh,Khulna,Meherpur,MeherpurSadar,Amjhupi,4c5a696bef35a61b9945331b1b95cc34
426,1052008765,893cf08b067ffff,23.75065857035917,88.68240001200405,Joarderpara Rd,"Joarderpara Rd, Meherpur Sadar Upazila, Meherpur District, Khulna Division, Bangladesh","মেহেরপুর সদর উপজেলা, মেহেরপুর জেলা, খুলনা বিভাগ, বাংলাদেশ",Joarderpara Rd,,,মেহেরপুর সদর উপজেলা,বাংলাদেশ,খুলনা বিভাগ,street,,,,Bangladesh,Khulna,Meherpur,MeherpurSadar,Amjhupi,4c5a696bef35a61b9945331b1b95cc34
442,584600740,893cf0d69a7ffff,23.77263831421602,88.6410815648627,Jadhup Pur Road,"Jadhup Pur Road, Meherpur Sadar Upazila, Meherpur District, Khulna Division, Bangladesh","মেহেরপুর সদর উপজেলা, মেহেরপুর জেলা, খুলনা বিভাগ, বাংলাদেশ",Jadhup Pur Road,,,মেহেরপুর সদর উপজেলা,বাংলাদেশ,খুলনা বিভাগ,street,,,,Bangladesh,Khulna,Meherpur,MeherpurSadar,MeherpurPaurashava,42bb69c9242d8819274628e9c511b5d6
480,164208899,893cf098e17ffff,23.85846800625321,88.65954798528169,Kahuli Road,"Kahuli Road, Kulbaria, Ujalpur, Meherpur Sadar Upazila, Meherpur District, Khulna Division, Bangladesh","কাথুলি সড়ক, কুলবাড়িয়া, কুলবাড়িয়া, উজলপুর, মেহেরপুর সদর উপজেলা, মেহেরপুর জেলা, খুলনা বিভাগ, বাংলাদেশ","Kahuli Road, ",,['কাথুলি সড়ক'],মেহেরপুর সদর উপজেলা,বাংলাদেশ,খুলনা বিভাগ,street,,,,Bangladesh,Khulna,Meherpur,Gangni,Kathuli,9c0083a76ff300c90901d5a70ac17064
484,164208899,893cf098e17ffff,23.85846800625321,88.65954798528169,Kahuli Road,"Kahuli Road, Kulbaria, Kaligangni, Meherpur Sadar Upazila, Meherpur District, Khulna Division, Bangladesh","কাথুলি সড়ক, কুলবাড়িয়া, কুলবাড়িয়া, কালিগাংনী, মেহেরপুর সদর উপজেলা, মেহেরপুর জেলা, খুলনা বিভাগ, বাংলাদেশ","Kahuli Road, ",,['কাথুলি সড়ক'],মেহেরপুর সদর উপজেলা,বাংলাদেশ,খুলনা বিভাগ,street,,,,Bangladesh,Khulna,Meherpur,Gangni,Kathuli,9c0083a76ff300c90901d5a70ac17064
500,768109010,893cf08b077ffff,23.75209164739122,88.68046603142595,Joarderpara Road,"Joarderpara Road, Meherpur Sadar Upazila, Meherpur District, Khulna Division, Bangladesh","মেহেরপুর সদর উপজেলা, মেহেরপুর জেলা, খুলনা বিভাগ, বাংলাদেশ",Joarderpara Road,,,মেহেরপুর সদর উপজেলা,বাংলাদেশ,খুলনা বিভাগ,street,,,,Bangladesh,Khulna,Meherpur,MeherpurSadar,Amjhupi,4c5a696bef35a61b9945331b1b95cc34
533,164137015,893cf0d6987ffff,23.773962853043333,88.63135329644008,Meherpur Main Road,"Meherpur Main Road, Meherpur Sadar Upazila, Meherpur District, Khulna Division, Bangladesh","মেহেরপুর সদর উপজেলা, মেহেরপুর জেলা, খুলনা বিভাগ, বাংলাদেশ",Meherpur Main Road,,,মেহেরপুর সদর উপজেলা,বাংলাদেশ,খুলনা বিভাগ,street,,,,Bangladesh,Khulna,Meherpur,MeherpurSadar,MeherpurPaurashava,42bb69c9242d8819274628e9c511b5d6
539,801640983,893cf0d698bffff,23.76965153105783,88.6286480897586,য়াদবপুর রোড,"Meherpur Sadar Upazila, Meherpur District, Khulna Division, Bangladesh","য়াদবপুর রোড, মেহেরপুর সদর উপজেলা, মেহেরপুর জেলা, খুলনা বিভাগ, বাংলাদেশ",,য়াদবপুর রোড,,মেহেরপুর সদর উপজেলা,বাংলাদেশ,খুলনা বিভাগ,street,,,,Bangladesh,Khulna,Meherpur,MeherpurSadar,MeherpurPaurashava,42bb69c9242d8819274628e9c511b5d6
552,531053555,893cf0d6b1bffff,23.741276251864377,88.62365507998409,Meherpur Mujibnagar Road,"Meherpur Mujibnagar Road, Meherpur Sadar Upazila, Meherpur District, Khulna Division, Bangladesh","মেহেরপুর সদর উপজেলা, মেহেরপুর জেলা, খুলনা বিভাগ, বাংলাদেশ",Meherpur Mujibnagar Road,,,মেহেরপুর সদর উপজেলা,বাংলাদেশ,খুলনা বিভাগ,street,,,,Bangladesh,Khulna,Meherpur,MeherpurSadar,Amda,4aaa7391100e50cc24a47cf1ad84de8d
560,906077449,893cf0d6d23ffff,23.77937645676782,88.6251331248156,Govipur Road,"Govipur Road, Meherpur Sadar Upazila, Meherpur District, Khulna Division, Bangladesh","মেহেরপুর সদর উপজেলা, মেহেরপুর জেলা, খুলনা বিভাগ, বাংলাদেশ",Govipur Road,,,মেহেরপুর সদর উপজেলা,বাংলাদেশ,খুলনা বিভাগ,street,,,,Bangladesh,Khulna,Meherpur,MeherpurSadar,Buripota,707400df9bc6df8e9eb9a53b3398ec83
673,1627757205,893cf0d6987ffff,23.7751475,88.6311437,মেহেরপুর,"Meherpur, Meherpur Sadar Upazila, Meherpur District, Khulna Division, Bangladesh","মেহেরপুর, মেহেরপুর সদর উপজেলা, মেহেরপুর জেলা, খুলনা বিভাগ, বাংলাদেশ",,"মেহেরপুর, ","['ಮೇಹೇರ್ ಪುರ', 'مهربور', 'Meherpur', 'مهرپور', 'মেহেরপুর', 'Meherpur', 'Meherpur', 'Meherpur', 'ميهربور', 'مہر پور', 'Meherpur']",মেহেরপুর সদর উপজেলা,বাংলাদেশ,খুলনা বিভাগ,locality,,,,Bangladesh,Khulna,Meherpur,MeherpurSadar,MeherpurPaurashava,42bb69c9242d8819274628e9c511b5d6
679,9018730922,893cf0d4807ffff,23.708756,88.6428732,Ashrafpur,"Ashrafpur, Meherpur Sadar Upazila, Meherpur District, Khulna Division, Bangladesh","মেহেরপুর সদর উপজেলা, মেহেরপুর জেলা, খুলনা বিভাগ, বাংলাদেশ","Ashrafpur, ",,,মেহেরপুর সদর উপজেলা,বাংলাদেশ,খুলনা বিভাগ,locality,,,,Bangladesh,Khulna,Meherpur,MeherpurSadar,Amda,4aaa7391100e50cc24a47cf1ad84de8d
682,5754496207,893cf099eb7ffff,23.8144494,88.626785,উজলপুর,"Ujalpur, Meherpur Sadar Upazila, Meherpur District, Khulna Division, Bangladesh","উজলপুর, মেহেরপুর সদর উপজেলা, মেহেরপুর জেলা, খুলনা বিভাগ, বাংলাদেশ",,"উজলপুর, ",['Ujalpur'],মেহেরপুর সদর উপজেলা,বাংলাদেশ,খুলনা বিভাগ,locality,,,,Bangladesh,Khulna,Meherpur,MeherpurSadar,Kutubpur,28476d09abc9100282d926c8290d5d2e
4412,9517072,893cf08a2bbffff,23.79344842,88.70736593,মেহেরপর জেলা,"Meherpur District, Khulna Division, Bangladesh","মেহেরপর জেলা, খলনা বিভাগ, বাংলাদেশ",,"মেহেরপর জেলা, ",['Meherpur District'],,বাংলাদেশ,খলনা বিভাগ,admin2,,,,Bangladesh,Khulna,Meherpur,Gangni,Dhankhola,ad940af2545109a5efb0cd2e3112f6bc
4460,14326787,893cf0d4dbbffff,23.73391025,88.64573342,মেহেরপর সদর উপজেলা,"Meherpur Sadar Upazila, Meherpur District, Khulna Division, Bangladesh","মেহেরপর সদর উপজেলা, মেহেরপর জেলা, খলনা বিভাগ, বাংলাদেশ",,"মেহেরপর সদর উপজেলা, ",['Meherpur Sadar Upazila'],মেহেরপর সদর উপজেলা,বাংলাদেশ,খলনা বিভাগ,local_admin,,,,Bangladesh,Khulna,Meherpur,MeherpurSadar,Amjhupi,4c5a696bef35a61b9945331b1b95cc34
4817,14326786,893cf0813b7ffff,23.85664732,88.77278794,গাংনী উপজেলা,"Gangni Upazila, Meherpur District, Khulna Division, Bangladesh","গাংনী উপজেলা, মেহেরপর জেলা, খলনা বিভাগ, বাংলাদেশ",,"গাংনী উপজেলা, ",['Gangni Upazila'],গাংনী উপজেলা,বাংলাদেশ,খলনা বিভাগ,local_admin,,,,Bangladesh,Khulna,Meherpur,Gangni,Shaharbati,b059dde550d9f4b2378fd1b68e1a9c5c
279,330493110,893cf089c1bffff,23.71791686044926,88.74991544598302,মেহেরপর-চয়াডাঙগা সড়ক,"Meherpur-Chuadanga Road, Meherpur Sadar Upazila, Chuadanga District, Khulna Division, Bangladesh","মেহেরপর-চয়াডাঙগা সড়ক, মেহেরপর সদর উপজেলা, চয়াডাঙগা জেলা, খলনা বিভাগ, বাংলাদেশ",,"মেহেরপর-চয়াডাঙগা সড়ক, ",['Meherpur-Chuadanga Road'],মেহেরপর সদর উপজেলা,বাংলাদেশ,খলনা বিভাগ,street,,,,Bangladesh,Khulna,Meherpur,MeherpurSadar,Pirojpur,76749eb3b611582900a5d9388529493a
3915,530843132,893cf09820fffff,23.838210911027087,88.61044070358682,Meherpur-Ujalpur-Fatepur-Teroghoria-Sholmari Road,"Meherpur-Ujalpur-Fatepur-Teroghoria-Sholmari Road, Meherpur Sadar Upazila, Meherpur District, Khulna Division, Bangladesh","মেহেরপর সদর উপজেলা, মেহেরপর জেলা, খলনা বিভাগ, বাংলাদেশ",Meherpur-Ujalpur-Fatepur-Teroghoria-Sholmari Road,,,মেহেরপর সদর উপজেলা,বাংলাদেশ,খলনা বিভাগ,street,,,,Bangladesh,Khulna,Meherpur,MeherpurSadar,Kutubpur,28476d09abc9100282d926c8290d5d2e
4057,330493110,893cf089c1bffff,23.71791686044926,88.74991544598302,মেহেরপর-চয়াডাঙগা সড়ক,"Meherpur-Chuadanga Road, Alamdanga Upazila, Chuadanga District, Khulna Division, Bangladesh","মেহেরপর-চয়াডাঙগা সড়ক, আলমডাঙগা উপজেলা, চয়াডাঙগা জেলা, খলনা বিভাগ, বাংলাদেশ",,"মেহেরপর-চয়াডাঙগা সড়ক, ",['Meherpur-Chuadanga Road'],আলমডাঙগা উপজেলা,বাংলাদেশ,খলনা বিভাগ,street,,,,Bangladesh,Khulna,Meherpur,MeherpurSadar,Pirojpur,76749eb3b611582900a5d9388529493a
4294,164208899,893cf098e17ffff,23.85846800625321,88.65954798528169,Kahuli Road,"Kahuli Road, Kulbaria, Kaligangni, Meherpur Sadar Upazila, Meherpur District, Khulna Division, Bangladesh","কাথলি সড়ক, কলবাড়িয়া, কলবাড়িয়া, কালিগাংনী, মেহেরপর সদর উপজেলা, মেহেরপর জেলা, খলনা বিভাগ, বাংলাদেশ","Kahuli Road, ",,['à¦•à¦¾à¦¥à§�à¦²à¦¿ à¦¸à§œà¦•'],মেহেরপর সদর উপজেলা,বাংলাদেশ,খলনা বিভাগ,street,,,,Bangladesh,Khulna,Meherpur,Gangni,Kathuli,9c0083a76ff300c90901d5a70ac17064
1298,330493110,893cf089c1bffff,23.71791686044926,88.74991544598302,মেহেরপর-চয়াডাঙগা সড়ক,"Meherpur-Chuadanga Road, Damurhuda Upazila, Chuadanga District, Khulna Division, Bangladesh","মেহেরপর-চয়াডাঙগা সড়ক, দামড়হদা উপজেলা, চয়াডাঙগা জেলা, খলনা বিভাগ, বাংলাদেশ",,"মেহেরপর-চয়াডাঙগা সড়ক, ",['Meherpur-Chuadanga Road'],দামড়হদা উপজেলা,বাংলাদেশ,খলনা বিভাগ,street,,,,Bangladesh,Khulna,Meherpur,MeherpurSadar,Pirojpur,76749eb3b611582900a5d9388529493a
2767,531034768,893cf099ea3ffff,23.811921222104175,88.62590335976014,Ujalpur Main Road,"Ujalpur Main Road, Ujalpur, Meherpur Sadar Upazila, Meherpur District, Khulna Division, Bangladesh","উজলপর, মেহেরপর সদর উপজেলা, মেহেরপর জেলা, খলনা বিভাগ, বাংলাদেশ",Ujalpur Main Road,,,মেহেরপর সদর উপজেলা,বাংলাদেশ,খলনা বিভাগ,street,,,,Bangladesh,Khulna,Meherpur,MeherpurSadar,Kutubpur,28476d09abc9100282d926c8290d5d2e
2768,531036427,893cf099eb3ffff,23.812598344407935,88.6245021259265,Biswas Para Road,"Biswas Para Road, Ujalpur, Meherpur Sadar Upazila, Meherpur District, Khulna Division, Bangladesh","উজলপর, মেহেরপর সদর উপজেলা, মেহেরপর জেলা, খলনা বিভাগ, বাংলাদেশ",Biswas Para Road,,,মেহেরপর সদর উপজেলা,বাংলাদেশ,খলনা বিভাগ,street,,,,Bangladesh,Khulna,Meherpur,MeherpurSadar,Kutubpur,28476d09abc9100282d926c8290d5d2e
2769,531044495,893cf099e1bffff,23.80279178537534,88.61914465526797,Ujalpur - Kalachandpur Road,"Ujalpur - Kalachandpur Road, Ujalpur, Meherpur Sadar Upazila, Meherpur District, Khulna Division, Bangladesh","উজলপর, মেহেরপর সদর উপজেলা, মেহেরপর জেলা, খলনা বিভাগ, বাংলাদেশ",Ujalpur - Kalachandpur Road,,,মেহেরপর সদর উপজেলা,বাংলাদেশ,খলনা বিভাগ,street,,,,Bangladesh,Khulna,Meherpur,MeherpurSadar,Buripota,707400df9bc6df8e9eb9a53b3398ec83
2770,531039882,893cf099c4fffff,23.816586820045956,88.62582913049245,Eidgah Para Road,"Eidgah Para Road, Ujalpur, Meherpur Sadar Upazila, Meherpur District, Khulna Division, Bangladesh","উজলপর, মেহেরপর সদর উপজেলা, মেহেরপর জেলা, খলনা বিভাগ, বাংলাদেশ",Eidgah Para Road,,,মেহেরপর সদর উপজেলা,বাংলাদেশ,খলনা বিভাগ,street,,,,Bangladesh,Khulna,Meherpur,MeherpurSadar,Kutubpur,28476d09abc9100282d926c8290d5d2e
2771,531036567,893cf099eb3ffff,23.813435996305348,88.6245450554198,Uttor Para Road,"Uttor Para Road, Ujalpur, Meherpur Sadar Upazila, Meherpur District, Khulna Division, Bangladesh","উজলপর, মেহেরপর সদর উপজেলা, মেহেরপর জেলা, খলনা বিভাগ, বাংলাদেশ",Uttor Para Road,,,মেহেরপর সদর উপজেলা,বাংলাদেশ,খলনা বিভাগ,street,,,,Bangladesh,Khulna,Meherpur,MeherpurSadar,Kutubpur,28476d09abc9100282d926c8290d5d2e
2772,531040151,893cf099eb3ffff,23.81164112752317,88.62466201716018,Ghat Para Road,"Ghat Para Road, Ujalpur, Meherpur Sadar Upazila, Meherpur District, Khulna Division, Bangladesh","উজলপর, মেহেরপর সদর উপজেলা, মেহেরপর জেলা, খলনা বিভাগ, বাংলাদেশ",Ghat Para Road,,,মেহেরপর সদর উপজেলা,বাংলাদেশ,খলনা বিভাগ,street,,,,Bangladesh,Khulna,Meherpur,MeherpurSadar,Kutubpur,28476d09abc9100282d926c8290d5d2e
2773,531039392,893cf099c6bffff,23.816074131319994,88.62978575021032,Top Market Road,"Top Market Road, Ujalpur, Meherpur Sadar Upazila, Meherpur District, Khulna Division, Bangladesh","উজলপর, মেহেরপর সদর উপজেলা, মেহেরপর জেলা, খলনা বিভাগ, বাংলাদেশ",Top Market Road,,,মেহেরপর সদর উপজেলা,বাংলাদেশ,খলনা বিভাগ,street,,,,Bangladesh,Khulna,Meherpur,MeherpurSadar,Kutubpur,28476d09abc9100282d926c8290d5d2e
2774,531035493,893cf099ea7ffff,23.81209090802993,88.62885066764814,Baganpara Road,"Baganpara Road, Ujalpur, Meherpur Sadar Upazila, Meherpur District, Khulna Division, Bangladesh","উজলপর, মেহেরপর সদর উপজেলা, মেহেরপর জেলা, খলনা বিভাগ, বাংলাদেশ",Baganpara Road,,,মেহেরপর সদর উপজেলা,বাংলাদেশ,খলনা বিভাগ,street,,,,Bangladesh,Khulna,Meherpur,MeherpurSadar,Kutubpur,28476d09abc9100282d926c8290d5d2e
2775,531042886,893cf099eafffff,23.80703474844762,88.62961816476162,Ujalpur Gorsthan Road,"Ujalpur Gorsthan Road, Ujalpur, Meherpur Sadar Upazila, Meherpur District, Khulna Division, Bangladesh","উজলপর, মেহেরপর সদর উপজেলা, মেহেরপর জেলা, খলনা বিভাগ, বাংলাদেশ",Ujalpur Gorsthan Road,,,মেহেরপর সদর উপজেলা,বাংলাদেশ,খলনা বিভাগ,street,,,,Bangladesh,Khulna,Meherpur,MeherpurSadar,Kutubpur,28476d09abc9100282d926c8290d5d2e
2776,164208899,893cf098e17ffff,23.85846800625321,88.65954798528169,Kahuli Road,"Kahuli Road, Kulbaria, Ujalpur, Meherpur Sadar Upazila, Meherpur District, Khulna Division, Bangladesh","কাথলি সড়ক, কলবাড়িয়া, কলবাড়িয়া, উজলপর, মেহেরপর সদর উপজেলা, মেহেরপর জেলা, খলনা বিভাগ, বাংলাদেশ","Kahuli Road, ",,['à¦•à¦¾à¦¥à§�à¦²à¦¿ à¦¸à§œà¦•'],মেহেরপর সদর উপজেলা,বাংলাদেশ,খলনা বিভাগ,street,,,,Bangladesh,Khulna,Meherpur,Gangni,Kathuli,9c0083a76ff300c90901d5a70ac17064
2777,531039760,893cf099c6bffff,23.814060691086617,88.63025547467716,Chalk Para - Bagan Para Road,"Chalk Para - Bagan Para Road, Ujalpur, Meherpur Sadar Upazila, Meherpur District, Khulna Division, Bangladesh","উজলপর, মেহেরপর সদর উপজেলা, মেহেরপর জেলা, খলনা বিভাগ, বাংলাদেশ",Chalk Para - Bagan Para Road,,,মেহেরপর সদর উপজেলা,বাংলাদেশ,খলনা বিভাগ,street,,,,Bangladesh,Khulna,Meherpur,MeherpurSadar,Kutubpur,28476d09abc9100282d926c8290d5d2e
2778,604914152,893cf099e3bffff,23.803426404344037,88.62696598267743,Meherpur-Ujalpur-Fatepur-Teroghoria-Sholmari Road,"Meherpur-Ujalpur-Fatepur-Teroghoria-Sholmari Road, Ujalpur, Meherpur Sadar Upazila, Meherpur District, Khulna Division, Bangladesh","উজলপর, মেহেরপর সদর উপজেলা, মেহেরপর জেলা, খলনা বিভাগ, বাংলাদেশ",Meherpur-Ujalpur-Fatepur-Teroghoria-Sholmari Road,,,মেহেরপর সদর উপজেলা,বাংলাদেশ,খলনা বিভাগ,street,,,,Bangladesh,Khulna,Meherpur,MeherpurSadar,MeherpurPaurashava,42bb69c9242d8819274628e9c511b5d6
3907,801640983,893cf0d698bffff,23.76965153105783,88.6286480897586,য়াদবপর রোড,"Meherpur Sadar Upazila, Meherpur District, Khulna Division, Bangladesh","য়াদবপর রোড, মেহেরপর সদর উপজেলা, মেহেরপর জেলা, খলনা বিভাগ, বাংলাদেশ",,য়াদবপর রোড,,মেহেরপর সদর উপজেলা,বাংলাদেশ,খলনা বিভাগ,street,,,,Bangladesh,Khulna,Meherpur,MeherpurSadar,MeherpurPaurashava,42bb69c9242d8819274628e9c511b5d6
