,osm_id,h3level9,lat,lon,name,name_en,name_bn,need_translate_en2bn,need_translate_bn2en,alt_names,local_admin_name,admin0_name,admin2_name,addr_level,poi_addr_match,poi_class,poi_keywords,country,division,district,thana,union,region_hash
3537,5548621500,893ce260e1bffff,24.5761289,90.7400027,Nandail Chourasta Bus Stop,"Nandail Chourasta Bus Stop, Nandail, Mymensingh District, Mymensingh Division, Bangladesh","ময়মনসিংহ জেলা, ময়মনসিংহ বিভাগ, বাংলাদেশ",Nandail Chourasta Bus Stop,,,Nandail,বাংলাদেশ,ময়মনসিংহ বিভাগ,street,boundaries,['bus_stop'],[],Bangladesh,Mymensingh,Mymensingh,Nandail,Gangail,b6009ca5ded5369f40f886705b6df950
3618,5627089257,893ce261e7bffff,24.5205486,90.708354,Shiyaldhora Bazar,"Shiyaldhora Bazar, Nandail, Mymensingh District, Mymensingh Division, Bangladesh","ময়মনসিংহ জেলা, ময়মনসিংহ বিভাগ, বাংলাদেশ","Shiyaldhora Bazar, ",,,Nandail,বাংলাদেশ,ময়মনসিংহ বিভাগ,local_admin,boundaries,['marketplace'],[],Bangladesh,Mymensingh,Mymensingh,Nandail,Singrail,915d7fdfd956c432ebbdd04359ef3a2b
3624,5627089270,893ce2618cbffff,24.5309073,90.7204252,Singroil Bazar,"Singroil Bazar, Nandail, Mymensingh District, Mymensingh Division, Bangladesh","ময়মনসিংহ জেলা, ময়মনসিংহ বিভাগ, বাংলাদেশ","Singroil Bazar, ",,,Nandail,বাংলাদেশ,ময়মনসিংহ বিভাগ,local_admin,boundaries,['marketplace'],[],Bangladesh,Mymensingh,Mymensingh,Nandail,Singrail,915d7fdfd956c432ebbdd04359ef3a2b
4563,231234287,893ce250c6fffff,24.70966536,90.16045351,Gabtali High School,"Gabtali High School, Muktagacha, Mymensingh District, Mymensingh Division, Bangladesh","ময়মনসিংহ জেলা, ময়মনসিংহ বিভাগ, বাংলাদেশ","Gabtali High School, ",,,Muktagacha,বাংলাদেশ,ময়মনসিংহ বিভাগ,local_admin,boundaries,['school'],[],Bangladesh,Mymensingh,Mymensingh,Muktagachha,Ghoga,b1ccb4138fb32abb3375c510d6f7ce2d
2173,4388826037,893ce255c2bffff,24.7134238,90.294617,Bashna Community Clinic,"Bashna Community Clinic, Phulbari Mymensingh, Mymensingh District, Mymensingh Division, Bangladesh","ময়মনসিংহ জেলা, ময়মনসিংহ বিভাগ, বাংলাদেশ","Bashna Community Clinic, ",,,Phulbari (Mymensingh),বাংলাদেশ,ময়মনসিংহ বিভাগ,local_admin,boundaries,['clinic'],[],Bangladesh,Mymensingh,Mymensingh,Fulbaria,Balian,e72885f555e25c18fbc861a9837f0438
2179,4388859702,893ce255c73ffff,24.7105951,90.290255,Hutkhula Bazar,"Hutkhula Bazar, Phulbari Mymensingh, Mymensingh District, Mymensingh Division, Bangladesh","ময়মনসিংহ জেলা, ময়মনসিংহ বিভাগ, বাংলাদেশ","Hutkhula Bazar, ",,,Phulbari (Mymensingh),বাংলাদেশ,ময়মনসিংহ বিভাগ,local_admin,boundaries,['marketplace'],[],Bangladesh,Mymensingh,Mymensingh,Fulbaria,Balian,e72885f555e25c18fbc861a9837f0438
2205,4450037167,893ce255c2bffff,24.7125007,90.2979499,Bashna Bazar,"Bashna Bazar, Phulbari Mymensingh, Mymensingh District, Mymensingh Division, Bangladesh","ময়মনসিংহ জেলা, ময়মনসিংহ বিভাগ, বাংলাদেশ","Bashna Bazar, ",,,Phulbari (Mymensingh),বাংলাদেশ,ময়মনসিংহ বিভাগ,local_admin,boundaries,['marketplace'],[],Bangladesh,Mymensingh,Mymensingh,Fulbaria,Balian,e72885f555e25c18fbc861a9837f0438
2261,229541727,893ce2414bbffff,24.570583229862688,90.17974024501575,Garobazar-Fulbaria Road,"Garobazar-Fulbaria Road, Phulbari Mymensingh, Mymensingh District, Mymensingh Division, Bangladesh","ময়মনসিংহ জেলা, ময়মনসিংহ বিভাগ, বাংলাদেশ",Garobazar-Fulbaria Road,,,Phulbari (Mymensingh),বাংলাদেশ,ময়মনসিংহ বিভাগ,street,,,,Bangladesh,Mymensingh,Mymensingh,Fulbaria,Rangamatia,409bba1704ebed33d382a407b50f8541
2497,278921558,893ce250e07ffff,24.70000215,90.1505518,Mymensingh - Tangail Highway,"Mymensingh - Tangail Highway, Muktagacha, Mymensingh District, Mymensingh Division, Bangladesh","ময়মনসিংহ জেলা, ময়মনসিংহ বিভাগ, বাংলাদেশ",Mymensingh - Tangail Highway,,,Muktagacha,বাংলাদেশ,ময়মনসিংহ বিভাগ,street,,,,Bangladesh,Mymensingh,Mymensingh,Muktagachha,Ghoga,b1ccb4138fb32abb3375c510d6f7ce2d
2761,229541534,893ce24336fffff,24.5769963,90.19019735,Garobazar-Fulbaria Road,"Garobazar-Fulbaria Road, Phulbari Mymensingh, Mymensingh District, Mymensingh Division, Bangladesh","ময়মনসিংহ জেলা, ময়মনসিংহ বিভাগ, বাংলাদেশ",Garobazar-Fulbaria Road,,,Phulbari (Mymensingh),বাংলাদেশ,ময়মনসিংহ বিভাগ,street,,,,Bangladesh,Mymensingh,Mymensingh,Fulbaria,Naogaon,f0458cbce42633228088e02256c47fff
3395,278921561,893ce250e0bffff,24.69491024948526,90.14690539646276,ময়মনসিংহ - টাঙ্গাইল মহাসড়ক,"-, Mymensingh - Tangail Highway, Muktagacha, Mymensingh District, Mymensingh Division, Bangladesh","ময়মনসিংহ টাঙ্গাইল মহাসড়ক, ময়মনসিংহ জেলা, ময়মনসিংহ বিভাগ, বাংলাদেশ",,"ময়মনসিংহ - টাঙ্গাইল মহাসড়ক, ",['Mymensingh - Tangail Highway'],Muktagacha,বাংলাদেশ,ময়মনসিংহ বিভাগ,street,,,,Bangladesh,Mymensingh,Mymensingh,Muktagachha,Ghoga,b1ccb4138fb32abb3375c510d6f7ce2d
3723,5227739738,893ce2c58b7ffff,24.9702364,90.2277957,Hatpagla Bazar,"Hatpagla Bazar, Nakla Upazila, Sherpur District, Mymensingh Division, Bangladesh","নকলা উপজেলা, শেরপুর জেলা, ময়মনসিংহ বিভাগ, বাংলাদেশ","Hatpagla Bazar, ",,,নকলা উপজেলা,বাংলাদেশ,ময়মনসিংহ বিভাগ,local_admin,boundaries,['marketplace'],[],Bangladesh,Mymensingh,Mymensingh,Phulpur,Sandhara,d24ea4e332080c532bf0466afd59a2d7
3732,5227766533,893ce21a633ffff,24.9550318,90.2708884,Hosenpur Bus Stop,"Hosenpur Bus Stop, Phulpur, Mymensingh District, Mymensingh Division, Bangladesh","ময়মনসিংহ জেলা, ময়মনসিংহ বিভাগ, বাংলাদেশ",Hosenpur Bus Stop,,,Phulpur,বাংলাদেশ,ময়মনসিংহ বিভাগ,street,boundaries,['bus_stop'],[],Bangladesh,Mymensingh,Mymensingh,Phulpur,Rambhadrapur,096fdcf8538bdf4435c0fb4ecbaf5cb9
3738,5227776122,893ce21a043ffff,24.952921,90.2834113,"Vaitkandi Bus Station ভাইটকান্দি বাসস্ট্যান্ড, ফুলপুর","Vaitkandi Bus Station, Phulpur, Mymensingh District, Mymensingh Division, Bangladesh","ভাইটকান্দি বাসস্ট্যান্ড ফুলপুর, ময়মনসিংহ জেলা, ময়মনসিংহ বিভাগ, বাংলাদেশ",,,,Phulpur,বাংলাদেশ,ময়মনসিংহ বিভাগ,street,boundaries,['bus_stop'],[],Bangladesh,Mymensingh,Mymensingh,Phulpur,Bhaitkandi,e1ee3a7e5fa3cf4db2177c83c54c7a77
3744,5227789933,893ce21a297ffff,24.9470473,90.2809191,"Bhaitkandi Bazar, Phulpur ভাইটকান্দি বাজার, ফুলপুর","Bhaitkandi Bazar Phulpur, Phulpur, Mymensingh District, Mymensingh Division, Bangladesh","ভাইটকান্দি বাজার ফুলপুর, ময়মনসিংহ জেলা, ময়মনসিংহ বিভাগ, বাংলাদেশ",,,,Phulpur,বাংলাদেশ,ময়মনসিংহ বিভাগ,local_admin,boundaries,['marketplace'],[],Bangladesh,Mymensingh,Mymensingh,Phulpur,Rambhadrapur,096fdcf8538bdf4435c0fb4ecbaf5cb9
3844,6149518818,893ce260ecfffff,24.5760905,90.7398451,Nandail Chourasta Bus Stop,"Nandail Chourasta Bus Stop, Nandail, Mymensingh District, Mymensingh Division, Bangladesh","ময়মনসিংহ জেলা, ময়মনসিংহ বিভাগ, বাংলাদেশ",Nandail Chourasta Bus Stop,,,Nandail,বাংলাদেশ,ময়মনসিংহ বিভাগ,street,boundaries,['bus_stop'],[],Bangladesh,Mymensingh,Mymensingh,Nandail,Chandipasha,7058fa8026ac9760c1d024737eb2212a
3989,229541720,893ce24336fffff,24.576465883264817,90.1894811953974,Garobazar-Fulbaria Road,"Garobazar-Fulbaria Road, Phulbari Mymensingh, Mymensingh District, Mymensingh Division, Bangladesh","ময়মনসিংহ জেলা, ময়মনসিংহ বিভাগ, বাংলাদেশ",Garobazar-Fulbaria Road,,,Phulbari (Mymensingh),বাংলাদেশ,ময়মনসিংহ বিভাগ,street,,,,Bangladesh,Mymensingh,Mymensingh,Fulbaria,Naogaon,f0458cbce42633228088e02256c47fff
4107,278921553,893ce250d7bffff,24.71941924184957,90.1779965905824,ময়মনসিংহ - টাঙ্গাইল মহাসড়ক,"-, Mymensingh - Tangail Highway, Muktagacha, Mymensingh District, Mymensingh Division, Bangladesh","ময়মনসিংহ টাঙ্গাইল মহাসড়ক, ময়মনসিংহ জেলা, ময়মনসিংহ বিভাগ, বাংলাদেশ",,"ময়মনসিংহ - টাঙ্গাইল মহাসড়ক, ",['Mymensingh - Tangail Highway'],Muktagacha,বাংলাদেশ,ময়মনসিংহ বিভাগ,street,,,,Bangladesh,Mymensingh,Mymensingh,Muktagachha,Ghoga,b1ccb4138fb32abb3375c510d6f7ce2d
4532,278921559,893ce250e43ffff,24.69037985,90.14245525,Mymensingh - Tangail Highway,"Mymensingh - Tangail Highway, Muktagacha, Mymensingh District, Mymensingh Division, Bangladesh","ময়মনসিংহ জেলা, ময়মনসিংহ বিভাগ, বাংলাদেশ",Mymensingh - Tangail Highway,,,Muktagacha,বাংলাদেশ,ময়মনসিংহ বিভাগ,street,,,,Bangladesh,Mymensingh,Mymensingh,Muktagachha,Ghoga,b1ccb4138fb32abb3375c510d6f7ce2d
4746,229541514,893ce24065bffff,24.584545245129856,90.20007407263208,Garobazar-Fulbaria Road,"Garobazar-Fulbaria Road, Phulbari Mymensingh, Mymensingh District, Mymensingh Division, Bangladesh","ময়মনসিংহ জেলা, ময়মনসিংহ বিভাগ, বাংলাদেশ",Garobazar-Fulbaria Road,,,Phulbari (Mymensingh),বাংলাদেশ,ময়মনসিংহ বিভাগ,street,,,,Bangladesh,Mymensingh,Mymensingh,Fulbaria,Naogaon,f0458cbce42633228088e02256c47fff
4955,2815723735,893ce2426c7ffff,24.6485899,90.1711536,Daogaon,"Daogaon, Muktagacha, Mymensingh District, Mymensingh Division, Bangladesh","ময়মনসিংহ জেলা, ময়মনসিংহ বিভাগ, বাংলাদেশ","Daogaon, ",,,Muktagacha,বাংলাদেশ,ময়মনসিংহ বিভাগ,locality,,,,Bangladesh,Mymensingh,Mymensingh,Muktagachha,Daogaon,435b7ce595097dbced733b3ee06d319d
5007,2815723717,893ce2cd86fffff,24.7971676,90.1869034,Baragram,"Baragram, Muktagacha, Mymensingh District, Mymensingh Division, Bangladesh","ময়মনসিংহ জেলা, ময়মনসিংহ বিভাগ, বাংলাদেশ","Baragram, ",,,Muktagacha,বাংলাদেশ,ময়মনসিংহ বিভাগ,locality,,,,Bangladesh,Mymensingh,Mymensingh,Muktagachha,Baragram,65e06449e834892abed0a288795f1833
123,2815723779,893ce257637ffff,24.7523717,90.1960117,মানকোন,"Mankon, Muktagacha, Mymensingh District, Mymensingh Division, Bangladesh","মানকোন, ময়মনসিংহ জেলা, ময়মনসিংহ বিভাগ, বাংলাদেশ",,"মানকোন, ","['মানকোন', 'Mankon']",Muktagacha,বাংলাদেশ,ময়মনসিংহ বিভাগ,locality,,,,Bangladesh,Mymensingh,Mymensingh,Muktagachha,Mankon,4934d8e65ef646e40e3d815d8ecf0fab
129,2815723752,893ce250c0fffff,24.7173852,90.1578706,Ghoga,"Ghoga, Muktagacha, Mymensingh District, Mymensingh Division, Bangladesh","ময়মনসিংহ জেলা, ময়মনসিংহ বিভাগ, বাংলাদেশ","Ghoga, ",,,Muktagacha,বাংলাদেশ,ময়মনসিংহ বিভাগ,locality,,,,Bangladesh,Mymensingh,Mymensingh,Muktagachha,Ghoga,b1ccb4138fb32abb3375c510d6f7ce2d
222,2815723745,893ce25288bffff,24.7615045,90.1350997,Dulia,"Dulia, Muktagacha, Mymensingh District, Mymensingh Division, Bangladesh","ময়মনসিংহ জেলা, ময়মনসিংহ বিভাগ, বাংলাদেশ","Dulia, ",,,Muktagacha,বাংলাদেশ,ময়মনসিংহ বিভাগ,locality,,,,Bangladesh,Mymensingh,Mymensingh,Muktagachha,Dulla,8c08aaf3bc65e5793751ef86f79c3cc1
233,2815723800,893ce24108bffff,24.5531794,90.191078,Rangamatia,"Rangamatia, Phulbari Mymensingh, Mymensingh District, Mymensingh Division, Bangladesh","ময়মনসিংহ জেলা, ময়মনসিংহ বিভাগ, বাংলাদেশ","Rangamatia, ",,,Phulbari (Mymensingh),বাংলাদেশ,ময়মনসিংহ বিভাগ,locality,,,,Bangladesh,Mymensingh,Mymensingh,Fulbaria,Rangamatia,409bba1704ebed33d382a407b50f8541
253,2396427282,893ce250e4bffff,24.6893952,90.1411675,রসুলপুর,"Rasulpur, Muktagacha, Mymensingh District, Mymensingh Division, Bangladesh","রসুলপুর, ময়মনসিংহ জেলা, ময়মনসিংহ বিভাগ, বাংলাদেশ",,"রসুলপুর, ","['রসুলপুর', 'Rasulpur']",Muktagacha,বাংলাদেশ,ময়মনসিংহ বিভাগ,locality,,,,Bangladesh,Mymensingh,Mymensingh,Muktagachha,Ghoga,b1ccb4138fb32abb3375c510d6f7ce2d
334,2815723767,893ce250bb7ffff,24.7001468,90.196581,কাশিমপুর,"Kashimpur, Muktagacha, Mymensingh District, Mymensingh Division, Bangladesh","কাশিমপুর, ময়মনসিংহ জেলা, ময়মনসিংহ বিভাগ, বাংলাদেশ",,"কাশিমপুর, ","['কাশিমপুর', 'Kashimpur']",Muktagacha,বাংলাদেশ,ময়মনসিংহ বিভাগ,locality,,,,Bangladesh,Mymensingh,Mymensingh,Muktagachha,Kashimpur,552914890b22539109700dc1456322e2
1193,576032390,893ce26018fffff,24.5997296,90.72540017,,"Nandail, Mymensingh District, Mymensingh Division, Bangladesh","ময়মনসিংহ জেলা, ময়মনসিংহ বিভাগ, বাংলাদেশ",,,,Nandail,বাংলাদেশ,ময়মনসিংহ বিভাগ,local_admin,boundaries,['playground'],[],Bangladesh,Mymensingh,Mymensingh,Nandail,Chandipasha,7058fa8026ac9760c1d024737eb2212a
2035,7394246654,893ce24f2a3ffff,24.4808044,90.292101,Borovita Jame Masjid,"Borovita Jame Masjid, Phulbari Mymensingh, Mymensingh District, Mymensingh Division, Bangladesh","ময়মনসিংহ জেলা, ময়মনসিংহ বিভাগ, বাংলাদেশ","Borovita Jame Masjid, ",,['বড়ভিটা জামে মসজিদ'],Phulbari (Mymensingh),বাংলাদেশ,ময়মনসিংহ বিভাগ,local_admin,boundaries,['place_of_worship_muslim'],[],Bangladesh,Mymensingh,Mymensingh,Fulbaria,Bhabanipur,7e909dd8e25fb2e0c219573159d9b3ee
2040,7394311659,893ce24f2a3ffff,24.4812054,90.2925814,Borovita Islamia Dakhi Madrasah,"Borovita Islamia Dakhi Madrasah, Phulbari Mymensingh, Mymensingh District, Mymensingh Division, Bangladesh","ময়মনসিংহ জেলা, ময়মনসিংহ বিভাগ, বাংলাদেশ","Borovita Islamia Dakhi Madrasah, ",,['বড়ভিটা ইসলামিয়া দাখিল মাদ্রাসা'],Phulbari (Mymensingh),বাংলাদেশ,ময়মনসিংহ বিভাগ,local_admin,boundaries,['educational_institution'],[],Bangladesh,Mymensingh,Mymensingh,Fulbaria,Bhabanipur,7e909dd8e25fb2e0c219573159d9b3ee
2045,7394397856,893ce24f3d3ffff,24.4835908,90.2975324,Barajoyna Jame Masjid,"Barajoyna Jame Masjid, Phulbari Mymensingh, Mymensingh District, Mymensingh Division, Bangladesh","ময়মনসিংহ জেলা, ময়মনসিংহ বিভাগ, বাংলাদেশ","Barajoyna Jame Masjid, ",,['বড়জয়না জামে মসজিদ'],Phulbari (Mymensingh),বাংলাদেশ,ময়মনসিংহ বিভাগ,local_admin,boundaries,['place_of_worship_muslim'],[],Bangladesh,Mymensingh,Mymensingh,Fulbaria,Bhabanipur,7e909dd8e25fb2e0c219573159d9b3ee
2053,7394415243,893ce24f3d3ffff,24.4833655,90.2975977,Barajona High School,"Barajona High School, Phulbari Mymensingh, Mymensingh District, Mymensingh Division, Bangladesh","ময়মনসিংহ জেলা, ময়মনসিংহ বিভাগ, বাংলাদেশ","Barajona High School, ",,['বড়জয়না উচ্চ বিদ্যালয়'],Phulbari (Mymensingh),বাংলাদেশ,ময়মনসিংহ বিভাগ,local_admin,boundaries,['educational_institution'],[],Bangladesh,Mymensingh,Mymensingh,Fulbaria,Bhabanipur,7e909dd8e25fb2e0c219573159d9b3ee
2054,7394423930,893ce24f3d3ffff,24.4834941,90.2979497,Barajoyna Govt. Primary School,"Barajoyna Govt. Primary School, Phulbari Mymensingh, Mymensingh District, Mymensingh Division, Bangladesh","ময়মনসিংহ জেলা, ময়মনসিংহ বিভাগ, বাংলাদেশ","Barajoyna Govt. Primary School, ",,['বড়জয়না সরকারি প্রাথমিক বিদ্যালয়'],Phulbari (Mymensingh),বাংলাদেশ,ময়মনসিংহ বিভাগ,local_admin,boundaries,['educational_institution'],[],Bangladesh,Mymensingh,Mymensingh,Fulbaria,Bhabanipur,7e909dd8e25fb2e0c219573159d9b3ee
2082,7401184586,893ce21b5cfffff,24.9290928,90.252673,আরিফ ফার্মেসি,,"আরিফ ফার্মেসি, ",,"আরিফ ফার্মেসি, ",,Phulpur,বাংলাদেশ,ময়মনসিংহ বিভাগ,housenumber,sameSource,['pharmacy'],[],Bangladesh,Mymensingh,Mymensingh,Phulpur,Rambhadrapur,096fdcf8538bdf4435c0fb4ecbaf5cb9
2087,7413346843,893ce21b037ffff,24.9105113,90.2623623,চরনিয়ামত সরকারি প্রাথমিক বিদ্যালয়,"Phulpur, Mymensingh District, Mymensingh Division, Bangladesh","চরনিয়ামত সরকারি প্রাথমিক বিদ্যালয়, ময়মনসিংহ জেলা, ময়মনসিংহ বিভাগ, বাংলাদেশ",,"চরনিয়ামত সরকারি প্রাথমিক বিদ্যালয়, ",,Phulpur,বাংলাদেশ,ময়মনসিংহ বিভাগ,local_admin,boundaries,['school'],[],Bangladesh,Mymensingh,Mymensingh,Phulpur,Rambhadrapur,096fdcf8538bdf4435c0fb4ecbaf5cb9
2294,9136016887,893ce24f2afffff,24.4773073,90.2930907,Raw Canvas,"Raw Canvas, ",,"Raw Canvas, ",,,Phulbari (Mymensingh),বাংলাদেশ,ময়মনসিংহ বিভাগ,housenumber,sameSource,['restaurant'],[],Bangladesh,Mymensingh,Mymensingh,Fulbaria,Bhabanipur,7e909dd8e25fb2e0c219573159d9b3ee
2324,579660038,893ce261d3bffff,24.553680889971027,90.74367683528897,Mymensingh - Kishoreganj-Bhairav highway,"Mymensingh - Kishoreganj-Bhairav highway, Nandail, Mymensingh District, Mymensingh Division, Bangladesh","ময়মনসিংহ জেলা, ময়মনসিংহ বিভাগ, বাংলাদেশ",Mymensingh - Kishoreganj-Bhairav highway,,,Nandail,বাংলাদেশ,ময়মনসিংহ বিভাগ,street,,,,Bangladesh,Mymensingh,Mymensingh,Nandail,Musuli,f6b547ec7e7549b6d6042b93e15897d7
2981,589270699,893ce26ad3bffff,24.504732089873762,90.70908474997768,Nandail - Hossainpur Road,"Nandail - Hossainpur Road, Nandail, Mymensingh District, Mymensingh Division, Bangladesh","ময়মনসিংহ জেলা, ময়মনসিংহ বিভাগ, বাংলাদেশ",Nandail - Hossainpur Road,,,Nandail,বাংলাদেশ,ময়মনসিংহ বিভাগ,street,,,,Bangladesh,Mymensingh,Mymensingh,Nandail,Singrail,915d7fdfd956c432ebbdd04359ef3a2b
2982,589270699,893ce26ad3bffff,24.504732089873762,90.70908474997768,Nandail - Hossainpur Road,"Nandail - Hossainpur Road, Hossainpur, Bangladesh",বাংলাদেশ,Nandail - Hossainpur Road,,,Hossainpur,বাংলাদেশ,,street,,,,Bangladesh,Mymensingh,Mymensingh,Nandail,Singrail,915d7fdfd956c432ebbdd04359ef3a2b
2986,589270699,893ce26ad3bffff,24.504732089873762,90.70908474997768,Nandail - Hossainpur Road,"Nandail - Hossainpur Road, Nandail, Kishoreganj District, Bangladesh","কিশোরগঞ্জ জেলা, বাংলাদেশ",Nandail - Hossainpur Road,,,Nandail,বাংলাদেশ,,street,,,,Bangladesh,Mymensingh,Mymensingh,Nandail,Singrail,915d7fdfd956c432ebbdd04359ef3a2b
2989,589270699,893ce26ad3bffff,24.504732089873762,90.70908474997768,Nandail - Hossainpur Road,"Nandail - Hossainpur Road, Nandail, Mymensingh District, Dhaka Division, Bangladesh","ময়মনসিংহ জেলা, ঢাকা বিভাগ, বাংলাদেশ",Nandail - Hossainpur Road,,,Nandail,বাংলাদেশ,ঢাকা বিভাগ,street,,,,Bangladesh,Mymensingh,Mymensingh,Nandail,Singrail,915d7fdfd956c432ebbdd04359ef3a2b
3103,579660037,893ce261943ffff,24.532224499999998,90.7516707,Mymensingh - Kishoreganj-Bhairav highway,"Mymensingh - Kishoreganj-Bhairav highway, Nandail, Mymensingh District, Mymensingh Division, Bangladesh","ময়মনসিংহ জেলা, ময়মনসিংহ বিভাগ, বাংলাদেশ",Mymensingh - Kishoreganj-Bhairav highway,,,Nandail,বাংলাদেশ,ময়মনসিংহ বিভাগ,street,,,,Bangladesh,Mymensingh,Mymensingh,Nandail,Musuli,f6b547ec7e7549b6d6042b93e15897d7
3188,232498304,893ce261e93ffff,24.538166325401072,90.70057528049871,Nandail - Hossainpur Road,"Nandail - Hossainpur Road, Nandail, Mymensingh District, Mymensingh Division, Bangladesh","ময়মনসিংহ জেলা, ময়মনসিংহ বিভাগ, বাংলাদেশ",Nandail - Hossainpur Road,,,Nandail,বাংলাদেশ,ময়মনসিংহ বিভাগ,street,,,,Bangladesh,Mymensingh,Mymensingh,Nandail,Achargaon,3f14222fe449d7864983cae67f9e073e
3243,232498497,893ce2603c7ffff,24.572940913113083,90.7133693470142,Mymensingh - Kishoreganj-Bhairav highway,"Mymensingh - Kishoreganj-Bhairav highway, Nandail, Mymensingh District, Mymensingh Division, Bangladesh","ময়মনসিংহ জেলা, ময়মনসিংহ বিভাগ, বাংলাদেশ",Mymensingh - Kishoreganj-Bhairav highway,,,Nandail,বাংলাদেশ,ময়মনসিংহ বিভাগ,street,,,,Bangladesh,Mymensingh,Mymensingh,Nandail,Chandipasha,7058fa8026ac9760c1d024737eb2212a
3386,257358430,893ce26563bffff,24.57360873102309,90.81870343568676,Tarail-Nandail Chourasta Road,"Tarail-Nandail Chourasta Road, Nandail, Mymensingh District, Mymensingh Division, Bangladesh","ময়মনসিংহ জেলা, ময়মনসিংহ বিভাগ, বাংলাদেশ",Tarail-Nandail Chourasta Road,,,Nandail,বাংলাদেশ,ময়মনসিংহ বিভাগ,street,,,,Bangladesh,Mymensingh,Mymensingh,Nandail,Rajgati,b4d1213a3e0bcf99eaa6595c2edd5daf
3388,257358430,893ce26563bffff,24.57360873102309,90.81870343568676,Tarail-Nandail Chourasta Road,"Tarail-Nandail Chourasta Road, Netrokona District, Mymensingh Division, Bangladesh","নেত্রকোনা জেলা, ময়মনসিংহ বিভাগ, বাংলাদেশ",Tarail-Nandail Chourasta Road,,,,বাংলাদেশ,ময়মনসিংহ বিভাগ,street,,,,Bangladesh,Mymensingh,Mymensingh,Nandail,Rajgati,b4d1213a3e0bcf99eaa6595c2edd5daf
3390,257358430,893ce26563bffff,24.57360873102309,90.81870343568676,Tarail-Nandail Chourasta Road,"Tarail-Nandail Chourasta Road, Mymensingh District, Mymensingh Division, Bangladesh","ময়মনসিংহ জেলা, ময়মনসিংহ বিভাগ, বাংলাদেশ",Tarail-Nandail Chourasta Road,,,,বাংলাদেশ,ময়মনসিংহ বিভাগ,street,,,,Bangladesh,Mymensingh,Mymensingh,Nandail,Rajgati,b4d1213a3e0bcf99eaa6595c2edd5daf
4100,576421585,893ce262e77ffff,24.625386197303747,90.72007573679416,Kendua-Atharobari-Nandail Road,"Kendua-Atharobari-Nandail Road, Iswarganj, Mymensingh District, Mymensingh Division, Bangladesh","ময়মনসিংহ জেলা, ময়মনসিংহ বিভাগ, বাংলাদেশ",Kendua-Atharobari-Nandail Road,,,Iswarganj,বাংলাদেশ,ময়মনসিংহ বিভাগ,street,,,,Bangladesh,Mymensingh,Mymensingh,Ishwarganj,Atharabari,3a66e373dc235c144cc613b95ed2f67b
4102,576421585,893ce262e77ffff,24.625386197303747,90.72007573679416,Kendua-Atharobari-Nandail Road,"Kendua-Atharobari-Nandail Road, Nandail, Mymensingh District, Mymensingh Division, Bangladesh","ময়মনসিংহ জেলা, ময়মনসিংহ বিভাগ, বাংলাদেশ",Kendua-Atharobari-Nandail Road,,,Nandail,বাংলাদেশ,ময়মনসিংহ বিভাগ,street,,,,Bangladesh,Mymensingh,Mymensingh,Ishwarganj,Atharabari,3a66e373dc235c144cc613b95ed2f67b
4104,576421585,893ce262e77ffff,24.625386197303747,90.72007573679416,Kendua-Atharobari-Nandail Road,"Kendua-Atharobari-Nandail Road, Netrokona District, Mymensingh Division, Bangladesh","নেত্রকোনা জেলা, ময়মনসিংহ বিভাগ, বাংলাদেশ",Kendua-Atharobari-Nandail Road,,,,বাংলাদেশ,ময়মনসিংহ বিভাগ,street,,,,Bangladesh,Mymensingh,Mymensingh,Ishwarganj,Atharabari,3a66e373dc235c144cc613b95ed2f67b
4107,576421585,893ce262e77ffff,24.625386197303747,90.72007573679416,Kendua-Atharobari-Nandail Road,"Kendua-Atharobari-Nandail Road, Mymensingh District, Mymensingh Division, Bangladesh","ময়মনসিংহ জেলা, ময়মনসিংহ বিভাগ, বাংলাদেশ",Kendua-Atharobari-Nandail Road,,,,বাংলাদেশ,ময়মনসিংহ বিভাগ,street,,,,Bangladesh,Mymensingh,Mymensingh,Ishwarganj,Atharabari,3a66e373dc235c144cc613b95ed2f67b
4216,576421584,893ce260e1bffff,24.576597008560974,90.73992150463764,Nandail Chourasta Circle,"Nandail Chourasta Circle, Nandail, Mymensingh District, Mymensingh Division, Bangladesh","ময়মনসিংহ জেলা, ময়মনসিংহ বিভাগ, বাংলাদেশ",Nandail Chourasta Circle,,,Nandail,বাংলাদেশ,ময়মনসিংহ বিভাগ,street,,,,Bangladesh,Mymensingh,Mymensingh,Nandail,Gangail,b6009ca5ded5369f40f886705b6df950
4417,441120963,893ce255cafffff,24.72073233,90.29464974,Bashna Eidgah Math,"Bashna Eidgah Math, Phulbari Mymensingh, Mymensingh District, Mymensingh Division, Bangladesh","ময়মনসিংহ জেলা, ময়মনসিংহ বিভাগ, বাংলাদেশ","Bashna Eidgah Math, ",,,Phulbari (Mymensingh),বাংলাদেশ,ময়মনসিংহ বিভাগ,local_admin,boundaries,['place_of_worship_muslim'],[],Bangladesh,Mymensingh,Mymensingh,Muktagachha,Kheruajani,42739d1fc9a757de14e04d364b4f87a9
4527,5516871702,893ce260e1bffff,24.5764204,90.7406035,নান্দাইল চৌরাস্তা,"Nandail Chourasta, Nandail, Mymensingh District, Mymensingh Division, Bangladesh","নান্দাইল চৌরাস্তা, ময়মনসিংহ জেলা, ময়মনসিংহ বিভাগ, বাংলাদেশ",,"নান্দাইল চৌরাস্তা, ","['নান্দাইল চৌরাস্তা', 'Nandail Chourasta']",Nandail,বাংলাদেশ,ময়মনসিংহ বিভাগ,local_admin,,,,Bangladesh,Mymensingh,Mymensingh,Nandail,Gangail,b6009ca5ded5369f40f886705b6df950
4594,5873025909,893ce26097bffff,24.582583,90.7966429,Gati Para,"Gati Para, Netrokona District, Mymensingh Division, Bangladesh","নেত্রকোনা জেলা, ময়মনসিংহ বিভাগ, বাংলাদেশ","Gati Para, ",,,,বাংলাদেশ,ময়মনসিংহ বিভাগ,locality,,,,Bangladesh,Mymensingh,Mymensingh,Nandail,Rajgati,b4d1213a3e0bcf99eaa6595c2edd5daf
4667,2815723707,893ce2628dbffff,24.6357988,90.7251099,Atharabari,"Atharabari, Iswarganj, Mymensingh District, Mymensingh Division, Bangladesh","ময়মনসিংহ জেলা, ময়মনসিংহ বিভাগ, বাংলাদেশ","Atharabari, ",,,Iswarganj,বাংলাদেশ,ময়মনসিংহ বিভাগ,locality,,,,Bangladesh,Mymensingh,Mymensingh,Ishwarganj,Atharabari,3a66e373dc235c144cc613b95ed2f67b
4710,540157227,893ce288107ffff,25.17440261,90.26267488,LOKKIPUR JAME MOSQUE,"LOKKIPUR JAME MOSQUE, Nalitabari, Sherpur District, Mymensingh Division, Bangladesh","শেরপুর জেলা, ময়মনসিংহ বিভাগ, বাংলাদেশ","LOKKIPUR JAME MOSQUE, ",,,Nalitabari,বাংলাদেশ,ময়মনসিংহ বিভাগ,local_admin,boundaries,['place_of_worship_muslim'],[],Bangladesh,Mymensingh,Mymensingh,Haluaghat,Bhubankura,4887f8f59c6bc50759f44693b39c0b78
4711,540157537,893ce28816bffff,25.16189439,90.26438636,JHOLJHOLIA JAME MOSQUE,"JHOLJHOLIA JAME MOSQUE, Nalitabari, Sherpur District, Mymensingh Division, Bangladesh","শেরপুর জেলা, ময়মনসিংহ বিভাগ, বাংলাদেশ","JHOLJHOLIA JAME MOSQUE, ",,,Nalitabari,বাংলাদেশ,ময়মনসিংহ বিভাগ,local_admin,boundaries,['place_of_worship_muslim'],[],Bangladesh,Mymensingh,Mymensingh,Haluaghat,Bhubankura,4887f8f59c6bc50759f44693b39c0b78
4714,540157684,893ce28817bffff,25.16520165,90.26167621,ST. ANDREW KIMS CHURCH,"ST. ANDREW KIMS CHURCH, Nalitabari, Sherpur District, Mymensingh Division, Bangladesh","শেরপুর জেলা, ময়মনসিংহ বিভাগ, বাংলাদেশ","ST. ANDREW KIMS CHURCH, ",,,Nalitabari,বাংলাদেশ,ময়মনসিংহ বিভাগ,local_admin,boundaries,['place_of_worship_christian'],[],Bangladesh,Mymensingh,Mymensingh,Haluaghat,Bhubankura,4887f8f59c6bc50759f44693b39c0b78
4721,540366720,893ce21a68bffff,24.95595308,90.26039435,বাশাটি বাজার,"Nakla Upazila, Sherpur District, Mymensingh Division, Bangladesh","বাশাটি বাজার, নকলা উপজেলা, শেরপুর জেলা, ময়মনসিংহ বিভাগ, বাংলাদেশ",,"বাশাটি বাজার, ",,নকলা উপজেলা,বাংলাদেশ,ময়মনসিংহ বিভাগ,local_admin,boundaries,['variety_store'],[],Bangladesh,Mymensingh,Mymensingh,Phulpur,Sandhara,d24ea4e332080c532bf0466afd59a2d7
4723,540368010,893ce21a633ffff,24.95511188,90.27230542,হোসেনপুর জামে মসজিদ,"Phulpur, Mymensingh District, Mymensingh Division, Bangladesh","হোসেনপুর জামে মসজিদ, ময়মনসিংহ জেলা, ময়মনসিংহ বিভাগ, বাংলাদেশ",,"হোসেনপুর জামে মসজিদ, ",,Phulpur,বাংলাদেশ,ময়মনসিংহ বিভাগ,local_admin,boundaries,['place_of_worship_muslim'],[],Bangladesh,Mymensingh,Mymensingh,Phulpur,Rambhadrapur,096fdcf8538bdf4435c0fb4ecbaf5cb9
4726,540368664,893ce21a297ffff,24.94640678,90.28055386,জনি বেকারী,"Phulpur, Mymensingh District, Mymensingh Division, Bangladesh","জনি বেকারী, ময়মনসিংহ জেলা, ময়মনসিংহ বিভাগ, বাংলাদেশ",,"জনি বেকারী, ",,Phulpur,বাংলাদেশ,ময়মনসিংহ বিভাগ,local_admin,boundaries,['restaurant'],[],Bangladesh,Mymensingh,Mymensingh,Phulpur,Rambhadrapur,096fdcf8538bdf4435c0fb4ecbaf5cb9
4727,540370949,893ce21a287ffff,24.94687348,90.28116424,DM Sayeed Store ডিএম সাঈদ স্টোর,"DM Sayeed Store, Phulpur, Mymensingh District, Mymensingh Division, Bangladesh","ডিএম সাঈদ স্টোর, ময়মনসিংহ জেলা, ময়মনসিংহ বিভাগ, বাংলাদেশ",,,,Phulpur,বাংলাদেশ,ময়মনসিংহ বিভাগ,local_admin,boundaries,['marketplace'],[],Bangladesh,Mymensingh,Mymensingh,Phulpur,Bhaitkandi,e1ee3a7e5fa3cf4db2177c83c54c7a77
4785,1472157684,893ce20f3afffff,24.8381087,90.5791296,শ্যামগঞ্জ জংশন,"Netrokona District, Mymensingh Division, Bangladesh","শ্যামগঞ্জ জংশন, নেত্রকোনা জেলা, ময়মনসিংহ বিভাগ, বাংলাদেশ",,"শ্যামগঞ্জ জংশন, ",['Shamgonj Junction'],,বাংলাদেশ,ময়মনসিংহ বিভাগ,admin2,boundaries,['railway_station'],[],Bangladesh,Mymensingh,Mymensingh,Gauripur,Mailakanda,079766ffc03637593123dd69d7d10bb9
4814,2332679001,893ce279acbffff,24.462716,90.5451623,Gafargaon Upazilla Health Complex,"Gafargaon Upazilla Health Complex, Gafargaon, Mymensingh District, Mymensingh Division, Bangladesh","ময়মনসিংহ জেলা, ময়মনসিংহ বিভাগ, বাংলাদেশ","Gafargaon Upazilla Health Complex, ",,,Gafargaon,বাংলাদেশ,ময়মনসিংহ বিভাগ,local_admin,boundaries,['hospital'],[],Bangladesh,Mymensingh,Mymensingh,Gaffargaon,GaffargaonPaurashava,2fbd2e55da15183cfc84d321d366f665
4824,2365360956,893ce279a5bffff,24.4583165,90.5459516,Rustam Ali Gulandasz High School,"Rustam Ali Gulandasz High School, Gafargaon, Mymensingh District, Mymensingh Division, Bangladesh","ময়মনসিংহ জেলা, ময়মনসিংহ বিভাগ, বাংলাদেশ","Rustam Ali Gulandasz High School, ",,,Gafargaon,বাংলাদেশ,ময়মনসিংহ বিভাগ,local_admin,boundaries,['school'],[],Bangladesh,Mymensingh,Mymensingh,Gaffargaon,GaffargaonPaurashava,2fbd2e55da15183cfc84d321d366f665
4828,2410010595,893ce272197ffff,24.7638087,90.5656449,গৌরীপুর জংশন,"Mymensingh District, Mymensingh Division, Bangladesh","গৌরীপুর জংশন, ময়মনসিংহ জেলা, ময়মনসিংহ বিভাগ, বাংলাদেশ",,"গৌরীপুর জংশন, ",['Gouripur Junction'],,বাংলাদেশ,ময়মনসিংহ বিভাগ,admin2,boundaries,['railway_station'],[],Bangladesh,Mymensingh,Mymensingh,Gauripur,GauripurPaurashava,d17a47d6bfd9a37b648d7bdd89a3f08d
4867,2815723701,893ce261137ffff,24.5462865,90.7006184,Achargaon,"Achargaon, Nandail, Mymensingh District, Mymensingh Division, Bangladesh","ময়মনসিংহ জেলা, ময়মনসিংহ বিভাগ, বাংলাদেশ","Achargaon, ",,,Nandail,বাংলাদেশ,ময়মনসিংহ বিভাগ,locality,,,,Bangladesh,Mymensingh,Mymensingh,Nandail,Achargaon,3f14222fe449d7864983cae67f9e073e
4877,5873025912,893ce2656d3ffff,24.5793389,90.7989818,Khala Para,"Khala Para, Netrokona District, Mymensingh Division, Bangladesh","নেত্রকোনা জেলা, ময়মনসিংহ বিভাগ, বাংলাদেশ","Khala Para, ",,,,বাংলাদেশ,ময়মনসিংহ বিভাগ,locality,,,,Bangladesh,Mymensingh,Mymensingh,Nandail,Rajgati,b4d1213a3e0bcf99eaa6595c2edd5daf
4908,3372060141,893ce260153ffff,24.5894794,90.7197448,Chandipasha,"Chandipasha, Nandail, Mymensingh District, Mymensingh Division, Bangladesh","ময়মনসিংহ জেলা, ময়মনসিংহ বিভাগ, বাংলাদেশ","Chandipasha, ",,,Nandail,বাংলাদেশ,ময়মনসিংহ বিভাগ,locality,,,,Bangladesh,Mymensingh,Mymensingh,Nandail,Chandipasha,7058fa8026ac9760c1d024737eb2212a
4959,4605161972,893cf1a5503ffff,24.2518654,90.5846947,,"Gafargaon, Mymensingh District, Mymensingh Division, Bangladesh","ময়মনসিংহ জেলা, ময়মনসিংহ বিভাগ, বাংলাদেশ",,,,Gafargaon,বাংলাদেশ,ময়মনসিংহ বিভাগ,local_admin,boundaries,['ferry_terminal'],[],Bangladesh,Mymensingh,Mymensingh,Gaffargaon,Nigair,95446721fd9c6a522b62a20da4b22c84
4970,4639507390,893cf1a7047ffff,24.2741614,90.5468364,,"Gafargaon, Mymensingh District, Mymensingh Division, Bangladesh","ময়মনসিংহ জেলা, ময়মনসিংহ বিভাগ, বাংলাদেশ",,,,Gafargaon,বাংলাদেশ,ময়মনসিংহ বিভাগ,local_admin,boundaries,['ferry_terminal'],[],Bangladesh,Mymensingh,Mymensingh,Gaffargaon,Nigair,95446721fd9c6a522b62a20da4b22c84
4971,4639507395,893cf1a7047ffff,24.2746784,90.5470058,,"Gafargaon, Mymensingh District, Mymensingh Division, Bangladesh","ময়মনসিংহ জেলা, ময়মনসিংহ বিভাগ, বাংলাদেশ",,,,Gafargaon,বাংলাদেশ,ময়মনসিংহ বিভাগ,local_admin,boundaries,['ferry_terminal'],[],Bangladesh,Mymensingh,Mymensingh,Gaffargaon,Nigair,95446721fd9c6a522b62a20da4b22c84
4976,4639507397,893cf1a707bffff,24.2738777,90.5474012,,"Gafargaon, Mymensingh District, Mymensingh Division, Bangladesh","ময়মনসিংহ জেলা, ময়মনসিংহ বিভাগ, বাংলাদেশ",,,,Gafargaon,বাংলাদেশ,ময়মনসিংহ বিভাগ,local_admin,boundaries,['ferry_terminal'],[],Bangladesh,Mymensingh,Mymensingh,Gaffargaon,Nigair,95446721fd9c6a522b62a20da4b22c84
4979,4639507398,893cf1a7073ffff,24.2748317,90.5480102,,"Gafargaon, Mymensingh District, Mymensingh Division, Bangladesh","ময়মনসিংহ জেলা, ময়মনসিংহ বিভাগ, বাংলাদেশ",,,,Gafargaon,বাংলাদেশ,ময়মনসিংহ বিভাগ,local_admin,boundaries,['ferry_terminal'],[],Bangladesh,Mymensingh,Mymensingh,Gaffargaon,Nigair,95446721fd9c6a522b62a20da4b22c84
4980,4643329616,893cf1a5503ffff,24.2509386,90.5857623,,"Kapasia, Gazipur District, Dhaka Division, Bangladesh","কাপাসিয়া উপজেলা, গাজীপুর জেলা, ঢাকা বিভাগ, বাংলাদেশ",,,,কাপাসিয়া উপজেলা,বাংলাদেশ,ঢাকা বিভাগ,local_admin,boundaries,['ferry_terminal'],[],Bangladesh,Mymensingh,Mymensingh,Gaffargaon,Nigair,95446721fd9c6a522b62a20da4b22c84
4985,4909166422,893cf1b69a3ffff,24.451271,90.5549923,,"Gafargaon, Mymensingh District, Mymensingh Division, Bangladesh","ময়মনসিংহ জেলা, ময়মনসিংহ বিভাগ, বাংলাদেশ",,,['Gofergaon Islamia Primary School'],Gafargaon,বাংলাদেশ,ময়মনসিংহ বিভাগ,local_admin,boundaries,['school'],[],Bangladesh,Mymensingh,Mymensingh,Gaffargaon,GaffargaonPaurashava,2fbd2e55da15183cfc84d321d366f665
4988,4909166423,893cf1b69b3ffff,24.453278,90.5522772,Khairullah Govt. Girls High School,"Khairullah Govt. Girls High School, Gafargaon, Mymensingh District, Mymensingh Division, Bangladesh","ময়মনসিংহ জেলা, ময়মনসিংহ বিভাগ, বাংলাদেশ","Khairullah Govt. Girls High School, ",,['Khairullah Govt. Girls High School'],Gafargaon,বাংলাদেশ,ময়মনসিংহ বিভাগ,local_admin,boundaries,['school'],[],Bangladesh,Mymensingh,Mymensingh,Gaffargaon,GaffargaonPaurashava,2fbd2e55da15183cfc84d321d366f665
4992,4909195021,893cf1b69afffff,24.4483819,90.5552547,,"Gafargaon, Mymensingh District, Mymensingh Division, Bangladesh","ময়মনসিংহ জেলা, ময়মনসিংহ বিভাগ, বাংলাদেশ",,,['Gofergaon Mohila College'],Gafargaon,বাংলাদেশ,ময়মনসিংহ বিভাগ,local_admin,boundaries,['college'],[],Bangladesh,Mymensingh,Mymensingh,Gaffargaon,GaffargaonPaurashava,2fbd2e55da15183cfc84d321d366f665
5002,5006337115,893cf1b6937ffff,24.4478895,90.5600424,Gafargaon UNO Office,"Gafargaon UNO Office, Gafargaon, Mymensingh District, Mymensingh Division, Bangladesh","ময়মনসিংহ জেলা, ময়মনসিংহ বিভাগ, বাংলাদেশ","Gafargaon UNO Office, ",,,Gafargaon,বাংলাদেশ,ময়মনসিংহ বিভাগ,local_admin,boundaries,['town_hall'],[],Bangladesh,Mymensingh,Mymensingh,Gaffargaon,GaffargaonPaurashava,2fbd2e55da15183cfc84d321d366f665
5005,5088699421,893cf1a60a3ffff,24.340277,90.5890165,,"Gafargaon, Mymensingh District, Mymensingh Division, Bangladesh","ময়মনসিংহ জেলা, ময়মনসিংহ বিভাগ, বাংলাদেশ",,,['দুলাল সরকারের বাড়ি'],Gafargaon,বাংলাদেশ,ময়মনসিংহ বিভাগ,local_admin,boundaries,['bookmaker'],[],Bangladesh,Mymensingh,Mymensingh,Gaffargaon,DatterBazar,fcfc249b938ab5208d01e309ac20f1c2
31,5627089256,893ce261e73ffff,24.5213612,90.7091626,Shiyaldhora,"Shiyaldhora, Nandail, Mymensingh District, Mymensingh Division, Bangladesh","ময়মনসিংহ জেলা, ময়মনসিংহ বিভাগ, বাংলাদেশ","Shiyaldhora, ",,,Nandail,বাংলাদেশ,ময়মনসিংহ বিভাগ,locality,,,,Bangladesh,Mymensingh,Mymensingh,Nandail,Singrail,915d7fdfd956c432ebbdd04359ef3a2b
68,5627089639,893ce261a8bffff,24.5171346,90.7217288,Mohaboi,"Mohaboi, Nandail, Mymensingh District, Mymensingh Division, Bangladesh","ময়মনসিংহ জেলা, ময়মনসিংহ বিভাগ, বাংলাদেশ","Mohaboi, ",,,Nandail,বাংলাদেশ,ময়মনসিংহ বিভাগ,locality,,,,Bangladesh,Mymensingh,Mymensingh,Nandail,Singrail,915d7fdfd956c432ebbdd04359ef3a2b
96,2815723749,893ce260893ffff,24.5956006,90.7624996,Gangail,"Gangail, Nandail, Mymensingh District, Mymensingh Division, Bangladesh","ময়মনসিংহ জেলা, ময়মনসিংহ বিভাগ, বাংলাদেশ","Gangail, ",,,Nandail,বাংলাদেশ,ময়মনসিংহ বিভাগ,locality,,,,Bangladesh,Mymensingh,Mymensingh,Nandail,Gangail,b6009ca5ded5369f40f886705b6df950
132,5873025911,893ce260bafffff,24.5751136,90.7944891,Shimul Tola Bazar,"Shimul Tola Bazar, Nandail, Mymensingh District, Mymensingh Division, Bangladesh","ময়মনসিংহ জেলা, ময়মনসিংহ বিভাগ, বাংলাদেশ","Shimul Tola Bazar, ",,,Nandail,বাংলাদেশ,ময়মনসিংহ বিভাগ,locality,,,,Bangladesh,Mymensingh,Mymensingh,Nandail,Rajgati,b4d1213a3e0bcf99eaa6595c2edd5daf
167,2815723784,893ce26e6c3ffff,24.5262831,90.7667933,Musuli,"Musuli, Nandail, Mymensingh District, Mymensingh Division, Bangladesh","ময়মনসিংহ জেলা, ময়মনসিংহ বিভাগ, বাংলাদেশ","Musuli, ",,,Nandail,বাংলাদেশ,ময়মনসিংহ বিভাগ,locality,,,,Bangladesh,Mymensingh,Mymensingh,Nandail,Musuli,f6b547ec7e7549b6d6042b93e15897d7
169,2815724312,893ce261a1bffff,24.5126103,90.7230512,Singrail,"Singrail, Nandail, Mymensingh District, Mymensingh Division, Bangladesh","ময়মনসিংহ জেলা, ময়মনসিংহ বিভাগ, বাংলাদেশ","Singrail, ",,,Nandail,বাংলাদেশ,ময়মনসিংহ বিভাগ,locality,,,,Bangladesh,Mymensingh,Mymensingh,Nandail,Singrail,915d7fdfd956c432ebbdd04359ef3a2b
180,3372060156,893ce26e4b7ffff,24.5586703,90.7876369,Rajgati,"Rajgati, Nandail, Mymensingh District, Mymensingh Division, Bangladesh","ময়মনসিংহ জেলা, ময়মনসিংহ বিভাগ, বাংলাদেশ","Rajgati, ",,,Nandail,বাংলাদেশ,ময়মনসিংহ বিভাগ,locality,,,,Bangladesh,Mymensingh,Mymensingh,Nandail,Rajgati,b4d1213a3e0bcf99eaa6595c2edd5daf
245,2332679006,893ce2602c7ffff,24.5661403,90.6902107,Nandail Upazilla Health Complex,"Nandail Upazilla Health Complex, Nandail, Mymensingh District, Mymensingh Division, Bangladesh","ময়মনসিংহ জেলা, ময়মনসিংহ বিভাগ, বাংলাদেশ","Nandail Upazilla Health Complex, ",,,Nandail,বাংলাদেশ,ময়মনসিংহ বিভাগ,local_admin,boundaries,['hospital'],[],Bangladesh,Mymensingh,Mymensingh,Nandail,Achargaon,3f14222fe449d7864983cae67f9e073e
270,2408445920,893ce270163ffff,24.6917638,90.6035313,ঈশ্বরগঞ্জ,"Mymensingh District, Mymensingh Division, Bangladesh","ঈশ্বরগঞ্জ, ময়মনসিংহ জেলা, ময়মনসিংহ বিভাগ, বাংলাদেশ",,"ঈশ্বরগঞ্জ, ","['ঈশ্বরগঞ্জ রেলওয়ে স্টেশন', 'Ishwarganj Railway Station']",,বাংলাদেশ,ময়মনসিংহ বিভাগ,admin2,boundaries,['railway_station'],[],Bangladesh,Mymensingh,Mymensingh,Ishwarganj,IshwarganjPaurashava,236a5edfec4a7f69894f071f52a25bd9
297,2452924627,893ce260283ffff,24.5712853,90.6923006,,"Nandail, Mymensingh District, Mymensingh Division, Bangladesh","ময়মনসিংহ জেলা, ময়মনসিংহ বিভাগ, বাংলাদেশ",,,,Nandail,বাংলাদেশ,ময়মনসিংহ বিভাগ,local_admin,boundaries,['school'],[],Bangladesh,Mymensingh,Mymensingh,Nandail,Nandail,645d77018ea5f35e7413d05df58bdd4c
354,585323705,893ce255c2bffff,24.7127964,90.2978241,Madrasha,"Madrasha, Phulbari Mymensingh, Mymensingh District, Mymensingh Division, Bangladesh","ময়মনসিংহ জেলা, ময়মনসিংহ বিভাগ, বাংলাদেশ","Madrasha, ",,,Phulbari (Mymensingh),বাংলাদেশ,ময়মনসিংহ বিভাগ,local_admin,boundaries,['school'],[],Bangladesh,Mymensingh,Mymensingh,Fulbaria,Balian,e72885f555e25c18fbc861a9837f0438
358,585323706,893ce255c2bffff,24.7126327,90.2980676,Bashna Government Primary School,"Bashna Government Primary School, Phulbari Mymensingh, Mymensingh District, Mymensingh Division, Bangladesh","ময়মনসিংহ জেলা, ময়মনসিংহ বিভাগ, বাংলাদেশ","Bashna Government Primary School, ",,,Phulbari (Mymensingh),বাংলাদেশ,ময়মনসিংহ বিভাগ,local_admin,boundaries,['school'],[],Bangladesh,Mymensingh,Mymensingh,Fulbaria,Balian,e72885f555e25c18fbc861a9837f0438
363,585323707,893ce255c2bffff,24.7123298,90.2978772,Bashna Bazar Jame Mosque,"Bashna Bazar Jame Mosque, Phulbari Mymensingh, Mymensingh District, Mymensingh Division, Bangladesh","ময়মনসিংহ জেলা, ময়মনসিংহ বিভাগ, বাংলাদেশ","Bashna Bazar Jame Mosque, ",,,Phulbari (Mymensingh),বাংলাদেশ,ময়মনসিংহ বিভাগ,local_admin,boundaries,['place_of_worship_muslim'],[],Bangladesh,Mymensingh,Mymensingh,Fulbaria,Balian,e72885f555e25c18fbc861a9837f0438
745,5222759152,893ce208883ffff,24.8064648,90.5091466,কাশিগঞ্জ বাজার,"Phulpur, Mymensingh District, Mymensingh Division, Bangladesh","কাশিগঞ্জ বাজার, ময়মনসিংহ জেলা, ময়মনসিংহ বিভাগ, বাংলাদেশ",,"কাশিগঞ্জ বাজার, ",,Phulpur,বাংলাদেশ,ময়মনসিংহ বিভাগ,local_admin,boundaries,['variety_store'],[],Bangladesh,Mymensingh,Mymensingh,Phulpur,Kamaria,b66e38178ff4a0f1df299928bbd900e2
748,5222815940,893ce208d77ffff,24.8165495,90.524312,Kicha Bazar খিচা বাজার,"Kicha Bazar, Phulpur, Mymensingh District, Mymensingh Division, Bangladesh","খিচা বাজার, ময়মনসিংহ জেলা, ময়মনসিংহ বিভাগ, বাংলাদেশ",,,,Phulpur,বাংলাদেশ,ময়মনসিংহ বিভাগ,local_admin,boundaries,['marketplace'],[],Bangladesh,Mymensingh,Mymensingh,Phulpur,Bishka,e4d789caaa2ec0adbe751f0940b6160c
757,5224107490,893ce20f3a7ffff,24.8434387,90.5776116,Chan Market চাঁন মার্কেট,"Chan Market, Netrokona District, Mymensingh Division, Bangladesh","চাঁন মার্কেট, নেত্রকোনা জেলা, ময়মনসিংহ বিভাগ, বাংলাদেশ",,,,,বাংলাদেশ,ময়মনসিংহ বিভাগ,admin2,boundaries,['marketplace'],[],Bangladesh,Mymensingh,Mymensingh,Gauripur,Mailakanda,079766ffc03637593123dd69d7d10bb9
760,5226058106,893ce21429bffff,25.0902054,90.5218543,Anis Printing,"Anis Printing, Dhubarua, Mymensingh District, Mymensingh Division, Bangladesh","ময়মনসিংহ জেলা, ময়মনসিংহ বিভাগ, বাংলাদেশ","Anis Printing, ",,,Dhubarua,বাংলাদেশ,ময়মনসিংহ বিভাগ,local_admin,boundaries,['mall'],[],Bangladesh,Mymensingh,Mymensingh,Dhobaura,Dobaura,432b21435d38ea11c3cf71b0f254a796
763,5226075330,893ce21428bffff,25.0899094,90.5234479,Alal Tea Stall আলাল টি স্টল,"Alal Tea Stall, Dhubarua, Mymensingh District, Mymensingh Division, Bangladesh","আলাল টি স্টল, ময়মনসিংহ জেলা, ময়মনসিংহ বিভাগ, বাংলাদেশ",,,,Dhubarua,বাংলাদেশ,ময়মনসিংহ বিভাগ,local_admin,boundaries,['tea'],[],Bangladesh,Mymensingh,Mymensingh,Dhobaura,Dobaura,432b21435d38ea11c3cf71b0f254a796
764,5226089375,893ce2142d7ffff,25.0889049,90.5206302,Hazi Hakim Ali market হাজী হাকিম আলী বাজার,"Hazi Hakim Ali market, Dhubarua, Mymensingh District, Mymensingh Division, Bangladesh","হাজী হাকিম আলী বাজার, ময়মনসিংহ জেলা, ময়মনসিংহ বিভাগ, বাংলাদেশ",,,,Dhubarua,বাংলাদেশ,ময়মনসিংহ বিভাগ,local_admin,boundaries,['mall'],[],Bangladesh,Mymensingh,Mymensingh,Dhobaura,Dobaura,432b21435d38ea11c3cf71b0f254a796
767,5226113836,893ce2142dbffff,25.0832011,90.5151095,Dhobaura Bus Station ধোবাউড়া বাস ষ্টেশন,"Dhobaura Bus Station, Dhubarua, Mymensingh District, Mymensingh Division, Bangladesh","ধোবাউড়া বাস ষ্টেশন, ময়মনসিংহ জেলা, ময়মনসিংহ বিভাগ, বাংলাদেশ",,,,Dhubarua,বাংলাদেশ,ময়মনসিংহ বিভাগ,street,boundaries,['bus_stop'],[],Bangladesh,Mymensingh,Mymensingh,Dhobaura,Dobaura,432b21435d38ea11c3cf71b0f254a796
805,5232288904,893cf1b6cc7ffff,24.4525997,90.5009311,পাঁচুয়া বাজার,"Gafargaon, Mymensingh District, Mymensingh Division, Bangladesh","পাঁচুয়া বাজার, ময়মনসিংহ জেলা, ময়মনসিংহ বিভাগ, বাংলাদেশ",,"পাঁচুয়া বাজার, ",,Gafargaon,বাংলাদেশ,ময়মনসিংহ বিভাগ,local_admin,boundaries,['marketplace'],[],Bangladesh,Mymensingh,Mymensingh,Gaffargaon,Raona,2c5267d16c9eddfe416a4ec892444d61
810,5232313279,893cf1b6c27ffff,24.4529404,90.5177711,সুমন মার্কেট,"Gafargaon, Mymensingh District, Mymensingh Division, Bangladesh","সুমন মার্কেট, ময়মনসিংহ জেলা, ময়মনসিংহ বিভাগ, বাংলাদেশ",,"সুমন মার্কেট, ",,Gafargaon,বাংলাদেশ,ময়মনসিংহ বিভাগ,local_admin,boundaries,['mall'],[],Bangladesh,Mymensingh,Mymensingh,Gaffargaon,Jessora,db4133ae73ba29328c871934e1e53282
812,5232335092,893cf1b6d2fffff,24.4564239,90.5424248,Gafargaon Bus Stand,"Gafargaon Bus Stand, Gafargaon, Mymensingh District, Mymensingh Division, Bangladesh","ময়মনসিংহ জেলা, ময়মনসিংহ বিভাগ, বাংলাদেশ",Gafargaon Bus Stand,,,Gafargaon,বাংলাদেশ,ময়মনসিংহ বিভাগ,street,boundaries,['bus_stop'],[],Bangladesh,Mymensingh,Mymensingh,Gaffargaon,GaffargaonPaurashava,2fbd2e55da15183cfc84d321d366f665
815,5232345430,893ce279a4bffff,24.4565603,90.5475008,Anisha appyan Hotel & Resturent,"Anisha appyan Hotel & Resturent, Gafargaon, Mymensingh District, Mymensingh Division, Bangladesh","ময়মনসিংহ জেলা, ময়মনসিংহ বিভাগ, বাংলাদেশ","Anisha appyan Hotel & Resturent, ",,,Gafargaon,বাংলাদেশ,ময়মনসিংহ বিভাগ,local_admin,boundaries,['restaurant'],[],Bangladesh,Mymensingh,Mymensingh,Gaffargaon,GaffargaonPaurashava,2fbd2e55da15183cfc84d321d366f665
818,5237375454,893ce279a4bffff,24.4550825,90.5504676,Safir Medical Hall,"Safir Medical Hall, Gafargaon, Mymensingh District, Mymensingh Division, Bangladesh","ময়মনসিংহ জেলা, ময়মনসিংহ বিভাগ, বাংলাদেশ","Safir Medical Hall, ",,,Gafargaon,বাংলাদেশ,ময়মনসিংহ বিভাগ,local_admin,boundaries,['pharmacy'],[],Bangladesh,Mymensingh,Mymensingh,Gaffargaon,GaffargaonPaurashava,2fbd2e55da15183cfc84d321d366f665
820,5237376337,893cf1b69b3ffff,24.4543658,90.550759,Radin Muslimes Hotel,"Radin Muslimes Hotel, Gafargaon, Mymensingh District, Mymensingh Division, Bangladesh","ময়মনসিংহ জেলা, ময়মনসিংহ বিভাগ, বাংলাদেশ","Radin Muslimes Hotel, ",,,Gafargaon,বাংলাদেশ,ময়মনসিংহ বিভাগ,local_admin,boundaries,['restaurant'],[],Bangladesh,Mymensingh,Mymensingh,Gaffargaon,GaffargaonPaurashava,2fbd2e55da15183cfc84d321d366f665
823,5237391495,893ce26b4dbffff,24.4486905,90.5590201,Upzilla Porishad Bidya Nikaton,"Upzilla Porishad Bidya Nikaton, Gafargaon, Mymensingh District, Mymensingh Division, Bangladesh","ময়মনসিংহ জেলা, ময়মনসিংহ বিভাগ, বাংলাদেশ","Upzilla Porishad Bidya Nikaton, ",,,Gafargaon,বাংলাদেশ,ময়মনসিংহ বিভাগ,local_admin,boundaries,['school'],[],Bangladesh,Mymensingh,Mymensingh,Gaffargaon,GaffargaonPaurashava,2fbd2e55da15183cfc84d321d366f665
843,5515619334,893ce2799cfffff,24.4940087,90.5786169,dewanganj high school,"dewanganj high school, Nandail, Mymensingh District, Mymensingh Division, Bangladesh","ময়মনসিংহ জেলা, ময়মনসিংহ বিভাগ, বাংলাদেশ","dewanganj high school, ",,,Nandail,বাংলাদেশ,ময়মনসিংহ বিভাগ,local_admin,boundaries,['school'],[],Bangladesh,Mymensingh,Mymensingh,Nandail,Kharua,2d22308b6264a22af22939573113e38e
845,5515832995,893ce27aa73ffff,24.5637041,90.562647,modhuour high school,"modhuour high school, Iswarganj, Mymensingh District, Mymensingh Division, Bangladesh","ময়মনসিংহ জেলা, ময়মনসিংহ বিভাগ, বাংলাদেশ","modhuour high school, ",,,Iswarganj,বাংলাদেশ,ময়মনসিংহ বিভাগ,local_admin,boundaries,['school'],[],Bangladesh,Mymensingh,Mymensingh,Ishwarganj,Magtala,0fd264ba1b8a4e05db2a97597e5fbdde
848,5532587492,893ce27aa47ffff,24.5637505,90.5609384,modhupur bazar,"modhupur bazar, Iswarganj, Mymensingh District, Mymensingh Division, Bangladesh","ময়মনসিংহ জেলা, ময়মনসিংহ বিভাগ, বাংলাদেশ","modhupur bazar, ",,,Iswarganj,বাংলাদেশ,ময়মনসিংহ বিভাগ,local_admin,boundaries,['marketplace'],[],Bangladesh,Mymensingh,Mymensingh,Ishwarganj,Magtala,0fd264ba1b8a4e05db2a97597e5fbdde
872,645606370,893ce256e23ffff,24.79762385,90.29849955,,"Muktagacha, Mymensingh District, Mymensingh Division, Bangladesh","ময়মনসিংহ জেলা, ময়মনসিংহ বিভাগ, বাংলাদেশ",,,,Muktagacha,বাংলাদেশ,ময়মনসিংহ বিভাগ,local_admin,boundaries,['bridge'],[],Bangladesh,Mymensingh,Mymensingh,Muktagachha,Kumarghata,73a921b1aa3b755fec6dbefc5316109d
881,5611157584,893ce27014bffff,24.689755,90.5948684,Ishwarganj upazila parishad,"Ishwarganj upazila parishad, Mymensingh District, Mymensingh Division, Bangladesh","ময়মনসিংহ জেলা, ময়মনসিংহ বিভাগ, বাংলাদেশ","Ishwarganj upazila parishad, ",,,,বাংলাদেশ,ময়মনসিংহ বিভাগ,admin2,boundaries,['government'],[],Bangladesh,Mymensingh,Mymensingh,Ishwarganj,IshwarganjPaurashava,236a5edfec4a7f69894f071f52a25bd9
884,743830566,893ce21320fffff,25.03813515,90.2917401,,"Haluaghat, Mymensingh District, Mymensingh Division, Bangladesh","ময়মনসিংহ জেলা, ময়মনসিংহ বিভাগ, বাংলাদেশ",,,,Haluaghat,বাংলাদেশ,ময়মনসিংহ বিভাগ,local_admin,boundaries,['slipway'],[],Bangladesh,Mymensingh,Mymensingh,Haluaghat,Dhara,555d4d3742bf9bd48fa3151a27e2b9d4
909,5742032489,893cf1b69afffff,24.4502225,90.5568246,Goforgoan Government College,"Goforgoan Government College, Gafargaon, Mymensingh District, Mymensingh Division, Bangladesh","ময়মনসিংহ জেলা, ময়মনসিংহ বিভাগ, বাংলাদেশ","Goforgoan Government College, ",,,Gafargaon,বাংলাদেশ,ময়মনসিংহ বিভাগ,local_admin,boundaries,['college'],[],Bangladesh,Mymensingh,Mymensingh,Gaffargaon,GaffargaonPaurashava,2fbd2e55da15183cfc84d321d366f665
910,5742032730,893cf1b69a3ffff,24.4519652,90.5541893,Goforgoan Police Station,"Goforgoan Police Station, Gafargaon, Mymensingh District, Mymensingh Division, Bangladesh","ময়মনসিংহ জেলা, ময়মনসিংহ বিভাগ, বাংলাদেশ","Goforgoan Police Station, ",,,Gafargaon,বাংলাদেশ,ময়মনসিংহ বিভাগ,local_admin,boundaries,['police'],[],Bangladesh,Mymensingh,Mymensingh,Gaffargaon,GaffargaonPaurashava,2fbd2e55da15183cfc84d321d366f665
914,5920414074,893ce20d257ffff,24.7711854,90.5693994,Gouripur Upazila Health Complex,"Gouripur Upazila Health Complex, Mymensingh District, Mymensingh Division, Bangladesh","ময়মনসিংহ জেলা, ময়মনসিংহ বিভাগ, বাংলাদেশ","Gouripur Upazila Health Complex, ",,,,বাংলাদেশ,ময়মনসিংহ বিভাগ,admin2,boundaries,['hospital'],[],Bangladesh,Mymensingh,Mymensingh,Gauripur,GauripurPaurashava,d17a47d6bfd9a37b648d7bdd89a3f08d
917,5920928383,893ce272107ffff,24.7551496,90.5727281,Gouripur Police Station,"Gouripur Police Station, Mymensingh District, Mymensingh Division, Bangladesh","ময়মনসিংহ জেলা, ময়মনসিংহ বিভাগ, বাংলাদেশ","Gouripur Police Station, ",,,,বাংলাদেশ,ময়মনসিংহ বিভাগ,admin2,boundaries,['prison'],[],Bangladesh,Mymensingh,Mymensingh,Gauripur,GauripurPaurashava,d17a47d6bfd9a37b648d7bdd89a3f08d
918,5920928748,893ce2721bbffff,24.7577266,90.5700284,Gouripur Press Club,"Gouripur Press Club, Mymensingh District, Mymensingh Division, Bangladesh","ময়মনসিংহ জেলা, ময়মনসিংহ বিভাগ, বাংলাদেশ","Gouripur Press Club, ",,,,বাংলাদেশ,ময়মনসিংহ বিভাগ,admin2,boundaries,['newspaper'],[],Bangladesh,Mymensingh,Mymensingh,Gauripur,GauripurPaurashava,d17a47d6bfd9a37b648d7bdd89a3f08d
920,789674057,893ce21b037ffff,24.9104022,90.2620467,চরনিয়ামত বড় মসজিদ,"Phulpur, Mymensingh District, Mymensingh Division, Bangladesh","চরনিয়ামত বড় মসজিদ, ময়মনসিংহ জেলা, ময়মনসিংহ বিভাগ, বাংলাদেশ",,"চরনিয়ামত বড় মসজিদ, ",,Phulpur,বাংলাদেশ,ময়মনসিংহ বিভাগ,local_admin,boundaries,['place_of_worship_muslim'],[],Bangladesh,Mymensingh,Mymensingh,Phulpur,Rambhadrapur,096fdcf8538bdf4435c0fb4ecbaf5cb9
921,5920928755,893ce2721bbffff,24.7579604,90.5695175,Gouripur Mohila Degree College Hostel,"Gouripur Mohila Degree College Hostel, Mymensingh District, Mymensingh Division, Bangladesh","ময়মনসিংহ জেলা, ময়মনসিংহ বিভাগ, বাংলাদেশ","Gouripur Mohila Degree College Hostel, ",,,,বাংলাদেশ,ময়মনসিংহ বিভাগ,admin2,boundaries,['hostel'],[],Bangladesh,Mymensingh,Mymensingh,Gauripur,GauripurPaurashava,d17a47d6bfd9a37b648d7bdd89a3f08d
922,5920928760,893ce2721bbffff,24.7586083,90.5693471,Gouripur Mohila Degree College,"Gouripur Mohila Degree College, Mymensingh District, Mymensingh Division, Bangladesh","ময়মনসিংহ জেলা, ময়মনসিংহ বিভাগ, বাংলাদেশ","Gouripur Mohila Degree College, ",,,,বাংলাদেশ,ময়মনসিংহ বিভাগ,admin2,boundaries,['college'],[],Bangladesh,Mymensingh,Mymensingh,Gauripur,GauripurPaurashava,d17a47d6bfd9a37b648d7bdd89a3f08d
925,5920928777,893ce2721bbffff,24.7586996,90.5712408,Gouripur Boro Masjid,"Gouripur Boro Masjid, Mymensingh District, Mymensingh Division, Bangladesh","ময়মনসিংহ জেলা, ময়মনসিংহ বিভাগ, বাংলাদেশ","Gouripur Boro Masjid, ",,,,বাংলাদেশ,ময়মনসিংহ বিভাগ,admin2,boundaries,['place_of_worship_muslim'],[],Bangladesh,Mymensingh,Mymensingh,Gauripur,GauripurPaurashava,d17a47d6bfd9a37b648d7bdd89a3f08d
926,5921030456,893ce272103ffff,24.7522791,90.5673395,Pouro Eid Gah Math,"Pouro Eid Gah Math, Mymensingh District, Mymensingh Division, Bangladesh","ময়মনসিংহ জেলা, ময়মনসিংহ বিভাগ, বাংলাদেশ","Pouro Eid Gah Math, ",,,,বাংলাদেশ,ময়মনসিংহ বিভাগ,admin2,boundaries,['place_of_worship_muslim'],[],Bangladesh,Mymensingh,Mymensingh,Gauripur,GauripurPaurashava,d17a47d6bfd9a37b648d7bdd89a3f08d
928,5953899093,893ce26b6afffff,24.4349138,90.5758118,Pashpai Bazzar(পাঁচপাই বাজার),"Pashpai Bazzar, Gafargaon, Mymensingh District, Mymensingh Division, Bangladesh","পাঁচপাই বাজার, ময়মনসিংহ জেলা, ময়মনসিংহ বিভাগ, বাংলাদেশ",,,,Gafargaon,বাংলাদেশ,ময়মনসিংহ বিভাগ,local_admin,boundaries,['supermarket'],[],Bangladesh,Mymensingh,Mymensingh,Gaffargaon,Gaffargaon,5c59446b8ca4292eb6a0192cdf1e81cf
931,5953945765,893ce26b627ffff,24.4289818,90.5818731,Super market of গড়াবেড়,"Super market of, Gafargaon, Mymensingh District, Mymensingh Division, Bangladesh","গড়াবেড়, ময়মনসিংহ জেলা, ময়মনসিংহ বিভাগ, বাংলাদেশ",,,,Gafargaon,বাংলাদেশ,ময়মনসিংহ বিভাগ,local_admin,boundaries,['supermarket'],[],Bangladesh,Mymensingh,Mymensingh,Gaffargaon,Gaffargaon,5c59446b8ca4292eb6a0192cdf1e81cf
937,6009115751,893cf1b69a7ffff,24.4508976,90.5560166,,"Gafargaon, Mymensingh District, Mymensingh Division, Bangladesh","ময়মনসিংহ জেলা, ময়মনসিংহ বিভাগ, বাংলাদেশ",,,['Gafargaon Islamia Govt. High School'],Gafargaon,বাংলাদেশ,ময়মনসিংহ বিভাগ,local_admin,boundaries,['school'],[],Bangladesh,Mymensingh,Mymensingh,Gaffargaon,GaffargaonPaurashava,2fbd2e55da15183cfc84d321d366f665
940,6033575329,893ce26944bffff,24.3866632,90.5976999,Hadi Anterprize(হৃদি এন্টারপ্রইজ),"Hadi Anterprize, Gafargaon, Mymensingh District, Mymensingh Division, Bangladesh","হৃদি এন্টারপ্রইজ, ময়মনসিংহ জেলা, ময়মনসিংহ বিভাগ, বাংলাদেশ",,,,Gafargaon,বাংলাদেশ,ময়মনসিংহ বিভাগ,local_admin,boundaries,['department_store'],[],Bangladesh,Mymensingh,Mymensingh,Gaffargaon,Usthi,dbdf95084465e403962a1e495812a27f
941,6033575330,893ce26944bffff,24.3878085,90.5977557,Kateyapara Jami Mosque(কাতিয়াপাড়া জামে মসজিদ),"Kateyapara Jami Mosque, Gafargaon, Mymensingh District, Mymensingh Division, Bangladesh","কাতিয়াপাড়া জামে মসজিদ, ময়মনসিংহ জেলা, ময়মনসিংহ বিভাগ, বাংলাদেশ",,,,Gafargaon,বাংলাদেশ,ময়মনসিংহ বিভাগ,local_admin,boundaries,['place_of_worship_muslim'],[],Bangladesh,Mymensingh,Mymensingh,Gaffargaon,Usthi,dbdf95084465e403962a1e495812a27f
943,6033600462,893ce269443ffff,24.3917065,90.5976895,Mahlul Jami Mosque(মহলুল জামে মসজিদ),"Mahlul Jami Mosque, Gafargaon, Mymensingh District, Mymensingh Division, Bangladesh","মহলুল জামে মসজিদ, ময়মনসিংহ জেলা, ময়মনসিংহ বিভাগ, বাংলাদেশ",,,,Gafargaon,বাংলাদেশ,ময়মনসিংহ বিভাগ,local_admin,boundaries,['place_of_worship_muslim'],[],Bangladesh,Mymensingh,Mymensingh,Gaffargaon,Usthi,dbdf95084465e403962a1e495812a27f
970,852681277,893ce25440bffff,24.76417265,90.25705026,Muktagacha Police Station,"Muktagacha Police Station, Muktagacha, Mymensingh District, Mymensingh Division, Bangladesh","ময়মনসিংহ জেলা, ময়মনসিংহ বিভাগ, বাংলাদেশ","Muktagacha Police Station, ",,,Muktagacha,বাংলাদেশ,ময়মনসিংহ বিভাগ,local_admin,boundaries,['police'],[],Bangladesh,Mymensingh,Mymensingh,Muktagachha,MuktagachhaPaurashava,b06375631343e06576f6338f6a00976c
984,6068326584,893ce209927ffff,24.7566031,90.5155028,Bishka Bazar,"Bishka Bazar, Phulpur, Mymensingh District, Mymensingh Division, Bangladesh","ময়মনসিংহ জেলা, ময়মনসিংহ বিভাগ, বাংলাদেশ","Bishka Bazar, ",,,Phulpur,বাংলাদেশ,ময়মনসিংহ বিভাগ,local_admin,boundaries,['marketplace'],[],Bangladesh,Mymensingh,Mymensingh,Phulpur,Bishka,e4d789caaa2ec0adbe751f0940b6160c
985,5237396107,893ce26b14bffff,24.4329606,90.6099825,Golakata Bazar,"Golakata Bazar, Gafargaon, Mymensingh District, Mymensingh Division, Bangladesh","ময়মনসিংহ জেলা, ময়মনসিংহ বিভাগ, বাংলাদেশ","Golakata Bazar, ",,,Gafargaon,বাংলাদেশ,ময়মনসিংহ বিভাগ,local_admin,boundaries,['variety_store'],[],Bangladesh,Mymensingh,Mymensingh,Gaffargaon,Panchbhag,7aa41daed16853febe609bdb12bfe11d
1006,5413565372,893ce2703b7ffff,24.6893671,90.6004376,Bisweswari Pilot High School,"Bisweswari Pilot High School, Mymensingh District, Mymensingh Division, Bangladesh","ময়মনসিংহ জেলা, ময়মনসিংহ বিভাগ, বাংলাদেশ","Bisweswari Pilot High School, ",,,,বাংলাদেশ,ময়মনসিংহ বিভাগ,admin2,boundaries,['school'],[],Bangladesh,Mymensingh,Mymensingh,Ishwarganj,IshwarganjPaurashava,236a5edfec4a7f69894f071f52a25bd9
1008,5413567603,893ce2703a7ffff,24.6861452,90.6001941,Ishwarganj University College,"Ishwarganj University College, Iswarganj, Mymensingh District, Mymensingh Division, Bangladesh","ময়মনসিংহ জেলা, ময়মনসিংহ বিভাগ, বাংলাদেশ","Ishwarganj University College, ",,,Iswarganj,বাংলাদেশ,ময়মনসিংহ বিভাগ,local_admin,boundaries,['college'],[],Bangladesh,Mymensingh,Mymensingh,Ishwarganj,IshwarganjPaurashava,236a5edfec4a7f69894f071f52a25bd9
1015,5414821934,893ce271863ffff,24.633665,90.6095575,মল্লিকপুর লক্ষীগঞ্জ উচ্চ বিদ্যালয়,"Iswarganj, Mymensingh District, Mymensingh Division, Bangladesh","মল্লিকপুর লক্ষীগঞ্জ উচ্চ বিদ্যালয়, ময়মনসিংহ জেলা, ময়মনসিংহ বিভাগ, বাংলাদেশ",,"মল্লিকপুর লক্ষীগঞ্জ উচ্চ বিদ্যালয়, ",,Iswarganj,বাংলাদেশ,ময়মনসিংহ বিভাগ,local_admin,boundaries,['school'],[],Bangladesh,Mymensingh,Mymensingh,Ishwarganj,Maijbagh,6ea5189b9b3c74e5922a3c2570a4b8c3
1018,5416063565,893ce271bd3ffff,24.6301422,90.61058009999999,Mymensingh Bus stop,"Mymensingh Bus stop, Iswarganj, Mymensingh District, Mymensingh Division, Bangladesh","ময়মনসিংহ জেলা, ময়মনসিংহ বিভাগ, বাংলাদেশ",Mymensingh Bus stop,,,Iswarganj,বাংলাদেশ,ময়মনসিংহ বিভাগ,street,boundaries,['bus_stop'],[],Bangladesh,Mymensingh,Mymensingh,Ishwarganj,Maijbagh,6ea5189b9b3c74e5922a3c2570a4b8c3
1053,5516732070,893ce26066fffff,24.5708564,90.6863384,Nandail Bus Stop,"Nandail Bus Stop, Nandail, Mymensingh District, Mymensingh Division, Bangladesh","ময়মনসিংহ জেলা, ময়মনসিংহ বিভাগ, বাংলাদেশ",Nandail Bus Stop,,,Nandail,বাংলাদেশ,ময়মনসিংহ বিভাগ,street,boundaries,['bus_stop'],[],Bangladesh,Mymensingh,Mymensingh,Nandail,Nandail,645d77018ea5f35e7413d05df58bdd4c
1060,5548734640,893ce263447ffff,24.5989544,90.6143774,Maizbagh Bazar,"Maizbagh Bazar, Iswarganj, Mymensingh District, Mymensingh Division, Bangladesh","ময়মনসিংহ জেলা, ময়মনসিংহ বিভাগ, বাংলাদেশ","Maizbagh Bazar, ",,,Iswarganj,বাংলাদেশ,ময়মনসিংহ বিভাগ,local_admin,boundaries,['marketplace'],[],Bangladesh,Mymensingh,Mymensingh,Ishwarganj,Maijbagh,6ea5189b9b3c74e5922a3c2570a4b8c3
1063,5548770201,893ce271bbbffff,24.6317297,90.6252511,পিতাম্বরপাড়া হোসাইনিয়া বহুমুখি কামিল মাদ্রাসা,"Iswarganj, Mymensingh District, Mymensingh Division, Bangladesh","পিতাম্বরপাড়া হোসাইনিয়া বহুমুখি কামিল মাদ্রাসা, ময়মনসিংহ জেলা, ময়মনসিংহ বিভাগ, বাংলাদেশ",,"পিতাম্বরপাড়া হোসাইনিয়া বহুমুখি কামিল মাদ্রাসা, ",,Iswarganj,বাংলাদেশ,ময়মনসিংহ বিভাগ,local_admin,boundaries,['college'],[],Bangladesh,Mymensingh,Mymensingh,Ishwarganj,Maijbagh,6ea5189b9b3c74e5922a3c2570a4b8c3
1065,5550933256,893ce260257ffff,24.5617293,90.6929621,jalshiri bus station,"jalshiri bus station, Nandail, Mymensingh District, Mymensingh Division, Bangladesh","ময়মনসিংহ জেলা, ময়মনসিংহ বিভাগ, বাংলাদেশ","jalshiri bus station, ",,,Nandail,বাংলাদেশ,ময়মনসিংহ বিভাগ,local_admin,boundaries,['bus_station'],[],Bangladesh,Mymensingh,Mymensingh,Nandail,Achargaon,3f14222fe449d7864983cae67f9e073e
1069,5552741644,893ce26364fffff,24.5725847,90.606823,kanurampur bazar,"kanurampur bazar, Nandail, Mymensingh District, Mymensingh Division, Bangladesh","ময়মনসিংহ জেলা, ময়মনসিংহ বিভাগ, বাংলাদেশ","kanurampur bazar, ",,,Nandail,বাংলাদেশ,ময়মনসিংহ বিভাগ,local_admin,boundaries,['marketplace'],[],Bangladesh,Mymensingh,Mymensingh,Nandail,Moazzempur,55b6229e2e31550b91940a8a83800318
1098,5611158563,893ce270e8bffff,24.6899634,90.6109911,Ishwarganj Upazila Health Complex,"Ishwarganj Upazila Health Complex, Mymensingh District, Mymensingh Division, Bangladesh","ময়মনসিংহ জেলা, ময়মনসিংহ বিভাগ, বাংলাদেশ","Ishwarganj Upazila Health Complex, ",,"['ইশ্বরগঞ্জ ঊপজেলা স্বাস্থ্য কেন্দ্র', 'Ishwarganj Upazila Health Complex']",,বাংলাদেশ,ময়মনসিংহ বিভাগ,admin2,boundaries,['hospital'],[],Bangladesh,Mymensingh,Mymensingh,Ishwarganj,IshwarganjPaurashava,236a5edfec4a7f69894f071f52a25bd9
1168,5702451358,893ce27186fffff,24.6313823,90.6129786,Grameenphone Tower,"Grameenphone Tower, Iswarganj, Mymensingh District, Mymensingh Division, Bangladesh","ময়মনসিংহ জেলা, ময়মনসিংহ বিভাগ, বাংলাদেশ","Grameenphone Tower, ",,,Iswarganj,বাংলাদেশ,ময়মনসিংহ বিভাগ,local_admin,boundaries,['communication_tower'],[],Bangladesh,Mymensingh,Mymensingh,Ishwarganj,Maijbagh,6ea5189b9b3c74e5922a3c2570a4b8c3
1170,5702460492,893ce26344bffff,24.5951364,90.6117193,Boirati Madrasah,"Boirati Madrasah, Iswarganj, Mymensingh District, Mymensingh Division, Bangladesh","ময়মনসিংহ জেলা, ময়মনসিংহ বিভাগ, বাংলাদেশ","Boirati Madrasah, ",,,Iswarganj,বাংলাদেশ,ময়মনসিংহ বিভাগ,local_admin,boundaries,['school'],[],Bangladesh,Mymensingh,Mymensingh,Ishwarganj,Magtala,0fd264ba1b8a4e05db2a97597e5fbdde
1171,5702535376,893ce26029bffff,24.5711666,90.6870407,Nandail Upazila Parishad,"Nandail Upazila Parishad, Nandail, Mymensingh District, Mymensingh Division, Bangladesh","ময়মনসিংহ জেলা, ময়মনসিংহ বিভাগ, বাংলাদেশ","Nandail Upazila Parishad, ",,,Nandail,বাংলাদেশ,ময়মনসিংহ বিভাগ,local_admin,boundaries,['government'],[],Bangladesh,Mymensingh,Mymensingh,Nandail,Nandail,645d77018ea5f35e7413d05df58bdd4c
1175,5702535536,893ce26066fffff,24.5713321,90.6832069,Somurtajahan College,"Somurtajahan College, Nandail, Mymensingh District, Mymensingh Division, Bangladesh","ময়মনসিংহ জেলা, ময়মনসিংহ বিভাগ, বাংলাদেশ","Somurtajahan College, ",,,Nandail,বাংলাদেশ,ময়মনসিংহ বিভাগ,local_admin,boundaries,['college'],[],Bangladesh,Mymensingh,Mymensingh,Nandail,Nandail,645d77018ea5f35e7413d05df58bdd4c
1178,5702826657,893ce271b53ffff,24.6201956,90.6166989,Vasa govt. primary School,"Vasa govt. primary School, Iswarganj, Mymensingh District, Mymensingh Division, Bangladesh","ময়মনসিংহ জেলা, ময়মনসিংহ বিভাগ, বাংলাদেশ","Vasa govt. primary School, ",,,Iswarganj,বাংলাদেশ,ময়মনসিংহ বিভাগ,local_admin,boundaries,['school'],[],Bangladesh,Mymensingh,Mymensingh,Ishwarganj,Maijbagh,6ea5189b9b3c74e5922a3c2570a4b8c3
1195,1090729036,893ce242aa7ffff,24.63748641,90.27326971,Fulbaria College Playground,"Fulbaria College Playground, Phulbari Mymensingh, Mymensingh District, Mymensingh Division, Bangladesh","ময়মনসিংহ জেলা, ময়মনসিংহ বিভাগ, বাংলাদেশ","Fulbaria College Playground, ",,,Phulbari (Mymensingh),বাংলাদেশ,ময়মনসিংহ বিভাগ,local_admin,boundaries,['playground'],[],Bangladesh,Mymensingh,Mymensingh,Fulbaria,FulbariaPaurashava,67975dbbada81173a965dc5187e7fc97
1197,1090729707,893ce242aa7ffff,24.63653083,90.27142419,Fulbaria Parishad Park,"Fulbaria Parishad Park, Phulbari Mymensingh, Mymensingh District, Mymensingh Division, Bangladesh","ময়মনসিংহ জেলা, ময়মনসিংহ বিভাগ, বাংলাদেশ","Fulbaria Parishad Park, ",,,Phulbari (Mymensingh),বাংলাদেশ,ময়মনসিংহ বিভাগ,local_admin,boundaries,['park'],[],Bangladesh,Mymensingh,Mymensingh,Fulbaria,FulbariaPaurashava,67975dbbada81173a965dc5187e7fc97
1200,1090731093,893ce242aa3ffff,24.63557084,90.27011014,Fulbaria MIni Playground,"Fulbaria MIni Playground, Phulbari Mymensingh, Mymensingh District, Mymensingh Division, Bangladesh","ময়মনসিংহ জেলা, ময়মনসিংহ বিভাগ, বাংলাদেশ","Fulbaria MIni Playground, ",,,Phulbari (Mymensingh),বাংলাদেশ,ময়মনসিংহ বিভাগ,local_admin,boundaries,['playground'],[],Bangladesh,Mymensingh,Mymensingh,Fulbaria,FulbariaPaurashava,67975dbbada81173a965dc5187e7fc97
1202,1090733524,893ce242aabffff,24.6339545,90.26748357,Fulbaria Pourashava,"Fulbaria Pourashava, Phulbari Mymensingh, Mymensingh District, Mymensingh Division, Bangladesh","ময়মনসিংহ জেলা, ময়মনসিংহ বিভাগ, বাংলাদেশ","Fulbaria Pourashava, ",,,Phulbari (Mymensingh),বাংলাদেশ,ময়মনসিংহ বিভাগ,local_admin,boundaries,['government'],[],Bangladesh,Mymensingh,Mymensingh,Fulbaria,FulbariaPaurashava,67975dbbada81173a965dc5187e7fc97
1205,1090733687,893ce242aa3ffff,24.63528528,90.26656418,Amtoli Playground,"Amtoli Playground, Phulbari Mymensingh, Mymensingh District, Mymensingh Division, Bangladesh","ময়মনসিংহ জেলা, ময়মনসিংহ বিভাগ, বাংলাদেশ","Amtoli Playground, ",,,Phulbari (Mymensingh),বাংলাদেশ,ময়মনসিংহ বিভাগ,local_admin,boundaries,['playground'],[],Bangladesh,Mymensingh,Mymensingh,Fulbaria,FulbariaPaurashava,67975dbbada81173a965dc5187e7fc97
1206,1090739438,893ce242aa3ffff,24.63686541,90.26900161,Government Fulbaria Pilot High School Playground,"Government Fulbaria Pilot High School Playground, Phulbari Mymensingh, Mymensingh District, Mymensingh Division, Bangladesh","ময়মনসিংহ জেলা, ময়মনসিংহ বিভাগ, বাংলাদেশ","Government Fulbaria Pilot High School Playground, ",,,Phulbari (Mymensingh),বাংলাদেশ,ময়মনসিংহ বিভাগ,local_admin,boundaries,['playground'],[],Bangladesh,Mymensingh,Mymensingh,Fulbaria,FulbariaPaurashava,67975dbbada81173a965dc5187e7fc97
1418,5869033756,893ce27082fffff,24.6897599,90.6546146,Shohagi Bazar,"Shohagi Bazar, Iswarganj, Mymensingh District, Mymensingh Division, Bangladesh","ময়মনসিংহ জেলা, ময়মনসিংহ বিভাগ, বাংলাদেশ","Shohagi Bazar, ",,,Iswarganj,বাংলাদেশ,ময়মনসিংহ বিভাগ,local_admin,boundaries,['marketplace'],[],Bangladesh,Mymensingh,Mymensingh,Ishwarganj,Sohagi,d67e22c60c4e4f317b3aa6d57f09e8be
1437,7401184586,893ce21b5cfffff,24.9290928,90.252673,আরিফ ফার্মেসি,,"আরিফ ফার্মেসি, ",,"আরিফ ফার্মেসি, ",,Phulpur,বাংলাদেশ,ময়মনসিংহ বিভাগ,housenumber,,,,Bangladesh,Mymensingh,Mymensingh,Phulpur,Rambhadrapur,096fdcf8538bdf4435c0fb4ecbaf5cb9
1466,9136016887,893ce24f2afffff,24.4773073,90.2930907,Raw Canvas,"Raw Canvas, ",,"Raw Canvas, ",,,Phulbari (Mymensingh),বাংলাদেশ,ময়মনসিংহ বিভাগ,housenumber,,,,Bangladesh,Mymensingh,Mymensingh,Fulbaria,Bhabanipur,7e909dd8e25fb2e0c219573159d9b3ee
1526,5879339003,893ce2695a3ffff,24.4120021,90.633458,Khurshid Mahal Bazar,"Khurshid Mahal Bazar, Gafargaon, Mymensingh District, Mymensingh Division, Bangladesh","ময়মনসিংহ জেলা, ময়মনসিংহ বিভাগ, বাংলাদেশ","Khurshid Mahal Bazar, ",,,Gafargaon,বাংলাদেশ,ময়মনসিংহ বিভাগ,local_admin,boundaries,['marketplace'],[],Bangladesh,Mymensingh,Mymensingh,Gaffargaon,Panchbhag,7aa41daed16853febe609bdb12bfe11d
1534,5879361132,893ce2695bbffff,24.4104408,90.6304284,Bridge Toll Box,"Bridge Toll Box, Gafargaon, Mymensingh District, Mymensingh Division, Bangladesh","ময়মনসিংহ জেলা, ময়মনসিংহ বিভাগ, বাংলাদেশ","Bridge Toll Box, ",,,Gafargaon,বাংলাদেশ,ময়মনসিংহ বিভাগ,local_admin,boundaries,['toll_booth'],[],Bangladesh,Mymensingh,Mymensingh,Gaffargaon,Panchbhag,7aa41daed16853febe609bdb12bfe11d
1536,5879361134,893ce2682d7ffff,24.4147913,90.6426675,Police BOx,"Police BOx, Gafargaon, Mymensingh District, Mymensingh Division, Bangladesh","ময়মনসিংহ জেলা, ময়মনসিংহ বিভাগ, বাংলাদেশ","Police BOx, ",,,Gafargaon,বাংলাদেশ,ময়মনসিংহ বিভাগ,local_admin,boundaries,['police'],[],Bangladesh,Mymensingh,Mymensingh,Gaffargaon,Panchbhag,7aa41daed16853febe609bdb12bfe11d
1650,6229464658,893ce271e43ffff,24.6268335,90.5738946,Ramchandrapur Community Clinic,"Ramchandrapur Community Clinic, Iswarganj, Mymensingh District, Mymensingh Division, Bangladesh","ময়মনসিংহ জেলা, ময়মনসিংহ বিভাগ, বাংলাদেশ","Ramchandrapur Community Clinic, ",,,Iswarganj,বাংলাদেশ,ময়মনসিংহ বিভাগ,local_admin,boundaries,['hospital'],[],Bangladesh,Mymensingh,Mymensingh,Ishwarganj,Barahit,6f90a21b1eb09c5cce8711a0441d4b74
1657,6555790024,893ce271287ffff,24.6294939,90.5306549,ঊচাখিলা বাজার,"Iswarganj, Mymensingh District, Mymensingh Division, Bangladesh","ঊচাখিলা বাজার, ময়মনসিংহ জেলা, ময়মনসিংহ বিভাগ, বাংলাদেশ",,"ঊচাখিলা বাজার, ",,Iswarganj,বাংলাদেশ,ময়মনসিংহ বিভাগ,local_admin,boundaries,['marketplace'],[],Bangladesh,Mymensingh,Mymensingh,Ishwarganj,Uchakhila,15136276c6dcb3020b3a0073273ef32c
1662,6560530723,893ce272633ffff,24.7402079,90.5255829,কলাতাপাড়া বাস স্টপ,"Mymensingh District, Mymensingh Division, Bangladesh","কলাতাপাড়া বাস স্টপ, ময়মনসিংহ জেলা, ময়মনসিংহ বিভাগ, বাংলাদেশ",,কলাতাপাড়া বাস স্টপ,,,বাংলাদেশ,ময়মনসিংহ বিভাগ,street,boundaries,['bus_stop'],[],Bangladesh,Mymensingh,Mymensingh,Gauripur,Dowhakhala,983323cee81534e5a5aece826fd91b37
1666,6560575857,893ce2726cbffff,24.737331,90.5079862,গাজীপুর বাস স্টপ,"Gazipur Bus Stop, Mymensingh District, Mymensingh Division, Bangladesh","গাজীপুর বাস স্টপ, ময়মনসিংহ জেলা, ময়মনসিংহ বিভাগ, বাংলাদেশ",,"গাজীপুর বাস স্টপ, ",['Gazipur Bus Stop'],,বাংলাদেশ,ময়মনসিংহ বিভাগ,street,boundaries,['bus_stop'],[],Bangladesh,Mymensingh,Mymensingh,Gauripur,Dowhakhala,983323cee81534e5a5aece826fd91b37
1670,6781962439,893ce2163a3ffff,25.1496528,90.5262515,,"Dhubarua, Mymensingh District, Mymensingh Division, Bangladesh","ময়মনসিংহ জেলা, ময়মনসিংহ বিভাগ, বাংলাদেশ",,,,Dhubarua,বাংলাদেশ,ময়মনসিংহ বিভাগ,local_admin,boundaries,['ford'],[],Bangladesh,Mymensingh,Mymensingh,Dhobaura,DakshinMaijPara,eadeb067814fcab45dd0a211809c8482
1673,6833668043,893ce2703a3ffff,24.6865271,90.5975908,Fish Market,"Fish Market, Iswarganj, Mymensingh District, Mymensingh Division, Bangladesh","ময়মনসিংহ জেলা, ময়মনসিংহ বিভাগ, বাংলাদেশ","Fish Market, ",,"['মাছের আড়ত', 'Fish Market']",Iswarganj,বাংলাদেশ,ময়মনসিংহ বিভাগ,local_admin,boundaries,['marketplace'],[],Bangladesh,Mymensingh,Mymensingh,Ishwarganj,IshwarganjPaurashava,236a5edfec4a7f69894f071f52a25bd9
1678,6833668135,893ce27038fffff,24.6842107,90.5927561,Ishwarganj Upazila Police Station,"Ishwarganj Upazila Police Station, Iswarganj, Mymensingh District, Mymensingh Division, Bangladesh","ময়মনসিংহ জেলা, ময়মনসিংহ বিভাগ, বাংলাদেশ","Ishwarganj Upazila Police Station, ",,,Iswarganj,বাংলাদেশ,ময়মনসিংহ বিভাগ,local_admin,boundaries,['police'],[],Bangladesh,Mymensingh,Mymensingh,Ishwarganj,IshwarganjPaurashava,236a5edfec4a7f69894f071f52a25bd9
1679,6833676178,893ce2703b3ffff,24.6880125,90.5952358,Ishwarganj Girls School and Women College,"Ishwarganj Girls School and Women College, Mymensingh District, Mymensingh Division, Bangladesh","ময়মনসিংহ জেলা, ময়মনসিংহ বিভাগ, বাংলাদেশ","Ishwarganj Girls School and Women College, ",,"['ঈশ্বরগঞ্জ বালিকা উচ্চ বিদ্যালয় ও মহিলা কলেজ', 'Ishwarganj Girls School and Women College']",,বাংলাদেশ,ময়মনসিংহ বিভাগ,admin2,boundaries,['school'],[],Bangladesh,Mymensingh,Mymensingh,Ishwarganj,IshwarganjPaurashava,236a5edfec4a7f69894f071f52a25bd9
1683,6834047098,893ce2703a3ffff,24.6869724,90.5984547,Milk Market,"Milk Market, Mymensingh District, Mymensingh Division, Bangladesh","ময়মনসিংহ জেলা, ময়মনসিংহ বিভাগ, বাংলাদেশ","Milk Market, ",,['দুধ বাজার'],,বাংলাদেশ,ময়মনসিংহ বিভাগ,admin2,boundaries,['marketplace'],[],Bangladesh,Mymensingh,Mymensingh,Ishwarganj,IshwarganjPaurashava,236a5edfec4a7f69894f071f52a25bd9
1686,6834047099,893ce2703a3ffff,24.6870127,90.5985725,Bangladesh Krishi Bank,"Bangladesh Krishi Bank, Mymensingh District, Mymensingh Division, Bangladesh","ময়মনসিংহ জেলা, ময়মনসিংহ বিভাগ, বাংলাদেশ","Bangladesh Krishi Bank, ",,,,বাংলাদেশ,ময়মনসিংহ বিভাগ,admin2,boundaries,['bank'],[],Bangladesh,Mymensingh,Mymensingh,Ishwarganj,IshwarganjPaurashava,236a5edfec4a7f69894f071f52a25bd9
1689,6834047100,893ce2703a3ffff,24.6869987,90.5986007,Buda Diagnostic Centre,"Buda Diagnostic Centre, Mymensingh District, Mymensingh Division, Bangladesh","ময়মনসিংহ জেলা, ময়মনসিংহ বিভাগ, বাংলাদেশ","Buda Diagnostic Centre, ",,,,বাংলাদেশ,ময়মনসিংহ বিভাগ,admin2,boundaries,['hospital'],[],Bangladesh,Mymensingh,Mymensingh,Ishwarganj,IshwarganjPaurashava,236a5edfec4a7f69894f071f52a25bd9
1694,6834053389,893ce2703b3ffff,24.6883952,90.5969477,MuktiZuddah Complex market,"MuktiZuddah Complex market, Mymensingh District, Mymensingh Division, Bangladesh","ময়মনসিংহ জেলা, ময়মনসিংহ বিভাগ, বাংলাদেশ","MuktiZuddah Complex market, ",,,,বাংলাদেশ,ময়মনসিংহ বিভাগ,admin2,boundaries,['mall'],[],Bangladesh,Mymensingh,Mymensingh,Ishwarganj,IshwarganjPaurashava,236a5edfec4a7f69894f071f52a25bd9
1697,6839928601,893ce2703b3ffff,24.688678799999998,90.5966815,Upazila Shahid Minner,"Upazila Shahid Minner, Mymensingh District, Mymensingh Division, Bangladesh","ময়মনসিংহ জেলা, ময়মনসিংহ বিভাগ, বাংলাদেশ","Upazila Shahid Minner, ",,,,বাংলাদেশ,ময়মনসিংহ বিভাগ,admin2,boundaries,['memorial'],[],Bangladesh,Mymensingh,Mymensingh,Ishwarganj,IshwarganjPaurashava,236a5edfec4a7f69894f071f52a25bd9
1704,6964120286,893ce2703a3ffff,24.6871152,90.5986236,,"Mymensingh District, Mymensingh Division, Bangladesh","ময়মনসিংহ জেলা, ময়মনসিংহ বিভাগ, বাংলাদেশ",,,['Smile Dental Care'],,বাংলাদেশ,ময়মনসিংহ বিভাগ,admin2,boundaries,['doctors'],[],Bangladesh,Mymensingh,Mymensingh,Ishwarganj,IshwarganjPaurashava,236a5edfec4a7f69894f071f52a25bd9
1707,6984270737,893ce26b04bffff,24.4258061,90.585545,Nama Porshipara Jami Mosque,"Nama Porshipara Jami Mosque, Gafargaon, Mymensingh District, Mymensingh Division, Bangladesh","ময়মনসিংহ জেলা, ময়মনসিংহ বিভাগ, বাংলাদেশ","Nama Porshipara Jami Mosque, ",,,Gafargaon,বাংলাদেশ,ময়মনসিংহ বিভাগ,local_admin,boundaries,['place_of_worship_muslim'],[],Bangladesh,Mymensingh,Mymensingh,Gaffargaon,Gaffargaon,5c59446b8ca4292eb6a0192cdf1e81cf
1709,6984270767,893ce26b297ffff,24.4237239,90.5818529,Porshipara Primary school,"Porshipara Primary school, Gafargaon, Mymensingh District, Mymensingh Division, Bangladesh","ময়মনসিংহ জেলা, ময়মনসিংহ বিভাগ, বাংলাদেশ","Porshipara Primary school, ",,,Gafargaon,বাংলাদেশ,ময়মনসিংহ বিভাগ,local_admin,boundaries,['school'],[],Bangladesh,Mymensingh,Mymensingh,Gaffargaon,Gaffargaon,5c59446b8ca4292eb6a0192cdf1e81cf
1776,7418663625,893ce2726cbffff,24.737225,90.5081061,Medilab Pharma,"Medilab Pharma, ",,"Medilab Pharma, ",,,,বাংলাদেশ,ময়মনসিংহ বিভাগ,housenumber,sameSource,['pharmacy'],[],Bangladesh,Mymensingh,Mymensingh,Gauripur,Dowhakhala,983323cee81534e5a5aece826fd91b37
1779,7418693090,893ce2726cbffff,24.7371926,90.5081042,Medilab Diagnostic & Consultation Ltd.,"Medilab Diagnostic & Consultation Ltd., ",,"Medilab Diagnostic & Consultation Ltd., ",,,,বাংলাদেশ,ময়মনসিংহ বিভাগ,housenumber,sameSource,['hospital'],[],Bangladesh,Mymensingh,Mymensingh,Gauripur,Dowhakhala,983323cee81534e5a5aece826fd91b37
1782,7418763608,893ce27264bffff,24.7301999,90.5137668,সাবদুল সরকার সরকারি প্রাথমিক বিদ্যালয়,,"সাবদুল সরকার সরকারি প্রাথমিক বিদ্যালয়, ",,"সাবদুল সরকার সরকারি প্রাথমিক বিদ্যালয়, ",,,বাংলাদেশ,ময়মনসিংহ বিভাগ,housenumber,sameSource,['school'],[],Bangladesh,Mymensingh,Mymensingh,Gauripur,Dowhakhala,983323cee81534e5a5aece826fd91b37
1786,7418816429,893ce273587ffff,24.7246838,90.5131206,রামপুর-সিংজানী জামে মসজিদ,,"রামপুর-সিংজানী জামে মসজিদ, ",,"রামপুর-সিংজানী জামে মসজিদ, ",,,বাংলাদেশ,ময়মনসিংহ বিভাগ,housenumber,sameSource,['place_of_worship_muslim'],[],Bangladesh,Mymensingh,Mymensingh,Gauripur,Dowhakhala,983323cee81534e5a5aece826fd91b37
1791,7418822658,893ce273587ffff,24.7270198,90.5138144,লিয়াকত মার্কেট,,"লিয়াকত মার্কেট, ",,"লিয়াকত মার্কেট, ",,,বাংলাদেশ,ময়মনসিংহ বিভাগ,housenumber,sameSource,['marketplace'],[],Bangladesh,Mymensingh,Mymensingh,Gauripur,Dowhakhala,983323cee81534e5a5aece826fd91b37
1795,7418824040,893ce27265bffff,24.7312578,90.5121936,মান্দার বাজার  জামে মসজিদ,,"মান্দার বাজার জামে মসজিদ, ",,"মান্দার বাজার জামে মসজিদ, ",,,বাংলাদেশ,ময়মনসিংহ বিভাগ,housenumber,sameSource,['place_of_worship_muslim'],[],Bangladesh,Mymensingh,Mymensingh,Gauripur,Dowhakhala,983323cee81534e5a5aece826fd91b37
1824,9373827717,893ce201ea3ffff,24.900835999999998,90.5004832,Aishya,"Aishya, Phulpur, Mymensingh District, Mymensingh Division, Bangladesh","ময়মনসিংহ জেলা, ময়মনসিংহ বিভাগ, বাংলাদেশ","Aishya, ",,['Aktheruddin Talukder Nurul Ulum Nurani Madrasa'],Phulpur,বাংলাদেশ,ময়মনসিংহ বিভাগ,local_admin,boundaries,['school'],[],Bangladesh,Mymensingh,Mymensingh,Phulpur,Kamargaon,b75699976cbd4cfd5a2289ca945f057b
2049,6033575419,893ce2696b7ffff,24.3865,90.6036512,Jami Mosque(জামে মসজিদ),"Jami Mosque, Gafargaon, Mymensingh District, Mymensingh Division, Bangladesh","জামে মসজিদ, ময়মনসিংহ জেলা, ময়মনসিংহ বিভাগ, বাংলাদেশ",,,,Gafargaon,বাংলাদেশ,ময়মনসিংহ বিভাগ,local_admin,boundaries,['place_of_worship_muslim'],[],Bangladesh,Mymensingh,Mymensingh,Gaffargaon,Usthi,dbdf95084465e403962a1e495812a27f
2050,702033870,893ce21a003ffff,24.95834102784463,90.29060085679504,Sherpur - Mymensingh Highway,"Sherpur - Mymensingh Highway, Nakla Upazila, Sherpur District, Mymensingh Division, Bangladesh","নকলা উপজেলা, শেরপুর জেলা, ময়মনসিংহ বিভাগ, বাংলাদেশ",Sherpur - Mymensingh Highway,,,নকলা উপজেলা,বাংলাদেশ,ময়মনসিংহ বিভাগ,street,,,,Bangladesh,Mymensingh,Mymensingh,Phulpur,Bhaitkandi,e1ee3a7e5fa3cf4db2177c83c54c7a77
2052,6033575420,893ce26947bffff,24.3898018,90.6028967,Jami Mosque(জামে মসজিদ),"Jami Mosque, Gafargaon, Mymensingh District, Mymensingh Division, Bangladesh","জামে মসজিদ, ময়মনসিংহ জেলা, ময়মনসিংহ বিভাগ, বাংলাদেশ",,,,Gafargaon,বাংলাদেশ,ময়মনসিংহ বিভাগ,local_admin,boundaries,['place_of_worship_muslim'],[],Bangladesh,Mymensingh,Mymensingh,Gaffargaon,Usthi,dbdf95084465e403962a1e495812a27f
2053,702033870,893ce21a003ffff,24.95834102784463,90.29060085679504,Sherpur - Mymensingh Highway,"Sherpur - Mymensingh Highway, Phulpur, Mymensingh Division, Bangladesh","ময়মনসিংহ বিভাগ, বাংলাদেশ",Sherpur - Mymensingh Highway,,,Phulpur,বাংলাদেশ,ময়মনসিংহ বিভাগ,street,,,,Bangladesh,Mymensingh,Mymensingh,Phulpur,Bhaitkandi,e1ee3a7e5fa3cf4db2177c83c54c7a77
2054,6033603788,893ce269407ffff,24.3977583,90.6059642,Usthi Bazar,"Usthi Bazar, Gafargaon, Mymensingh District, Mymensingh Division, Bangladesh","ময়মনসিংহ জেলা, ময়মনসিংহ বিভাগ, বাংলাদেশ","Usthi Bazar, ",,,Gafargaon,বাংলাদেশ,ময়মনসিংহ বিভাগ,local_admin,boundaries,['marketplace'],[],Bangladesh,Mymensingh,Mymensingh,Gaffargaon,Usthi,dbdf95084465e403962a1e495812a27f
2057,702033870,893ce21a003ffff,24.95834102784463,90.29060085679504,Sherpur - Mymensingh Highway,"Sherpur - Mymensingh Highway, Nakla Upazila, Mymensingh District, Mymensingh Division, Bangladesh","নকলা উপজেলা, ময়মনসিংহ জেলা, ময়মনসিংহ বিভাগ, বাংলাদেশ",Sherpur - Mymensingh Highway,,,নকলা উপজেলা,বাংলাদেশ,ময়মনসিংহ বিভাগ,street,,,,Bangladesh,Mymensingh,Mymensingh,Phulpur,Bhaitkandi,e1ee3a7e5fa3cf4db2177c83c54c7a77
2104,232498914,893ce2703bbffff,24.68520598,90.59532886,,"Iswarganj, Mymensingh District, Mymensingh Division, Bangladesh","ময়মনসিংহ জেলা, ময়মনসিংহ বিভাগ, বাংলাদেশ",,,,Iswarganj,বাংলাদেশ,ময়মনসিংহ বিভাগ,local_admin,boundaries,['school'],[],Bangladesh,Mymensingh,Mymensingh,Ishwarganj,IshwarganjPaurashava,236a5edfec4a7f69894f071f52a25bd9
2107,261146961,893cf1a7063ffff,24.27557632,90.5511568,,"Gafargaon, Mymensingh District, Mymensingh Division, Bangladesh","ময়মনসিংহ জেলা, ময়মনসিংহ বিভাগ, বাংলাদেশ",,,,Gafargaon,বাংলাদেশ,ময়মনসিংহ বিভাগ,local_admin,boundaries,['islet'],[],Bangladesh,Mymensingh,Mymensingh,Gaffargaon,Nigair,95446721fd9c6a522b62a20da4b22c84
2178,473265682,893ce2725dbffff,24.76694613,90.53625208,Shalihor Football Field,"Shalihor Football Field, Mymensingh District, Mymensingh Division, Bangladesh","ময়মনসিংহ জেলা, ময়মনসিংহ বিভাগ, বাংলাদেশ","Shalihor Football Field, ",,,,বাংলাদেশ,ময়মনসিংহ বিভাগ,admin2,boundaries,['playground'],[],Bangladesh,Mymensingh,Mymensingh,Gauripur,Gauripur,a0f6317c77e0be9a576aaf0ccc351243
2181,473499873,893ce2725d3ffff,24.76904522,90.53763401,Trees,"Trees, Mymensingh District, Mymensingh Division, Bangladesh","ময়মনসিংহ জেলা, ময়মনসিংহ বিভাগ, বাংলাদেশ","Trees, ",,,,বাংলাদেশ,ময়মনসিংহ বিভাগ,admin2,boundaries,['park'],[],Bangladesh,Mymensingh,Mymensingh,Gauripur,Gauripur,a0f6317c77e0be9a576aaf0ccc351243
2184,473514327,893ce2725dbffff,24.76776156,90.5359284,Shalihor Gaosul Azom Jame Mosjid,"Shalihor Gaosul Azom Jame Mosjid, ",,"Shalihor Gaosul Azom Jame Mosjid, ",,,,বাংলাদেশ,ময়মনসিংহ বিভাগ,housenumber,sameSource,['place_of_worship_muslim'],[],Bangladesh,Mymensingh,Mymensingh,Gauripur,Gauripur,a0f6317c77e0be9a576aaf0ccc351243
2188,473514328,893ce2725dbffff,24.76777087,90.53631497,Shalihor Eidghah Mat,"Shalihor Eidghah Mat, ",,"Shalihor Eidghah Mat, ",,,,বাংলাদেশ,ময়মনসিংহ বিভাগ,housenumber,sameSource,['place_of_worship_muslim'],[],Bangladesh,Mymensingh,Mymensingh,Gauripur,Gauripur,a0f6317c77e0be9a576aaf0ccc351243
2216,439865618,893ce255c2bffff,24.713219389586033,90.29598349910665,Foraji Bari Road,"Foraji Bari Road, Phulbari Mymensingh, Mymensingh District, Mymensingh Division, Bangladesh","ময়মনসিংহ জেলা, ময়মনসিংহ বিভাগ, বাংলাদেশ",Foraji Bari Road,,,Phulbari (Mymensingh),বাংলাদেশ,ময়মনসিংহ বিভাগ,street,,,,Bangladesh,Mymensingh,Mymensingh,Fulbaria,Balian,e72885f555e25c18fbc861a9837f0438
2252,231312540,893cf1b3557ffff,24.36042478370766,90.2511189412105,Bhaluka - Shakhipur Road,"Bhaluka - Shakhipur Road, Bhaluka, Mymensingh District, Mymensingh Division, Bangladesh","ময়মনসিংহ জেলা, ময়মনসিংহ বিভাগ, বাংলাদেশ",Bhaluka - Shakhipur Road,,,Bhaluka,বাংলাদেশ,ময়মনসিংহ বিভাগ,street,,,,Bangladesh,Mymensingh,Mymensingh,Bhaluka,Dakatia,0f68a7fa59edb1168d7338d9e727a48d
2254,231312540,893cf1b3557ffff,24.36042478370766,90.2511189412105,Bhaluka - Shakhipur Road,"Bhaluka - Shakhipur Road, Tangail District, Bangladesh","টাঙ্গাইল জেলা, বাংলাদেশ",Bhaluka - Shakhipur Road,,,,বাংলাদেশ,,street,,,,Bangladesh,Mymensingh,Mymensingh,Bhaluka,Dakatia,0f68a7fa59edb1168d7338d9e727a48d
2257,231312540,893cf1b3557ffff,24.36042478370766,90.2511189412105,Bhaluka - Shakhipur Road,"Bhaluka - Shakhipur Road, Mymensingh District, Mymensingh Division, Bangladesh","ময়মনসিংহ জেলা, ময়মনসিংহ বিভাগ, বাংলাদেশ",Bhaluka - Shakhipur Road,,,,বাংলাদেশ,ময়মনসিংহ বিভাগ,street,,,,Bangladesh,Mymensingh,Mymensingh,Bhaluka,Dakatia,0f68a7fa59edb1168d7338d9e727a48d
2259,231312540,893cf1b3557ffff,24.36042478370766,90.2511189412105,Bhaluka - Shakhipur Road,"Bhaluka - Shakhipur Road, Bhaluka, Mymensingh District, Dhaka Division, Bangladesh","ময়মনসিংহ জেলা, ঢাকা বিভাগ, বাংলাদেশ",Bhaluka - Shakhipur Road,,,Bhaluka,বাংলাদেশ,ঢাকা বিভাগ,street,,,,Bangladesh,Mymensingh,Mymensingh,Bhaluka,Dakatia,0f68a7fa59edb1168d7338d9e727a48d
2393,585902919,893ce255a57ffff,24.675274164013224,90.29628675396847,Fulbaria Road,"Fulbaria Road, Balian, Phulbari Mymensingh, Mymensingh District, Mymensingh Division, Bangladesh","ময়মনসিংহ জেলা, ময়মনসিংহ বিভাগ, বাংলাদেশ",Fulbaria Road,,,Phulbari (Mymensingh),বাংলাদেশ,ময়মনসিংহ বিভাগ,street,,,,Bangladesh,Mymensingh,Mymensingh,Fulbaria,Balian,e72885f555e25c18fbc861a9837f0438
2424,465334282,893ce242b77ffff,24.631624305005158,90.29254855830308,Chankanda Road,"Chankanda Road, Phulbari Mymensingh, Mymensingh District, Mymensingh Division, Bangladesh","ময়মনসিংহ জেলা, ময়মনসিংহ বিভাগ, বাংলাদেশ",Chankanda Road,,,Phulbari (Mymensingh),বাংলাদেশ,ময়মনসিংহ বিভাগ,street,,,,Bangladesh,Mymensingh,Mymensingh,Fulbaria,Fulbaria,8e3f7d9ea5e3b18e4451a1937bf3883d
2447,229540800,893ce2400a3ffff,24.60816917778665,90.2376383353972,Garobazar-Fulbaria Road,"Garobazar-Fulbaria Road, Phulbari Mymensingh, Mymensingh District, Mymensingh Division, Bangladesh","ময়মনসিংহ জেলা, ময়মনসিংহ বিভাগ, বাংলাদেশ",Garobazar-Fulbaria Road,,,Phulbari (Mymensingh),বাংলাদেশ,ময়মনসিংহ বিভাগ,street,,,,Bangladesh,Mymensingh,Mymensingh,Fulbaria,Bakta,3e44c864711b8ae2a75ba2a33ee0ed01
2554,1066008615,893ce242a3bffff,24.62735955,90.26970879999999,Fulbaria Road,"Fulbaria Road, Phulbari Mymensingh, Mymensingh District, Mymensingh Division, Bangladesh","ময়মনসিংহ জেলা, ময়মনসিংহ বিভাগ, বাংলাদেশ",Fulbaria Road,,,Phulbari (Mymensingh),বাংলাদেশ,ময়মনসিংহ বিভাগ,street,,,,Bangladesh,Mymensingh,Mymensingh,Fulbaria,FulbariaPaurashava,67975dbbada81173a965dc5187e7fc97
2617,732490675,893ce24f223ffff,24.472002030503024,90.2949748894764,Unmarked Road,"Unmarked Road, Bhaluka, Mymensingh District, Mymensingh Division, Bangladesh","ময়মনসিংহ জেলা, ময়মনসিংহ বিভাগ, বাংলাদেশ",Unmarked Road,,,Bhaluka,বাংলাদেশ,ময়মনসিংহ বিভাগ,street,,,,Bangladesh,Mymensingh,Mymensingh,Trishal,Mokshapur,793ec20b05ceb6fccc3ed860b491dc1b
2618,732490675,893ce24f223ffff,24.472002030503024,90.2949748894764,Unmarked Road,"Unmarked Road, Phulbari Mymensingh, Mymensingh District, Mymensingh Division, Bangladesh","ময়মনসিংহ জেলা, ময়মনসিংহ বিভাগ, বাংলাদেশ",Unmarked Road,,,Phulbari (Mymensingh),বাংলাদেশ,ময়মনসিংহ বিভাগ,street,,,,Bangladesh,Mymensingh,Mymensingh,Trishal,Mokshapur,793ec20b05ceb6fccc3ed860b491dc1b
2742,270337882,893ce21b533ffff,24.932803660775807,90.26513738683164,Goadanga road,"Goadanga road, Phulpur, Mymensingh District, Mymensingh Division, Bangladesh","ময়মনসিংহ জেলা, ময়মনসিংহ বিভাগ, বাংলাদেশ",Goadanga road,,,Phulpur,বাংলাদেশ,ময়মনসিংহ বিভাগ,street,,,,Bangladesh,Mymensingh,Mymensingh,Phulpur,Rambhadrapur,096fdcf8538bdf4435c0fb4ecbaf5cb9
2808,278928223,893ce254083ffff,24.76228685,90.2718718,Mymensingh - Tangail Highway,"Mymensingh - Tangail Highway, Muktagacha, Mymensingh District, Mymensingh Division, Bangladesh","ময়মনসিংহ জেলা, ময়মনসিংহ বিভাগ, বাংলাদেশ",Mymensingh - Tangail Highway,,,Muktagacha,বাংলাদেশ,ময়মনসিংহ বিভাগ,street,,,,Bangladesh,Mymensingh,Mymensingh,Muktagachha,MuktagachhaPaurashava,b06375631343e06576f6338f6a00976c
2832,439869594,893ce255c27ffff,24.716577329610274,90.30107038568781,Joy Bangla Road,"Joy Bangla Road, Muktagacha, Mymensingh District, Mymensingh Division, Bangladesh","ময়মনসিংহ জেলা, ময়মনসিংহ বিভাগ, বাংলাদেশ",Joy Bangla Road,,,Muktagacha,বাংলাদেশ,ময়মনসিংহ বিভাগ,street,,,,Bangladesh,Mymensingh,Mymensingh,MymensinghSadar,Dapunia,9230f09d145dbf59595e603962c3904c
3084,439867749,893ce2558d7ffff,24.703892195190278,90.29677773736337,Noyabila- Sharutia Road,"Noyabila- Sharutia Road, Phulbari Mymensingh, Mymensingh District, Mymensingh Division, Bangladesh","ময়মনসিংহ জেলা, ময়মনসিংহ বিভাগ, বাংলাদেশ",Noyabila- Sharutia Road,,,Phulbari (Mymensingh),বাংলাদেশ,ময়মনসিংহ বিভাগ,street,,,,Bangladesh,Mymensingh,Mymensingh,Fulbaria,Balian,e72885f555e25c18fbc861a9837f0438
3088,539782448,893ce2088d3ffff,24.8011457,90.50035377,অগ্রণী ব্যাংক লিমিটেড,"Phulpur, Mymensingh District, Mymensingh Division, Bangladesh","অগ্রণী ব্যাংক লিমিটেড, ময়মনসিংহ জেলা, ময়মনসিংহ বিভাগ, বাংলাদেশ",,"অগ্রণী ব্যাংক লিমিটেড, ",['Agrani Bank Kashiganj Branch'],Phulpur,বাংলাদেশ,ময়মনসিংহ বিভাগ,local_admin,boundaries,['bank'],[],Bangladesh,Mymensingh,Mymensingh,Phulpur,Kamaria,b66e38178ff4a0f1df299928bbd900e2
3091,539782483,893ce20889bffff,24.80570447,90.50578641,MS H.K FILLING STATION,"MS H.K FILLING STATION, Phulpur, Mymensingh District, Mymensingh Division, Bangladesh","ময়মনসিংহ জেলা, ময়মনসিংহ বিভাগ, বাংলাদেশ","MS H.K FILLING STATION, ",,,Phulpur,বাংলাদেশ,ময়মনসিংহ বিভাগ,local_admin,boundaries,['fuel'],[],Bangladesh,Mymensingh,Mymensingh,Phulpur,Kamaria,b66e38178ff4a0f1df299928bbd900e2
3094,539785871,893ce208883ffff,24.80634223,90.50939807,Kashigonj Bazar Jame Masjid কাশিগঞ্জ বাজার জামে মসজিদ,"Kashigonj Bazar Jame Masjid, Phulpur, Mymensingh District, Mymensingh Division, Bangladesh","কাশিগঞ্জ বাজার জামে মসজিদ, ময়মনসিংহ জেলা, ময়মনসিংহ বিভাগ, বাংলাদেশ",,,,Phulpur,বাংলাদেশ,ময়মনসিংহ বিভাগ,local_admin,boundaries,['place_of_worship_muslim'],[],Bangladesh,Mymensingh,Mymensingh,Phulpur,Kamaria,b66e38178ff4a0f1df299928bbd900e2
3098,539785938,893ce208883ffff,24.80624779,90.50961009,Eidgah math,"Eidgah math, Phulpur, Mymensingh District, Mymensingh Division, Bangladesh","ময়মনসিংহ জেলা, ময়মনসিংহ বিভাগ, বাংলাদেশ","Eidgah math, ",,,Phulpur,বাংলাদেশ,ময়মনসিংহ বিভাগ,local_admin,boundaries,['place_of_worship'],[],Bangladesh,Mymensingh,Mymensingh,Phulpur,Kamaria,b66e38178ff4a0f1df299928bbd900e2
3101,539786199,893ce208883ffff,24.80665095,90.50909637,Maa Enterprise মা এন্টারপ্রাইজ,"Maa Enterprise, Phulpur, Mymensingh District, Mymensingh Division, Bangladesh","মা এন্টারপ্রাইজ, ময়মনসিংহ জেলা, ময়মনসিংহ বিভাগ, বাংলাদেশ",,,,Phulpur,বাংলাদেশ,ময়মনসিংহ বিভাগ,local_admin,boundaries,['department_store'],[],Bangladesh,Mymensingh,Mymensingh,Phulpur,Kamaria,b66e38178ff4a0f1df299928bbd900e2
3104,539786294,893ce208883ffff,24.80674283,90.50913452,এম এস কম্পিউটার.কাশিগঞ্জ বাজার.ময়মনসিংহ।,"Phulpur, Mymensingh District, Mymensingh Division, Bangladesh","এম এস কম্পিউটার.কাশিগঞ্জ বাজার.ময়মনসিংহ।, ময়মনসিংহ জেলা, ময়মনসিংহ বিভাগ, বাংলাদেশ",,"এম এস কম্পিউটার.কাশিগঞ্জ বাজার.ময়মনসিংহ।, ",,Phulpur,বাংলাদেশ,ময়মনসিংহ বিভাগ,local_admin,boundaries,['restaurant'],[],Bangladesh,Mymensingh,Mymensingh,Phulpur,Kamaria,b66e38178ff4a0f1df299928bbd900e2
3108,539786333,893ce208883ffff,24.80687468,90.50915437,Hafij market,"Hafij market, Phulpur, Mymensingh District, Mymensingh Division, Bangladesh","ময়মনসিংহ জেলা, ময়মনসিংহ বিভাগ, বাংলাদেশ","Hafij market, ",,,Phulpur,বাংলাদেশ,ময়মনসিংহ বিভাগ,local_admin,boundaries,['marketplace'],[],Bangladesh,Mymensingh,Mymensingh,Phulpur,Kamaria,b66e38178ff4a0f1df299928bbd900e2
3112,539786350,893ce208883ffff,24.80654015,90.50992735,অগ্রণী ব্যাংক লিমিটেড,"Phulpur, Mymensingh District, Mymensingh Division, Bangladesh","অগ্রণী ব্যাংক লিমিটেড, ময়মনসিংহ জেলা, ময়মনসিংহ বিভাগ, বাংলাদেশ",,"অগ্রণী ব্যাংক লিমিটেড, ",['Agrani Bank Limited'],Phulpur,বাংলাদেশ,ময়মনসিংহ বিভাগ,local_admin,boundaries,['bank'],[],Bangladesh,Mymensingh,Mymensingh,Phulpur,Kamaria,b66e38178ff4a0f1df299928bbd900e2
3116,539786480,893ce208883ffff,24.80674985,90.50983628,ডাচ বাংলা এজেন্ট ব্যাংক,"Phulpur, Mymensingh District, Mymensingh Division, Bangladesh","ডাচ বাংলা এজেন্ট ব্যাংক, ময়মনসিংহ জেলা, ময়মনসিংহ বিভাগ, বাংলাদেশ",,"ডাচ বাংলা এজেন্ট ব্যাংক, ",['Dutch Bengali Agent Bank'],Phulpur,বাংলাদেশ,ময়মনসিংহ বিভাগ,local_admin,boundaries,['bank'],[],Bangladesh,Mymensingh,Mymensingh,Phulpur,Kamaria,b66e38178ff4a0f1df299928bbd900e2
3119,539793345,893ce208883ffff,24.8067968,90.51004735,বিপ্লব এর টিস্টল,"Phulpur, Mymensingh District, Mymensingh Division, Bangladesh","বিপ্লব এর টিস্টল, ময়মনসিংহ জেলা, ময়মনসিংহ বিভাগ, বাংলাদেশ",,"বিপ্লব এর টিস্টল, ",,Phulpur,বাংলাদেশ,ময়মনসিংহ বিভাগ,local_admin,boundaries,['tea'],[],Bangladesh,Mymensingh,Mymensingh,Phulpur,Kamaria,b66e38178ff4a0f1df299928bbd900e2
3120,270337478,893ce21a287ffff,24.94488674349501,90.28114296511524,"R1      goadanga   charniamot , ramvadhrapur road","R1 goadanga charniamot ramvadhrapur road, goadanga charniamot ramvadhrapur road, Phulpur, Mymensingh District, Mymensingh Division, Bangladesh","R1, ময়মনসিংহ জেলা, ময়মনসিংহ বিভাগ, বাংলাদেশ","R1 goadanga charniamot ramvadhrapur road, ",,,Phulpur,বাংলাদেশ,ময়মনসিংহ বিভাগ,street,,,,Bangladesh,Mymensingh,Mymensingh,Phulpur,Bhaitkandi,e1ee3a7e5fa3cf4db2177c83c54c7a77
3122,539793420,893ce208883ffff,24.80673428,90.51032233,বাংলাদেশ কৃষি ব্যাংক,"Phulpur, Mymensingh District, Mymensingh Division, Bangladesh","বাংলাদেশ কৃষি ব্যাংক, ময়মনসিংহ জেলা, ময়মনসিংহ বিভাগ, বাংলাদেশ",,"বাংলাদেশ কৃষি ব্যাংক, ",['Bangladesh Krishi Bank'],Phulpur,বাংলাদেশ,ময়মনসিংহ বিভাগ,local_admin,boundaries,['bank'],[],Bangladesh,Mymensingh,Mymensingh,Phulpur,Kamaria,b66e38178ff4a0f1df299928bbd900e2
3126,539793449,893ce208883ffff,24.80677802,90.51039572,Shimu Medical Hall,"Shimu Medical Hall, Phulpur, Mymensingh District, Mymensingh Division, Bangladesh","ময়মনসিংহ জেলা, ময়মনসিংহ বিভাগ, বাংলাদেশ","Shimu Medical Hall, ",,,Phulpur,বাংলাদেশ,ময়মনসিংহ বিভাগ,local_admin,boundaries,['pharmacy'],[],Bangladesh,Mymensingh,Mymensingh,Phulpur,Kamaria,b66e38178ff4a0f1df299928bbd900e2
3128,539793664,893ce208897ffff,24.80766514,90.51096042,পূর্ব বাজার,"Phulpur, Mymensingh District, Mymensingh Division, Bangladesh","পূর্ব বাজার, ময়মনসিংহ জেলা, ময়মনসিংহ বিভাগ, বাংলাদেশ",,"পূর্ব বাজার, ",,Phulpur,বাংলাদেশ,ময়মনসিংহ বিভাগ,local_admin,boundaries,['marketplace'],[],Bangladesh,Mymensingh,Mymensingh,Phulpur,Kamaria,b66e38178ff4a0f1df299928bbd900e2
3131,539793698,893ce208d4bffff,24.80984419,90.51342934,গ্রামীণ ব্যাংক,"Phulpur, Mymensingh District, Mymensingh Division, Bangladesh","গ্রামীণ ব্যাংক, ময়মনসিংহ জেলা, ময়মনসিংহ বিভাগ, বাংলাদেশ",,"গ্রামীণ ব্যাংক, ",['Grameen Bank'],Phulpur,বাংলাদেশ,ময়মনসিংহ বিভাগ,local_admin,boundaries,['bank'],[],Bangladesh,Mymensingh,Mymensingh,Phulpur,Bishka,e4d789caaa2ec0adbe751f0940b6160c
3133,539794080,893ce20f213ffff,24.83014819,90.54328704,Beltali Bazar বেলতলী বাজার,"Beltali Bazar, Phulpur, Mymensingh District, Mymensingh Division, Bangladesh","বেলতলী বাজার, ময়মনসিংহ জেলা, ময়মনসিংহ বিভাগ, বাংলাদেশ",,,,Phulpur,বাংলাদেশ,ময়মনসিংহ বিভাগ,local_admin,boundaries,['variety_store'],[],Bangladesh,Mymensingh,Mymensingh,Gauripur,Sidhla,ac78d0cb7ec0d154d1aa1581e90292e0
3136,539796544,893ce20f067ffff,24.84330124,90.55902713,Monati Purbo Para Jame Masjid মনাটি পূর্ব-পাড়া জামে মসজিদ,"Monati Purbo Para Jame Masjid, Phulpur, Mymensingh District, Mymensingh Division, Bangladesh","মনাটি পূর্ব-পাড়া জামে মসজিদ, ময়মনসিংহ জেলা, ময়মনসিংহ বিভাগ, বাংলাদেশ",,,,Phulpur,বাংলাদেশ,ময়মনসিংহ বিভাগ,local_admin,boundaries,['place_of_worship_muslim'],[],Bangladesh,Mymensingh,Mymensingh,Gauripur,Mailakanda,079766ffc03637593123dd69d7d10bb9
3151,539940504,893ce20c6d3ffff,24.84316915,90.58123145,রূপালী ব্যাংক লিমিটেড,"Netrokona District, Mymensingh Division, Bangladesh","রূপালী ব্যাংক লিমিটেড, নেত্রকোনা জেলা, ময়মনসিংহ বিভাগ, বাংলাদেশ",,"রূপালী ব্যাংক লিমিটেড, ",['Rupali Bank Limited'],,বাংলাদেশ,ময়মনসিংহ বিভাগ,admin2,boundaries,['bank'],[],Bangladesh,Mymensingh,Mymensingh,Gauripur,Mailakanda,079766ffc03637593123dd69d7d10bb9
3154,539940512,893ce20c6d3ffff,24.8430817,90.5814923,Shyamgonj Jame Mosjid,"Shyamgonj Jame Mosjid, Netrokona District, Mymensingh Division, Bangladesh","নেত্রকোনা জেলা, ময়মনসিংহ বিভাগ, বাংলাদেশ","Shyamgonj Jame Mosjid, ",,,,বাংলাদেশ,ময়মনসিংহ বিভাগ,admin2,boundaries,['place_of_worship_muslim'],[],Bangladesh,Mymensingh,Mymensingh,Gauripur,Mailakanda,079766ffc03637593123dd69d7d10bb9
3157,539940517,893ce20c6d3ffff,24.84334049,90.58165642,প্রিমিয়ার ব্যাংক লিমিটেড,"Netrokona District, Mymensingh Division, Bangladesh","প্রিমিয়ার ব্যাংক লিমিটেড, নেত্রকোনা জেলা, ময়মনসিংহ বিভাগ, বাংলাদেশ",,"প্রিমিয়ার ব্যাংক লিমিটেড, ",['Premier Bank Limited'],,বাংলাদেশ,ময়মনসিংহ বিভাগ,admin2,boundaries,['bank'],[],Bangladesh,Mymensingh,Mymensingh,Gauripur,Mailakanda,079766ffc03637593123dd69d7d10bb9
3160,539940660,893ce20c6d3ffff,24.84369091,90.5821548,JAMUNA MOTORS,"JAMUNA MOTORS, Netrokona District, Mymensingh Division, Bangladesh","নেত্রকোনা জেলা, ময়মনসিংহ বিভাগ, বাংলাদেশ","JAMUNA MOTORS, ",,,,বাংলাদেশ,ময়মনসিংহ বিভাগ,admin2,boundaries,['motorcycle'],[],Bangladesh,Mymensingh,Mymensingh,Gauripur,Mailakanda,079766ffc03637593123dd69d7d10bb9
3171,540131661,893ce214657ffff,25.09422872,90.50579608,Shibanondokila Adventist Church,"Shibanondokila Adventist Church, Dhubarua, Mymensingh District, Mymensingh Division, Bangladesh","ময়মনসিংহ জেলা, ময়মনসিংহ বিভাগ, বাংলাদেশ","Shibanondokila Adventist Church, ",,,Dhubarua,বাংলাদেশ,ময়মনসিংহ বিভাগ,local_admin,boundaries,['place_of_worship'],[],Bangladesh,Mymensingh,Mymensingh,Dhobaura,Dobaura,432b21435d38ea11c3cf71b0f254a796
3174,540131678,893ce21467bffff,25.09203866,90.51082255,Darul Ulum madrasha mosque দারুল উলুম মাদ্রাসা মসজিদ,"Darul Ulum madrasha mosque, Dhubarua, Mymensingh District, Mymensingh Division, Bangladesh","দারুল উলুম মাদ্রাসা মসজিদ, ময়মনসিংহ জেলা, ময়মনসিংহ বিভাগ, বাংলাদেশ",,,,Dhubarua,বাংলাদেশ,ময়মনসিংহ বিভাগ,local_admin,boundaries,['place_of_worship_muslim'],[],Bangladesh,Mymensingh,Mymensingh,Dhobaura,Dobaura,432b21435d38ea11c3cf71b0f254a796
3176,1066008614,893ce242a3bffff,24.626264604729595,90.26909900497313,Fulbaria Road,"Fulbaria Road, Phulbari Mymensingh, Mymensingh District, Mymensingh Division, Bangladesh","ময়মনসিংহ জেলা, ময়মনসিংহ বিভাগ, বাংলাদেশ",Fulbaria Road,,,Phulbari (Mymensingh),বাংলাদেশ,ময়মনসিংহ বিভাগ,street,,,,Bangladesh,Mymensingh,Mymensingh,Fulbaria,FulbariaPaurashava,67975dbbada81173a965dc5187e7fc97
3178,540132646,893ce21429bffff,25.09041805,90.52064384,জনতা ব্যাংক লিমিটেড,"Dhubarua, Mymensingh District, Mymensingh Division, Bangladesh","জনতা ব্যাংক লিমিটেড, ময়মনসিংহ জেলা, ময়মনসিংহ বিভাগ, বাংলাদেশ",,"জনতা ব্যাংক লিমিটেড, ",['Janata Bank Limited'],Dhubarua,বাংলাদেশ,ময়মনসিংহ বিভাগ,local_admin,boundaries,['bank'],[],Bangladesh,Mymensingh,Mymensingh,Dhobaura,Dobaura,432b21435d38ea11c3cf71b0f254a796
3181,540132667,893ce21429bffff,25.08990234,90.51983012,Dhobaura Police Station,"Dhobaura Police Station, Dhubarua, Mymensingh District, Mymensingh Division, Bangladesh","ময়মনসিংহ জেলা, ময়মনসিংহ বিভাগ, বাংলাদেশ","Dhobaura Police Station, ",,,Dhubarua,বাংলাদেশ,ময়মনসিংহ বিভাগ,local_admin,boundaries,['police'],[],Bangladesh,Mymensingh,Mymensingh,Dhobaura,Dobaura,432b21435d38ea11c3cf71b0f254a796
3183,540149330,893ce21428bffff,25.0890541,90.52183619,J M Plaza Dhobaura,"J M Plaza Dhobaura, Dhubarua, Mymensingh District, Mymensingh Division, Bangladesh","ময়মনসিংহ জেলা, ময়মনসিংহ বিভাগ, বাংলাদেশ","J M Plaza Dhobaura, ",,,Dhubarua,বাংলাদেশ,ময়মনসিংহ বিভাগ,local_admin,boundaries,['mall'],[],Bangladesh,Mymensingh,Mymensingh,Dhobaura,Dobaura,432b21435d38ea11c3cf71b0f254a796
3186,540149621,893ce21428bffff,25.08895319,90.52183302,Achol Fashion,"Achol Fashion, Dhubarua, Mymensingh District, Mymensingh Division, Bangladesh","ময়মনসিংহ জেলা, ময়মনসিংহ বিভাগ, বাংলাদেশ","Achol Fashion, ",,,Dhubarua,বাংলাদেশ,ময়মনসিংহ বিভাগ,local_admin,boundaries,['clothes'],[],Bangladesh,Mymensingh,Mymensingh,Dhobaura,Dobaura,432b21435d38ea11c3cf71b0f254a796
3192,540149735,893ce21428bffff,25.08872225,90.52149983,Riaz Electronics রিয়াজ ইলেক্ট্রনিক্স,"Riaz Electronics, Dhubarua, Mymensingh District, Mymensingh Division, Bangladesh","রিয়াজ ইলেক্ট্রনিক্স, ময়মনসিংহ জেলা, ময়মনসিংহ বিভাগ, বাংলাদেশ",,,,Dhubarua,বাংলাদেশ,ময়মনসিংহ বিভাগ,local_admin,boundaries,['electronics'],[],Bangladesh,Mymensingh,Mymensingh,Dhobaura,Dobaura,432b21435d38ea11c3cf71b0f254a796
3195,540149825,893ce2142d7ffff,25.08873619,90.52075931,সোনালী ব্যাংক লিমিটেড,"Dhubarua, Mymensingh District, Mymensingh Division, Bangladesh","সোনালী ব্যাংক লিমিটেড, ময়মনসিংহ জেলা, ময়মনসিংহ বিভাগ, বাংলাদেশ",,"সোনালী ব্যাংক লিমিটেড, ",['Sonali Bank Limited'],Dhubarua,বাংলাদেশ,ময়মনসিংহ বিভাগ,local_admin,boundaries,['bank'],[],Bangladesh,Mymensingh,Mymensingh,Dhobaura,Dobaura,432b21435d38ea11c3cf71b0f254a796
3197,540152941,893ce2142dbffff,25.08389081,90.51572077,স্বর্নালী ফটোষ্ট্যাট এন্ড কম্পিউটার,"Dhubarua, Mymensingh District, Mymensingh Division, Bangladesh","স্বর্নালী ফটোষ্ট্যাট এন্ড কম্পিউটার, ময়মনসিংহ জেলা, ময়মনসিংহ বিভাগ, বাংলাদেশ",,"স্বর্নালী ফটোষ্ট্যাট এন্ড কম্পিউটার, ",,Dhubarua,বাংলাদেশ,ময়মনসিংহ বিভাগ,local_admin,boundaries,['computer'],[],Bangladesh,Mymensingh,Mymensingh,Dhobaura,Dobaura,432b21435d38ea11c3cf71b0f254a796
3200,540153247,893ce2142dbffff,25.08415534,90.51592472,Kajal Restaurant,"Kajal Restaurant, Dhubarua, Mymensingh District, Mymensingh Division, Bangladesh","ময়মনসিংহ জেলা, ময়মনসিংহ বিভাগ, বাংলাদেশ","Kajal Restaurant, ",,,Dhubarua,বাংলাদেশ,ময়মনসিংহ বিভাগ,local_admin,boundaries,['restaurant'],[],Bangladesh,Mymensingh,Mymensingh,Dhobaura,Dobaura,432b21435d38ea11c3cf71b0f254a796
3203,540153355,893ce2142dbffff,25.08421079,90.51597013,Kajol Veraitis Store & Restorant,"Kajol Veraitis Store & Restorant, Dhubarua, Mymensingh District, Mymensingh Division, Bangladesh","ময়মনসিংহ জেলা, ময়মনসিংহ বিভাগ, বাংলাদেশ","Kajol Veraitis Store & Restorant, ",,,Dhubarua,বাংলাদেশ,ময়মনসিংহ বিভাগ,local_admin,boundaries,['restaurant'],[],Bangladesh,Mymensingh,Mymensingh,Dhobaura,Dobaura,432b21435d38ea11c3cf71b0f254a796
3241,278928224,893ce257287ffff,24.74196295,90.2027651,Mymensingh - Tangail Highway,"Mymensingh - Tangail Highway, Muktagacha, Mymensingh District, Mymensingh Division, Bangladesh","ময়মনসিংহ জেলা, ময়মনসিংহ বিভাগ, বাংলাদেশ",Mymensingh - Tangail Highway,,,Muktagacha,বাংলাদেশ,ময়মনসিংহ বিভাগ,street,,,,Bangladesh,Mymensingh,Mymensingh,Muktagachha,Mankon,4934d8e65ef646e40e3d815d8ecf0fab
3244,439867931,893ce25581bffff,24.701002493933014,90.30354179132577,Sharutia Road,"Sharutia Road, Phulbari Mymensingh, Mymensingh District, Mymensingh Division, Bangladesh","ময়মনসিংহ জেলা, ময়মনসিংহ বিভাগ, বাংলাদেশ",Sharutia Road,,,Phulbari (Mymensingh),বাংলাদেশ,ময়মনসিংহ বিভাগ,street,,,,Bangladesh,Mymensingh,Mymensingh,Fulbaria,Balian,e72885f555e25c18fbc861a9837f0438
3271,465315401,893ce21b57bffff,24.921341414524754,90.26077189977262,"dwarakpur,vaitkandi road","dwarakpur vaitkandi road, dwarakpur vaitkandi, Phulpur, Mymensingh District, Mymensingh Division, Bangladesh","road, ময়মনসিংহ জেলা, ময়মনসিংহ বিভাগ, বাংলাদেশ","dwarakpur vaitkandi road, ",,,Phulpur,বাংলাদেশ,ময়মনসিংহ বিভাগ,street,,,,Bangladesh,Mymensingh,Mymensingh,Phulpur,Rambhadrapur,096fdcf8538bdf4435c0fb4ecbaf5cb9
3309,540979167,893cf1b6cc7ffff,24.45260419,90.5007624,Pachua Jame Mosjed,"Pachua Jame Mosjed, Gafargaon, Mymensingh District, Mymensingh Division, Bangladesh","ময়মনসিংহ জেলা, ময়মনসিংহ বিভাগ, বাংলাদেশ","Pachua Jame Mosjed, ",,,Gafargaon,বাংলাদেশ,ময়মনসিংহ বিভাগ,local_admin,boundaries,['place_of_worship_muslim'],[],Bangladesh,Mymensingh,Mymensingh,Gaffargaon,Raona,2c5267d16c9eddfe416a4ec892444d61
3312,540979545,893cf1b6c33ffff,24.45355001,90.51150466,Bharuila Jame Masjid ভারুইল জামে মসজিদ,"Bharuila Jame Masjid, Gafargaon, Mymensingh District, Mymensingh Division, Bangladesh","ভারুইল জামে মসজিদ, ময়মনসিংহ জেলা, ময়মনসিংহ বিভাগ, বাংলাদেশ",,,,Gafargaon,বাংলাদেশ,ময়মনসিংহ বিভাগ,local_admin,boundaries,['place_of_worship_muslim'],[],Bangladesh,Mymensingh,Mymensingh,Gaffargaon,Raona,2c5267d16c9eddfe416a4ec892444d61
3315,540980852,893cf1b6c33ffff,24.45365493,90.51255313,Bharuila Market ভারুইল বাজার,"Bharuila Market, Gafargaon, Mymensingh District, Mymensingh Division, Bangladesh","ভারুইল বাজার, ময়মনসিংহ জেলা, ময়মনসিংহ বিভাগ, বাংলাদেশ",,,,Gafargaon,বাংলাদেশ,ময়মনসিংহ বিভাগ,local_admin,boundaries,['marketplace'],[],Bangladesh,Mymensingh,Mymensingh,Gaffargaon,Raona,2c5267d16c9eddfe416a4ec892444d61
3318,540980937,893cf1b6c3bffff,24.45204648,90.51220836,দক্ষিন পুখুরিয়া বাইতুল হামদ জামে মসজিদ,"Gafargaon, Mymensingh District, Mymensingh Division, Bangladesh","দক্ষিন পুখুরিয়া বাইতুল হামদ জামে মসজিদ, ময়মনসিংহ জেলা, ময়মনসিংহ বিভাগ, বাংলাদেশ",,"দক্ষিন পুখুরিয়া বাইতুল হামদ জামে মসজিদ, ",,Gafargaon,বাংলাদেশ,ময়মনসিংহ বিভাগ,local_admin,boundaries,['place_of_worship_muslim'],[],Bangladesh,Mymensingh,Mymensingh,Gaffargaon,Raona,2c5267d16c9eddfe416a4ec892444d61
3320,540984733,893cf1b6d47ffff,24.45373659,90.52750389,দক্ষিণ পুখুরিয়া জামে মসজিদ,"Gafargaon, Mymensingh District, Mymensingh Division, Bangladesh","দক্ষিণ পুখুরিয়া জামে মসজিদ, ময়মনসিংহ জেলা, ময়মনসিংহ বিভাগ, বাংলাদেশ",,"দক্ষিণ পুখুরিয়া জামে মসজিদ, ",,Gafargaon,বাংলাদেশ,ময়মনসিংহ বিভাগ,local_admin,boundaries,['place_of_worship_muslim'],[],Bangladesh,Mymensingh,Mymensingh,Gaffargaon,Saltia,11ab9d16a1f878fb7d724d3e13a9735d
3323,540984827,893cf1b6dcfffff,24.4559135,90.52399001,পুখুরিয়া পশ্চিমপাড়া জামে মসজিদ,"Gafargaon, Mymensingh District, Mymensingh Division, Bangladesh","পুখুরিয়া পশ্চিমপাড়া জামে মসজিদ, ময়মনসিংহ জেলা, ময়মনসিংহ বিভাগ, বাংলাদেশ",,"পুখুরিয়া পশ্চিমপাড়া জামে মসজিদ, ",,Gafargaon,বাংলাদেশ,ময়মনসিংহ বিভাগ,local_admin,boundaries,['place_of_worship_muslim'],[],Bangladesh,Mymensingh,Mymensingh,Gaffargaon,Saltia,11ab9d16a1f878fb7d724d3e13a9735d
3326,540984909,893cf1b6d57ffff,24.45599182,90.52640568,কারকুনবাড়ি কালী মন্দির,"Gafargaon, Mymensingh District, Mymensingh Division, Bangladesh","কারকুনবাড়ি কালী মন্দির, ময়মনসিংহ জেলা, ময়মনসিংহ বিভাগ, বাংলাদেশ",,"কারকুনবাড়ি কালী মন্দির, ",,Gafargaon,বাংলাদেশ,ময়মনসিংহ বিভাগ,local_admin,boundaries,['place_of_worship'],[],Bangladesh,Mymensingh,Mymensingh,Gaffargaon,Saltia,11ab9d16a1f878fb7d724d3e13a9735d
3328,540985291,893cf1b6d2bffff,24.45610335,90.53999403,ব্র্যাক ব্যাংক,"Gafargaon, Mymensingh District, Mymensingh Division, Bangladesh","ব্র্যাক ব্যাংক, ময়মনসিংহ জেলা, ময়মনসিংহ বিভাগ, বাংলাদেশ",,"ব্র্যাক ব্যাংক, ",,Gafargaon,বাংলাদেশ,ময়মনসিংহ বিভাগ,local_admin,boundaries,['bank'],[],Bangladesh,Mymensingh,Mymensingh,Gaffargaon,GaffargaonPaurashava,2fbd2e55da15183cfc84d321d366f665
3331,540985325,893cf1b6d2fffff,24.45625209,90.54229244,Gafargaon Bus Stand Mosque,"Gafargaon Bus Stand Mosque, Gafargaon, Mymensingh District, Mymensingh Division, Bangladesh","ময়মনসিংহ জেলা, ময়মনসিংহ বিভাগ, বাংলাদেশ","Gafargaon Bus Stand Mosque, ",,,Gafargaon,বাংলাদেশ,ময়মনসিংহ বিভাগ,local_admin,boundaries,['place_of_worship_muslim'],[],Bangladesh,Mymensingh,Mymensingh,Gaffargaon,GaffargaonPaurashava,2fbd2e55da15183cfc84d321d366f665
3334,540985499,893ce279a5bffff,24.45659281,90.54524211,Gafargaon - Bhaluka CNG Stand গফরগাঁও - ভালুকা সিএনজি স্ট্যান্ড,"Gafargaon - Bhaluka CNG Stand -, Gafargaon, Mymensingh District, Mymensingh Division, Bangladesh","গফরগাঁও ভালুকা সিএনজি স্ট্যান্ড, ময়মনসিংহ জেলা, ময়মনসিংহ বিভাগ, বাংলাদেশ",,,,Gafargaon,বাংলাদেশ,ময়মনসিংহ বিভাগ,local_admin,boundaries,['fuel'],[],Bangladesh,Mymensingh,Mymensingh,Gaffargaon,GaffargaonPaurashava,2fbd2e55da15183cfc84d321d366f665
3338,540985722,893ce279a5bffff,24.45682581,90.54635423,Maisha Medical Hall,"Maisha Medical Hall, Gafargaon, Mymensingh District, Mymensingh Division, Bangladesh","ময়মনসিংহ জেলা, ময়মনসিংহ বিভাগ, বাংলাদেশ","Maisha Medical Hall, ",,,Gafargaon,বাংলাদেশ,ময়মনসিংহ বিভাগ,local_admin,boundaries,['pharmacy'],[],Bangladesh,Mymensingh,Mymensingh,Gaffargaon,GaffargaonPaurashava,2fbd2e55da15183cfc84d321d366f665
