,osm_id,h3level9,lat,lon,name,name_en,name_bn,need_translate_en2bn,need_translate_bn2en,alt_names,local_admin_name,admin0_name,admin2_name,addr_level,poi_addr_match,poi_class,poi_keywords,country,division,district,thana,union,region_hash
60,2343344189,893cc618ab3ffff,23.0601569,90.969302,Chatkhil Upazila Health Complex,"Chatkhil Upazila Health Complex, Chatkhil, Noakhali District, Chattogram Division, Bangladesh","নোয়াখালী জেলা, চট্টগ্রাম বিভাগ, বাংলাদেশ","Chatkhil Upazila Health Complex, ",,,Chatkhil,বাংলাদেশ,চট্টগ্রাম বিভাগ,local_admin,boundaries,['hospital'],[],Bangladesh,Chittagong,Noakhali,Chatkhil,ChatkhilPaurashava,b6a76c997c917a98910a12b806c82d37
94,835165304,893cc60ab33ffff,23.004028,91.09305,Bazra masjid,"Bazra masjid, Begumganj, Noakhali District, Chattogram Division, Bangladesh","নোয়াখালী জেলা, চট্টগ্রাম বিভাগ, বাংলাদেশ","Bazra masjid, ",,,Begumganj,বাংলাদেশ,চট্টগ্রাম বিভাগ,local_admin,boundaries,['place_of_worship_muslim'],[],Bangladesh,Chittagong,Noakhali,Sonaimuri,Bazra,39e2f93186b75b5b539bdbb24a11dbd0
97,835168094,893cc6730a3ffff,22.864908,91.098666,Noakhali Zila Jama Masjid,"Noakhali Zila Jama Masjid, Noakhali, Noakhali District, Chattogram Division, Bangladesh","নোয়াখালী জেলা, চট্টগ্রাম বিভাগ, বাংলাদেশ","Noakhali Zila Jama Masjid, ",,,Noakhali,বাংলাদেশ,চট্টগ্রাম বিভাগ,local_admin,boundaries,['place_of_worship_muslim'],[],Bangladesh,Chittagong,Noakhali,NoakhaliSadar(Sudharam),KadirHanif,42ce4fc063e26947bceed975c8c3cb33
105,2343341315,893cc60ab33ffff,23.0025372,91.0952915,Begumganj Upazila Health Complex,"Begumganj Upazila Health Complex, Begumganj, Noakhali District, Chattogram Division, Bangladesh","নোয়াখালী জেলা, চট্টগ্রাম বিভাগ, বাংলাদেশ","Begumganj Upazila Health Complex, ",,,Begumganj,বাংলাদেশ,চট্টগ্রাম বিভাগ,local_admin,boundaries,['hospital'],[],Bangladesh,Chittagong,Noakhali,Sonaimuri,Bazra,39e2f93186b75b5b539bdbb24a11dbd0
110,2345800569,893cc671483ffff,22.8281912,91.0996006,সোনাপুর কলেজ,"Noakhali, Noakhali District, Chattogram Division, Bangladesh","সোনাপুর কলেজ, নোয়াখালী জেলা, চট্টগ্রাম বিভাগ, বাংলাদেশ",,"সোনাপুর কলেজ, ",['Sonapur College'],Noakhali,বাংলাদেশ,চট্টগ্রাম বিভাগ,local_admin,boundaries,['college'],[],Bangladesh,Chittagong,Noakhali,NoakhaliSadar(Sudharam),NoakhaliPaurashava,3e63313d46b19bdcf4b5d56033e480ec
119,2388373317,893cc67148bffff,22.823948,91.098423,Sonapur Bus Terminal,"Sonapur Bus Terminal, Noakhali, Noakhali District, Chattogram Division, Bangladesh","নোয়াখালী জেলা, চট্টগ্রাম বিভাগ, বাংলাদেশ",Sonapur Bus Terminal,,,Noakhali,বাংলাদেশ,চট্টগ্রাম বিভাগ,street,boundaries,['bus_stop'],[],Bangladesh,Chittagong,Noakhali,NoakhaliSadar(Sudharam),NoakhaliPaurashava,3e63313d46b19bdcf4b5d56033e480ec
123,2388381732,893cc644e4fffff,22.790180499999998,91.0260038,Cormulla Bazar,"Cormulla Bazar, Noakhali, Noakhali District, Chattogram Division, Bangladesh","নোয়াখালী জেলা, চট্টগ্রাম বিভাগ, বাংলাদেশ","Cormulla Bazar, ",,,Noakhali,বাংলাদেশ,চট্টগ্রাম বিভাগ,local_admin,boundaries,['marketplace'],[],Bangladesh,Chittagong,Noakhali,NoakhaliSadar(Sudharam),Kaladaraf,2ae4cd643e1130c5301ed7da962f9fbd
128,2559269307,893cd5af477ffff,22.2927099,91.0736132,,"Noakhali District, Chattogram Division, Bangladesh","নোয়াখালী জেলা, চট্টগ্রাম বিভাগ, বাংলাদেশ",,,,,বাংলাদেশ,চট্টগ্রাম বিভাগ,admin2,boundaries,['ferry_terminal'],[],Bangladesh,Chittagong,Noakhali,Hatiya,Tamaruddin,c7af27b3439265cb8b3ae591bf9d7ae3
138,2572038881,893cc601a03ffff,23.0440112,91.0986423,সোনাইমুড়ি,"Begumganj, Noakhali District, Chattogram Division, Bangladesh","সোনাইমুড়ি, নোয়াখালী জেলা, চট্টগ্রাম বিভাগ, বাংলাদেশ",,"সোনাইমুড়ি, ",['Sonaimuri'],Begumganj,বাংলাদেশ,চট্টগ্রাম বিভাগ,local_admin,boundaries,['railway_station'],[],Bangladesh,Chittagong,Noakhali,Sonaimuri,SonaimuriPaurashava,550217582db3212d1fa05b1d53b6864c
148,2581109999,893cd532687ffff,22.1765068,91.0557872,,"Noakhali District, Chattogram Division, Bangladesh","নোয়াখালী জেলা, চট্টগ্রাম বিভাগ, বাংলাদেশ",,,,,বাংলাদেশ,চট্টগ্রাম বিভাগ,admin2,boundaries,['ford'],[],Bangladesh,Chittagong,Noakhali,Hatiya,Jahajmara,ae112db5dd64c2f6c5d7e3a919929b55
262,3579941404,893cd504b17ffff,22.0604673,91.02711,বন্দরটিলা বাজার,"Nijhum Dip, Noakhali District, Chattogram Division, Bangladesh","বন্দরটিলা বাজার, নোয়াখালী জেলা, চট্টগ্রাম বিভাগ, বাংলাদেশ",,"বন্দরটিলা বাজার, ",['Bondortila Bazar'],,বাংলাদেশ,চট্টগ্রাম বিভাগ,admin2,boundaries,['marketplace'],[],Bangladesh,Chittagong,Noakhali,Hatiya,NijumDip,bc4430816d69609b22001941b28ed135
442,4334254937,893cd505d77ffff,22.0401174,90.9817207,Hotel Shahin,"Hotel Shahin, Nijhum Dip, Noakhali District, Chattogram Division, Bangladesh","নোয়াখালী জেলা, চট্টগ্রাম বিভাগ, বাংলাদেশ","Hotel Shahin, ",,,,বাংলাদেশ,চট্টগ্রাম বিভাগ,admin2,boundaries,['hotel'],[],Bangladesh,Chittagong,Noakhali,Hatiya,NijumDip,bc4430816d69609b22001941b28ed135
619,4936085723,893cc61887bffff,23.0634466,90.9716051,,"Chatkhil, Noakhali District, Chattogram Division, Bangladesh","নোয়াখালী জেলা, চট্টগ্রাম বিভাগ, বাংলাদেশ",,,['daroga bari'],Chatkhil,বাংলাদেশ,চট্টগ্রাম বিভাগ,local_admin,boundaries,['viewpoint'],[],Bangladesh,Chittagong,Noakhali,Chatkhil,ChatkhilPaurashava,b6a76c997c917a98910a12b806c82d37
679,4315672008,893cc67355bffff,22.87208,91.0899083,Good Heal,"Good Heal, Noakhali, Noakhali District, Chattogram Division, Bangladesh","নোয়াখালী জেলা, চট্টগ্রাম বিভাগ, বাংলাদেশ","Good Heal, ",,,Noakhali,বাংলাদেশ,চট্টগ্রাম বিভাগ,local_admin,boundaries,['hospital'],[],Bangladesh,Chittagong,Noakhali,NoakhaliSadar(Sudharam),KadirHanif,42ce4fc063e26947bceed975c8c3cb33
683,4348318005,893cc673543ffff,22.8718282,91.09171,Prime Hospital,"Prime Hospital, Noakhali, Noakhali District, Chattogram Division, Bangladesh","নোয়াখালী জেলা, চট্টগ্রাম বিভাগ, বাংলাদেশ","Prime Hospital, ",,,Noakhali,বাংলাদেশ,চট্টগ্রাম বিভাগ,local_admin,boundaries,['hospital'],[],Bangladesh,Chittagong,Noakhali,NoakhaliSadar(Sudharam),KadirHanif,42ce4fc063e26947bceed975c8c3cb33
869,4636544761,893cd5af477ffff,22.2926584,91.0742147,,"Noakhali District, Chattogram Division, Bangladesh","নোয়াখালী জেলা, চট্টগ্রাম বিভাগ, বাংলাদেশ",,,,,বাংলাদেশ,চট্টগ্রাম বিভাগ,admin2,boundaries,['ferry_terminal'],[],Bangladesh,Chittagong,Noakhali,Hatiya,Tamaruddin,c7af27b3439265cb8b3ae591bf9d7ae3
874,4636544781,893cd5b4373ffff,22.522041,91.0893213,,"Noakhali District, Chattogram Division, Bangladesh","নোয়াখালী জেলা, চট্টগ্রাম বিভাগ, বাংলাদেশ",,,,,বাংলাদেশ,চট্টগ্রাম বিভাগ,admin2,boundaries,['ferry_terminal'],[],Bangladesh,Chittagong,Noakhali,Hatiya,Chandnandi,9018337a8ed68bc8172c5c2fd2f88ba2
934,5062447119,893cd5326c3ffff,22.1709117,91.0470311,,"Noakhali District, Chattogram Division, Bangladesh","নোয়াখালী জেলা, চট্টগ্রাম বিভাগ, বাংলাদেশ",,,,,বাংলাদেশ,চট্টগ্রাম বিভাগ,admin2,boundaries,['ford'],[],Bangladesh,Chittagong,Noakhali,Hatiya,Jahajmara,ae112db5dd64c2f6c5d7e3a919929b55
936,5084551221,893cc6736d7ffff,22.8538904,91.0592417,,"Noakhali, Noakhali District, Chattogram Division, Bangladesh","নোয়াখালী জেলা, চট্টগ্রাম বিভাগ, বাংলাদেশ",,,,Noakhali,বাংলাদেশ,চট্টগ্রাম বিভাগ,local_admin,boundaries,['atm'],[],Bangladesh,Chittagong,Noakhali,NoakhaliSadar(Sudharam),Noannai,f701c5834aa2a3f8d14d905ac6126ee8
1127,5205640429,893cc6730bbffff,22.8644179,91.0929402,,"Noakhali, Noakhali District, Chattogram Division, Bangladesh","নোয়াখালী জেলা, চট্টগ্রাম বিভাগ, বাংলাদেশ",,,,Noakhali,বাংলাদেশ,চট্টগ্রাম বিভাগ,local_admin,boundaries,['park'],[],Bangladesh,Chittagong,Noakhali,NoakhaliSadar(Sudharam),KadirHanif,42ce4fc063e26947bceed975c8c3cb33
1344,6216511328,893cc67918bffff,22.66021,91.0984182,Char Jabbar Degree College,"Char Jabbar Degree College, Noakhali, Noakhali District, Chattogram Division, Bangladesh","নোয়াখালী জেলা, চট্টগ্রাম বিভাগ, বাংলাদেশ","Char Jabbar Degree College, ",,,Noakhali,বাংলাদেশ,চট্টগ্রাম বিভাগ,local_admin,boundaries,['college'],[],Bangladesh,Chittagong,Noakhali,Subarnachar,CharJubille,143a440a2210f35d17125579185de6cf
1382,6776668586,893cc6736d7ffff,22.8536264,91.0592855,,"Noakhali, Noakhali District, Chattogram Division, Bangladesh","নোয়াখালী জেলা, চট্টগ্রাম বিভাগ, বাংলাদেশ",,,,Noakhali,বাংলাদেশ,চট্টগ্রাম বিভাগ,local_admin,boundaries,['telephone'],[],Bangladesh,Chittagong,Noakhali,NoakhaliSadar(Sudharam),Noannai,f701c5834aa2a3f8d14d905ac6126ee8
1490,7036439786,893cc60146bffff,23.074174,91.0228834,,"Begumganj, Noakhali District, Chattogram Division, Bangladesh","নোয়াখালী জেলা, চট্টগ্রাম বিভাগ, বাংলাদেশ",,,['Nasir store'],Begumganj,বাংলাদেশ,চট্টগ্রাম বিভাগ,local_admin,boundaries,['variety_store'],[],Bangladesh,Chittagong,Noakhali,Sonaimuri,Jayag,b8cba2c1cb1f01824249c5f8a1af4fb0
1563,8434371300,893cd5b434bffff,22.5168992,91.0813553,,"Noakhali District, Chattogram Division, Bangladesh","নোয়াখালী জেলা, চট্টগ্রাম বিভাগ, বাংলাদেশ",,,,,বাংলাদেশ,চট্টগ্রাম বিভাগ,admin2,boundaries,['ferry_terminal'],[],Bangladesh,Chittagong,Noakhali,Hatiya,Harni,cb1e0d82e08fb9062100eb5755ab684e
1570,8487571036,893cc672657ffff,22.8995376,91.0998939,Noakhali Technical Training Institute,"Noakhali Technical Training Institute, Begumganj, Noakhali District, Chattogram Division, Bangladesh","নোয়াখালী জেলা, চট্টগ্রাম বিভাগ, বাংলাদেশ","Noakhali Technical Training Institute, ",,['নোয়াখালী কারিগরী প্রশিক্ষণ কেন্দ্র'],Begumganj,বাংলাদেশ,চট্টগ্রাম বিভাগ,local_admin,boundaries,['government'],[],Bangladesh,Chittagong,Noakhali,Begumganj,Eklashpur,adf22d722a7b0f5e23004debfd735805
1576,8487573480,893cc6735b3ffff,22.8906756,91.0988689,Noakhali Television Sub-Station,"Noakhali Television Sub-Station, Begumganj, Noakhali District, Chattogram Division, Bangladesh","নোয়াখালী জেলা, চট্টগ্রাম বিভাগ, বাংলাদেশ","Noakhali Television Sub-Station, ",,,Begumganj,বাংলাদেশ,চট্টগ্রাম বিভাগ,local_admin,boundaries,['government'],[],Bangladesh,Chittagong,Noakhali,Begumganj,Eklashpur,adf22d722a7b0f5e23004debfd735805
1581,8487585784,893cc673587ffff,22.8875859,91.0971514,Tax Office Noakhali,"Tax Office Noakhali, Begumganj, Noakhali District, Chattogram Division, Bangladesh","নোয়াখালী জেলা, চট্টগ্রাম বিভাগ, বাংলাদেশ","Tax Office Noakhali, ",,,Begumganj,বাংলাদেশ,চট্টগ্রাম বিভাগ,local_admin,boundaries,['government'],[],Bangladesh,Chittagong,Noakhali,Begumganj,Eklashpur,adf22d722a7b0f5e23004debfd735805
1586,8487598905,893cc6730b7ffff,22.869153,91.0972013,Noakhali Post Office,"Noakhali Post Office, Noakhali, Noakhali District, Chattogram Division, Bangladesh","নোয়াখালী জেলা, চট্টগ্রাম বিভাগ, বাংলাদেশ","Noakhali Post Office, ",,,Noakhali,বাংলাদেশ,চট্টগ্রাম বিভাগ,local_admin,boundaries,['post_office'],[],Bangladesh,Chittagong,Noakhali,NoakhaliSadar(Sudharam),NoakhaliPaurashava,3e63313d46b19bdcf4b5d56033e480ec
1593,8490964435,893cc609877ffff,22.9077326,91.0684549,,"Begumganj, Noakhali District, Chattogram Division, Bangladesh","নোয়াখালী জেলা, চট্টগ্রাম বিভাগ, বাংলাদেশ",,,,Begumganj,বাংলাদেশ,চট্টগ্রাম বিভাগ,local_admin,boundaries,['ford'],[],Bangladesh,Chittagong,Noakhali,Begumganj,Rajganj,fc89be65284b3484095f595280b663d2
1599,8490964436,893cc60994fffff,22.9086572,91.0836893,,"Begumganj, Noakhali District, Chattogram Division, Bangladesh","নোয়াখালী জেলা, চট্টগ্রাম বিভাগ, বাংলাদেশ",,,,Begumganj,বাংলাদেশ,চট্টগ্রাম বিভাগ,local_admin,boundaries,['ford'],[],Bangladesh,Chittagong,Noakhali,Begumganj,Jirtali,69abc747f63bbd941ced0dab92b2de64
1604,8490964437,893cc60990fffff,22.9161602,91.0895356,,"Begumganj, Noakhali District, Chattogram Division, Bangladesh","নোয়াখালী জেলা, চট্টগ্রাম বিভাগ, বাংলাদেশ",,,,Begumganj,বাংলাদেশ,চট্টগ্রাম বিভাগ,local_admin,boundaries,['ford'],[],Bangladesh,Chittagong,Noakhali,Begumganj,Begumganj,890a50ee7106252152efe58d64ba9f99
1608,8719765002,893cc60817bffff,22.9634507,91.0560685,Patwary Pharmacy,"Patwary Pharmacy, Begumganj, Noakhali District, Chattogram Division, Bangladesh","নোয়াখালী জেলা, চট্টগ্রাম বিভাগ, বাংলাদেশ","Patwary Pharmacy, ",,,Begumganj,বাংলাদেশ,চট্টগ্রাম বিভাগ,local_admin,boundaries,['pharmacy'],[],Bangladesh,Chittagong,Noakhali,Begumganj,Gopalpur,25ad15e5c9dc8bac780eeacdb0ed2788
1614,8813723871,893cc673547ffff,22.875434,91.0971362,Popular Diagnostic center,"Popular Diagnostic center, Noakhali, Noakhali District, Chattogram Division, Bangladesh","নোয়াখালী জেলা, চট্টগ্রাম বিভাগ, বাংলাদেশ","Popular Diagnostic center, ",,,Noakhali,বাংলাদেশ,চট্টগ্রাম বিভাগ,local_admin,boundaries,['hospital'],[],Bangladesh,Chittagong,Noakhali,NoakhaliSadar(Sudharam),KadirHanif,42ce4fc063e26947bceed975c8c3cb33
1628,9152839400,893cd5af20bffff,22.2562692,91.0790591,পপুলার ফার্মেসী,"Noakhali District, Chattogram Division, Bangladesh","পপুলার ফার্মেসী, নোয়াখালী জেলা, চট্টগ্রাম বিভাগ, বাংলাদেশ",,"পপুলার ফার্মেসী, ",,,বাংলাদেশ,চট্টগ্রাম বিভাগ,admin2,boundaries,['pharmacy'],[],Bangladesh,Chittagong,Noakhali,Hatiya,Tamaruddin,c7af27b3439265cb8b3ae591bf9d7ae3
1633,9152839401,893cd5ad497ffff,22.2548909,91.0957998,মাইজচরা গণিয়া ইসলামিয়া দাখিল মাদ্রাসা,"Noakhali District, Chattogram Division, Bangladesh","মাইজচরা গণিয়া ইসলামিয়া দাখিল মাদ্রাসা, নোয়াখালী জেলা, চট্টগ্রাম বিভাগ, বাংলাদেশ",,"মাইজচরা গণিয়া ইসলামিয়া দাখিল মাদ্রাসা, ",,,বাংলাদেশ,চট্টগ্রাম বিভাগ,admin2,boundaries,['school'],[],Bangladesh,Chittagong,Noakhali,Hatiya,Tamaruddin,c7af27b3439265cb8b3ae591bf9d7ae3
1637,9152869034,893cd53064fffff,22.1045485,91.0817361,BirBiri Bazar Jame Mosque,"BirBiri Bazar Jame Mosque, Noakhali District, Chattogram Division, Bangladesh","নোয়াখালী জেলা, চট্টগ্রাম বিভাগ, বাংলাদেশ","BirBiri Bazar Jame Mosque, ",,,,বাংলাদেশ,চট্টগ্রাম বিভাগ,admin2,boundaries,['place_of_worship_muslim'],[],Bangladesh,Chittagong,Noakhali,Hatiya,Jahajmara,ae112db5dd64c2f6c5d7e3a919929b55
1640,9152869035,893cd532383ffff,22.168467,91.092871,বিরবিরি বাজার,"Noakhali District, Chattogram Division, Bangladesh","বিরবিরি বাজার, নোয়াখালী জেলা, চট্টগ্রাম বিভাগ, বাংলাদেশ",,"বিরবিরি বাজার, ",,,বাংলাদেশ,চট্টগ্রাম বিভাগ,admin2,boundaries,['marketplace'],[],Bangladesh,Chittagong,Noakhali,Hatiya,Jahajmara,ae112db5dd64c2f6c5d7e3a919929b55
1645,9152869036,893cd532393ffff,22.1691904,91.0921473,মাতৃ মেডিকেল হল,"Noakhali District, Chattogram Division, Bangladesh","মাতৃ মেডিকেল হল, নোয়াখালী জেলা, চট্টগ্রাম বিভাগ, বাংলাদেশ",,"মাতৃ মেডিকেল হল, ",,,বাংলাদেশ,চট্টগ্রাম বিভাগ,admin2,boundaries,['pharmacy'],[],Bangladesh,Chittagong,Noakhali,Hatiya,Jahajmara,ae112db5dd64c2f6c5d7e3a919929b55
1650,9152869037,893cd53242fffff,22.1884251,91.0725332,কমিউনিটি ক্লিনিক,"Noakhali District, Chattogram Division, Bangladesh","কমিউনিটি ক্লিনিক, নোয়াখালী জেলা, চট্টগ্রাম বিভাগ, বাংলাদেশ",,"কমিউনিটি ক্লিনিক, ",,,বাংলাদেশ,চট্টগ্রাম বিভাগ,admin2,boundaries,['clinic'],[],Bangladesh,Chittagong,Noakhali,Hatiya,Sonadia,f8c1e07c81a5cbbc101b6ffc3832474b
1654,9152869038,893cd53242bffff,22.1881663,91.071303,Chowrasta Bazar jame Mosjid,"Chowrasta Bazar jame Mosjid, Noakhali District, Chattogram Division, Bangladesh","নোয়াখালী জেলা, চট্টগ্রাম বিভাগ, বাংলাদেশ","Chowrasta Bazar jame Mosjid, ",,,,বাংলাদেশ,চট্টগ্রাম বিভাগ,admin2,boundaries,['place_of_worship_muslim'],[],Bangladesh,Chittagong,Noakhali,Hatiya,Sonadia,f8c1e07c81a5cbbc101b6ffc3832474b
1658,9152869051,893cd530453ffff,22.1320921,91.0842605,Public Toilet,"Public Toilet, Noakhali District, Chattogram Division, Bangladesh","নোয়াখালী জেলা, চট্টগ্রাম বিভাগ, বাংলাদেশ","Public Toilet, ",,,,বাংলাদেশ,চট্টগ্রাম বিভাগ,admin2,boundaries,['toilets'],[],Bangladesh,Chittagong,Noakhali,Hatiya,Jahajmara,ae112db5dd64c2f6c5d7e3a919929b55
1664,9152869052,893cd530453ffff,22.1322536,91.0839296,Mohammad Pur Jame Masjid,"Mohammad Pur Jame Masjid, Noakhali District, Chattogram Division, Bangladesh","নোয়াখালী জেলা, চট্টগ্রাম বিভাগ, বাংলাদেশ","Mohammad Pur Jame Masjid, ",,,,বাংলাদেশ,চট্টগ্রাম বিভাগ,admin2,boundaries,['place_of_worship_muslim'],[],Bangladesh,Chittagong,Noakhali,Hatiya,Jahajmara,ae112db5dd64c2f6c5d7e3a919929b55
1671,9152869053,893cd530453ffff,22.1320629,91.0830737,শাকিব এলেক্ট্রনিকস,"Noakhali District, Chattogram Division, Bangladesh","শাকিব এলেক্ট্রনিকস, নোয়াখালী জেলা, চট্টগ্রাম বিভাগ, বাংলাদেশ",,"শাকিব এলেক্ট্রনিকস, ",,,বাংলাদেশ,চট্টগ্রাম বিভাগ,admin2,boundaries,['electronics'],[],Bangladesh,Chittagong,Noakhali,Hatiya,Jahajmara,ae112db5dd64c2f6c5d7e3a919929b55
1679,9152869054,893cd530453ffff,22.1318411,91.082501,Abdullah Hotel and Restaurant,"Abdullah Hotel and Restaurant, Noakhali District, Chattogram Division, Bangladesh","নোয়াখালী জেলা, চট্টগ্রাম বিভাগ, বাংলাদেশ","Abdullah Hotel and Restaurant, ",,,,বাংলাদেশ,চট্টগ্রাম বিভাগ,admin2,boundaries,['restaurant'],[],Bangladesh,Chittagong,Noakhali,Hatiya,Jahajmara,ae112db5dd64c2f6c5d7e3a919929b55
1683,9152869056,893cd53310bffff,22.1276238,91.0681918,Amonot market,"Amonot market, Noakhali District, Chattogram Division, Bangladesh","নোয়াখালী জেলা, চট্টগ্রাম বিভাগ, বাংলাদেশ","Amonot market, ",,,,বাংলাদেশ,চট্টগ্রাম বিভাগ,admin2,boundaries,['marketplace'],[],Bangladesh,Chittagong,Noakhali,Hatiya,Jahajmara,ae112db5dd64c2f6c5d7e3a919929b55
1688,9152869057,893cd5333afffff,22.1132726,91.0693086,হাসেম মার্কেট,"Noakhali District, Chattogram Division, Bangladesh","হাসেম মার্কেট, নোয়াখালী জেলা, চট্টগ্রাম বিভাগ, বাংলাদেশ",,"হাসেম মার্কেট, ",,,বাংলাদেশ,চট্টগ্রাম বিভাগ,admin2,boundaries,['marketplace'],[],Bangladesh,Chittagong,Noakhali,Hatiya,Jahajmara,ae112db5dd64c2f6c5d7e3a919929b55
1701,9152869092,893cd5321d3ffff,22.186536,91.0924919,দক্ষিণ সোনাদিয়া সরকারী প্রাথমিক বিদ্যালয়,"Noakhali District, Chattogram Division, Bangladesh","দক্ষিণ সোনাদিয়া সরকারী প্রাথমিক বিদ্যালয়, নোয়াখালী জেলা, চট্টগ্রাম বিভাগ, বাংলাদেশ",,"দক্ষিণ সোনাদিয়া সরকারী প্রাথমিক বিদ্যালয়, ",,,বাংলাদেশ,চট্টগ্রাম বিভাগ,admin2,boundaries,['school'],[],Bangladesh,Chittagong,Noakhali,Hatiya,Sonadia,f8c1e07c81a5cbbc101b6ffc3832474b
1707,9152869096,893cd532027ffff,22.1771241,91.0929093,মদিন নগর,"Noakhali District, Chattogram Division, Bangladesh","মদিন নগর, নোয়াখালী জেলা, চট্টগ্রাম বিভাগ, বাংলাদেশ",,"মদিন নগর, ",,,বাংলাদেশ,চট্টগ্রাম বিভাগ,admin2,boundaries,['marketplace'],[],Bangladesh,Chittagong,Noakhali,Hatiya,Sonadia,f8c1e07c81a5cbbc101b6ffc3832474b
1712,9152869097,893cd532603ffff,22.1678422,91.0557745,Char Varot Sen Primary School,"Char Varot Sen Primary School, Noakhali District, Chattogram Division, Bangladesh","নোয়াখালী জেলা, চট্টগ্রাম বিভাগ, বাংলাদেশ","Char Varot Sen Primary School, ",,,,বাংলাদেশ,চট্টগ্রাম বিভাগ,admin2,boundaries,['school'],[],Bangladesh,Chittagong,Noakhali,Hatiya,Jahajmara,ae112db5dd64c2f6c5d7e3a919929b55
1716,9152869098,893cd53263bffff,22.1692906,91.061627,উওর পশ্চিম জাহাজমারা জামে মসজিদ,"Noakhali District, Chattogram Division, Bangladesh","উওর পশ্চিম জাহাজমারা জামে মসজিদ, নোয়াখালী জেলা, চট্টগ্রাম বিভাগ, বাংলাদেশ",,"উওর পশ্চিম জাহাজমারা জামে মসজিদ, ",,,বাংলাদেশ,চট্টগ্রাম বিভাগ,admin2,boundaries,['place_of_worship_muslim'],[],Bangladesh,Chittagong,Noakhali,Hatiya,Jahajmara,ae112db5dd64c2f6c5d7e3a919929b55
1721,9152869099,893cd532047ffff,22.1681601,91.0768839,হাজী খান সফিউল আহমেদ জামে মসজিদ,"Noakhali District, Chattogram Division, Bangladesh","হাজী খান সফিউল আহমেদ জামে মসজিদ, নোয়াখালী জেলা, চট্টগ্রাম বিভাগ, বাংলাদেশ",,"হাজী খান সফিউল আহমেদ জামে মসজিদ, ",,,বাংলাদেশ,চট্টগ্রাম বিভাগ,admin2,boundaries,['place_of_worship_muslim'],[],Bangladesh,Chittagong,Noakhali,Hatiya,Jahajmara,ae112db5dd64c2f6c5d7e3a919929b55
1728,9152869100,893cd53262fffff,22.1660515,91.0691872,আলু আলাগো মসজিদ,"Noakhali District, Chattogram Division, Bangladesh","আলু আলাগো মসজিদ, নোয়াখালী জেলা, চট্টগ্রাম বিভাগ, বাংলাদেশ",,"আলু আলাগো মসজিদ, ",,,বাংলাদেশ,চট্টগ্রাম বিভাগ,admin2,boundaries,['place_of_worship_muslim'],[],Bangladesh,Chittagong,Noakhali,Hatiya,Jahajmara,ae112db5dd64c2f6c5d7e3a919929b55
1731,9152869101,893cd53228bffff,22.1588609,91.0697464,জাহাজমারা মহিলা দাখিল মাদরাসা,"Noakhali District, Chattogram Division, Bangladesh","জাহাজমারা মহিলা দাখিল মাদরাসা, নোয়াখালী জেলা, চট্টগ্রাম বিভাগ, বাংলাদেশ",,"জাহাজমারা মহিলা দাখিল মাদরাসা, ",,,বাংলাদেশ,চট্টগ্রাম বিভাগ,admin2,boundaries,['school'],[],Bangladesh,Chittagong,Noakhali,Hatiya,Jahajmara,ae112db5dd64c2f6c5d7e3a919929b55
1737,9152869106,893cd53266bffff,22.1573878,91.0595708,তালিমুস সালাত জামে মসজিদ,"Noakhali District, Chattogram Division, Bangladesh","তালিমুস সালাত জামে মসজিদ, নোয়াখালী জেলা, চট্টগ্রাম বিভাগ, বাংলাদেশ",,"তালিমুস সালাত জামে মসজিদ, ",,,বাংলাদেশ,চট্টগ্রাম বিভাগ,admin2,boundaries,['place_of_worship_muslim'],[],Bangladesh,Chittagong,Noakhali,Hatiya,Jahajmara,ae112db5dd64c2f6c5d7e3a919929b55
1742,9152869107,893cd532283ffff,22.1609978,91.0694145,তাহের মার্কেট,"Noakhali District, Chattogram Division, Bangladesh","তাহের মার্কেট, নোয়াখালী জেলা, চট্টগ্রাম বিভাগ, বাংলাদেশ",,"তাহের মার্কেট, ",,,বাংলাদেশ,চট্টগ্রাম বিভাগ,admin2,boundaries,['marketplace'],[],Bangladesh,Chittagong,Noakhali,Hatiya,Jahajmara,ae112db5dd64c2f6c5d7e3a919929b55
1745,9152869157,893cd5ad6bbffff,22.2259921,91.0931836,zaber chowdory market,"zaber chowdory market, Noakhali District, Chattogram Division, Bangladesh","নোয়াখালী জেলা, চট্টগ্রাম বিভাগ, বাংলাদেশ","zaber chowdory market, ",,,,বাংলাদেশ,চট্টগ্রাম বিভাগ,admin2,boundaries,['marketplace'],[],Bangladesh,Chittagong,Noakhali,Hatiya,Sonadia,f8c1e07c81a5cbbc101b6ffc3832474b
1750,9152869158,893cd5ad673ffff,22.2158075,91.0927658,Sonadia Bazar Jame Mosque,"Sonadia Bazar Jame Mosque, Noakhali District, Chattogram Division, Bangladesh","নোয়াখালী জেলা, চট্টগ্রাম বিভাগ, বাংলাদেশ","Sonadia Bazar Jame Mosque, ",,,,বাংলাদেশ,চট্টগ্রাম বিভাগ,admin2,boundaries,['place_of_worship_muslim'],[],Bangladesh,Chittagong,Noakhali,Hatiya,Sonadia,f8c1e07c81a5cbbc101b6ffc3832474b
1754,9152869159,893cd5ad61bffff,22.2188302,91.0885906,বায়তুল ফালাহ মসজিদ,"Noakhali District, Chattogram Division, Bangladesh","বায়তুল ফালাহ মসজিদ, নোয়াখালী জেলা, চট্টগ্রাম বিভাগ, বাংলাদেশ",,"বায়তুল ফালাহ মসজিদ, ",,,বাংলাদেশ,চট্টগ্রাম বিভাগ,admin2,boundaries,['place_of_worship_muslim'],[],Bangladesh,Chittagong,Noakhali,Hatiya,Sonadia,f8c1e07c81a5cbbc101b6ffc3832474b
1760,9152869160,893cd5a8b07ffff,22.2159561,91.0714379,Mosque,"Mosque, Noakhali District, Chattogram Division, Bangladesh","নোয়াখালী জেলা, চট্টগ্রাম বিভাগ, বাংলাদেশ","Mosque, ",,,,বাংলাদেশ,চট্টগ্রাম বিভাগ,admin2,boundaries,['place_of_worship_muslim'],[],Bangladesh,Chittagong,Noakhali,Hatiya,Sonadia,f8c1e07c81a5cbbc101b6ffc3832474b
1765,9152869161,893cd5a8b37ffff,22.2156517,91.0799854,জসিম মার্কেট,"Noakhali District, Chattogram Division, Bangladesh","জসিম মার্কেট, নোয়াখালী জেলা, চট্টগ্রাম বিভাগ, বাংলাদেশ",,"জসিম মার্কেট, ",,,বাংলাদেশ,চট্টগ্রাম বিভাগ,admin2,boundaries,['marketplace'],[],Bangladesh,Chittagong,Noakhali,Hatiya,Sonadia,f8c1e07c81a5cbbc101b6ffc3832474b
1768,9152869162,893cd5ad653ffff,22.2154843,91.0844788,মোস্তফা মার্কেট,"Noakhali District, Chattogram Division, Bangladesh","মোস্তফা মার্কেট, নোয়াখালী জেলা, চট্টগ্রাম বিভাগ, বাংলাদেশ",,"মোস্তফা মার্কেট, ",,,বাংলাদেশ,চট্টগ্রাম বিভাগ,admin2,boundaries,['marketplace'],[],Bangladesh,Chittagong,Noakhali,Hatiya,Sonadia,f8c1e07c81a5cbbc101b6ffc3832474b
1772,9152869163,893cd5a8b3bffff,22.21243,91.0756822,টঙ্গের আড্ডা,"Noakhali District, Chattogram Division, Bangladesh","টঙ্গের আড্ডা, নোয়াখালী জেলা, চট্টগ্রাম বিভাগ, বাংলাদেশ",,"টঙ্গের আড্ডা, ",,,বাংলাদেশ,চট্টগ্রাম বিভাগ,admin2,boundaries,['tea'],[],Bangladesh,Chittagong,Noakhali,Hatiya,Sonadia,f8c1e07c81a5cbbc101b6ffc3832474b
1776,9152869164,893cd5a8b2bffff,22.2101974,91.0756131,আলহাজ্ব মদিন সুপার মার্কেট,"Noakhali District, Chattogram Division, Bangladesh","আলহাজ্ব মদিন সুপার মার্কেট, নোয়াখালী জেলা, চট্টগ্রাম বিভাগ, বাংলাদেশ",,"আলহাজ্ব মদিন সুপার মার্কেট, ",,,বাংলাদেশ,চট্টগ্রাম বিভাগ,admin2,boundaries,['marketplace'],[],Bangladesh,Chittagong,Noakhali,Hatiya,Sonadia,f8c1e07c81a5cbbc101b6ffc3832474b
1782,9152869165,893cd5a8b2fffff,22.2103693,91.0800179,জাবের মাষ্টার বাজার,"Noakhali District, Chattogram Division, Bangladesh","জাবের মাষ্টার বাজার, নোয়াখালী জেলা, চট্টগ্রাম বিভাগ, বাংলাদেশ",,"জাবের মাষ্টার বাজার, ",,,বাংলাদেশ,চট্টগ্রাম বিভাগ,admin2,boundaries,['marketplace'],[],Bangladesh,Chittagong,Noakhali,Hatiya,Sonadia,f8c1e07c81a5cbbc101b6ffc3832474b
1787,9152869166,893cd5a8b67ffff,22.2061467,91.0754152,Amin Mia Abdul Hakim Mia Jame Mosjid,"Amin Mia Abdul Hakim Mia Jame Mosjid, Noakhali District, Chattogram Division, Bangladesh","নোয়াখালী জেলা, চট্টগ্রাম বিভাগ, বাংলাদেশ","Amin Mia Abdul Hakim Mia Jame Mosjid, ",,,,বাংলাদেশ,চট্টগ্রাম বিভাগ,admin2,boundaries,['place_of_worship_muslim'],[],Bangladesh,Chittagong,Noakhali,Hatiya,Sonadia,f8c1e07c81a5cbbc101b6ffc3832474b
1791,9152869168,893cd5324a7ffff,22.2003325,91.0708046,আব্দুর রব বি.এ. পাঞ্জেগানা মসজিদ,"Noakhali District, Chattogram Division, Bangladesh","আব্দুর রব বি.এ. পাঞ্জেগানা মসজিদ, নোয়াখালী জেলা, চট্টগ্রাম বিভাগ, বাংলাদেশ",,"আব্দুর রব বি.এ. পাঞ্জেগানা মসজিদ, ",,,বাংলাদেশ,চট্টগ্রাম বিভাগ,admin2,boundaries,['place_of_worship_muslim'],[],Bangladesh,Chittagong,Noakhali,Hatiya,Sonadia,f8c1e07c81a5cbbc101b6ffc3832474b
1795,9152869170,893cd532533ffff,22.1984752,91.0932905,Mosque,"Mosque, Noakhali District, Chattogram Division, Bangladesh","নোয়াখালী জেলা, চট্টগ্রাম বিভাগ, বাংলাদেশ","Mosque, ",,,,বাংলাদেশ,চট্টগ্রাম বিভাগ,admin2,boundaries,['place_of_worship_muslim'],[],Bangladesh,Chittagong,Noakhali,Hatiya,Sonadia,f8c1e07c81a5cbbc101b6ffc3832474b
1806,9152869177,893cd5af00bffff,22.2760761,91.0864097,Haji Joinal Abedin Mosjid,"Haji Joinal Abedin Mosjid, Noakhali District, Chattogram Division, Bangladesh","নোয়াখালী জেলা, চট্টগ্রাম বিভাগ, বাংলাদেশ","Haji Joinal Abedin Mosjid, ",,,,বাংলাদেশ,চট্টগ্রাম বিভাগ,admin2,boundaries,['place_of_worship_muslim'],[],Bangladesh,Chittagong,Noakhali,Hatiya,Tamaruddin,c7af27b3439265cb8b3ae591bf9d7ae3
1813,9152869180,893cd5af503ffff,22.3017422,91.0917778,,"Noakhali District, Chattogram Division, Bangladesh","নোয়াখালী জেলা, চট্টগ্রাম বিভাগ, বাংলাদেশ",,,,,বাংলাদেশ,চট্টগ্রাম বিভাগ,admin2,boundaries,['school'],[],Bangladesh,Chittagong,Noakhali,Hatiya,HatiyaPaurashava,4de390a3076f345e78bc74b1121f5226
1818,9152869181,893cd5af56bffff,22.2922518,91.095627,তমরদ্দি ইউনিয়ন পরিষদ ভবন,"Noakhali District, Chattogram Division, Bangladesh","তমরদ্দি ইউনিয়ন পরিষদ ভবন, নোয়াখালী জেলা, চট্টগ্রাম বিভাগ, বাংলাদেশ",,"তমরদ্দি ইউনিয়ন পরিষদ ভবন, ",,,বাংলাদেশ,চট্টগ্রাম বিভাগ,admin2,boundaries,['government'],[],Bangladesh,Chittagong,Noakhali,Hatiya,Tamaruddin,c7af27b3439265cb8b3ae591bf9d7ae3
1823,9152869223,893cd5ae6c7ffff,22.3278974,91.0942752,খাম্বার চা দোকান,"Noakhali District, Chattogram Division, Bangladesh","খাম্বার চা দোকান, নোয়াখালী জেলা, চট্টগ্রাম বিভাগ, বাংলাদেশ",,"খাম্বার চা দোকান, ",,,বাংলাদেশ,চট্টগ্রাম বিভাগ,admin2,boundaries,['tea'],[],Bangladesh,Chittagong,Noakhali,Hatiya,HatiyaPaurashava,4de390a3076f345e78bc74b1121f5226
1827,9152869224,893cd5ae6bbffff,22.3314568,91.0999223,মধ্য বোয়ালিয়া হরকুমার দাস সরকারি প্রাথমিক বিদ্যালয়,"Noakhali District, Chattogram Division, Bangladesh","মধ্য বোয়ালিয়া হরকুমার দাস সরকারি প্রাথমিক বিদ্যালয়, নোয়াখালী জেলা, চট্টগ্রাম বিভাগ, বাংলাদেশ",,"মধ্য বোয়ালিয়া হরকুমার দাস সরকারি প্রাথমিক বিদ্যালয়, ",,,বাংলাদেশ,চট্টগ্রাম বিভাগ,admin2,boundaries,['school'],[],Bangladesh,Chittagong,Noakhali,Hatiya,HatiyaPaurashava,4de390a3076f345e78bc74b1121f5226
1831,9152869225,893cd5ae697ffff,22.3371718,91.0962074,Nuruddin Market,"Nuruddin Market, Noakhali District, Chattogram Division, Bangladesh","নোয়াখালী জেলা, চট্টগ্রাম বিভাগ, বাংলাদেশ","Nuruddin Market, ",,['নুরুদ্দীন মার্কেট'],,বাংলাদেশ,চট্টগ্রাম বিভাগ,admin2,boundaries,['marketplace'],[],Bangladesh,Chittagong,Noakhali,Hatiya,HatiyaPaurashava,4de390a3076f345e78bc74b1121f5226
1838,9152869237,893cd5ae4d7ffff,22.3503019,91.0981866,জনতা বাজার জামে মসজিদ,"Noakhali District, Chattogram Division, Bangladesh","জনতা বাজার জামে মসজিদ, নোয়াখালী জেলা, চট্টগ্রাম বিভাগ, বাংলাদেশ",,"জনতা বাজার জামে মসজিদ, ",,,বাংলাদেশ,চট্টগ্রাম বিভাগ,admin2,boundaries,['place_of_worship_muslim'],[],Bangladesh,Chittagong,Noakhali,Hatiya,HatiyaPaurashava,4de390a3076f345e78bc74b1121f5226
1843,9152869244,893cd5a0a37ffff,22.366761,91.0975026,,"Noakhali District, Chattogram Division, Bangladesh","নোয়াখালী জেলা, চট্টগ্রাম বিভাগ, বাংলাদেশ",,,,,বাংলাদেশ,চট্টগ্রাম বিভাগ,admin2,boundaries,['school'],[],Bangladesh,Chittagong,Noakhali,Hatiya,HatiyaPaurashava,4de390a3076f345e78bc74b1121f5226
1848,9152869245,893cd5a0aafffff,22.3679178,91.0964079,Dasher hat,"Dasher hat, Noakhali District, Chattogram Division, Bangladesh","নোয়াখালী জেলা, চট্টগ্রাম বিভাগ, বাংলাদেশ","Dasher hat, ",,,,বাংলাদেশ,চট্টগ্রাম বিভাগ,admin2,boundaries,['marketplace'],[],Bangladesh,Chittagong,Noakhali,Hatiya,HatiyaPaurashava,4de390a3076f345e78bc74b1121f5226
1853,9152869246,893cd5a0acbffff,22.360602,91.075537,Mosque,"Mosque, Noakhali District, Chattogram Division, Bangladesh","নোয়াখালী জেলা, চট্টগ্রাম বিভাগ, বাংলাদেশ","Mosque, ",,,,বাংলাদেশ,চট্টগ্রাম বিভাগ,admin2,boundaries,['place_of_worship_muslim'],[],Bangladesh,Chittagong,Noakhali,Hatiya,HatiyaPaurashava,4de390a3076f345e78bc74b1121f5226
1857,9152869247,893cd5a0a9bffff,22.3685615,91.0795726,Krishno Temple,"Krishno Temple, Noakhali District, Chattogram Division, Bangladesh","নোয়াখালী জেলা, চট্টগ্রাম বিভাগ, বাংলাদেশ","Krishno Temple, ",,,,বাংলাদেশ,চট্টগ্রাম বিভাগ,admin2,boundaries,['place_of_worship'],[],Bangladesh,Chittagong,Noakhali,Hatiya,SukhChar,8645ebadafec0085dd26a22711068ad1
1863,9152869248,893cd5a0a83ffff,22.3710942,91.0847083,Bismilla pharmacy,"Bismilla pharmacy, Noakhali District, Chattogram Division, Bangladesh","নোয়াখালী জেলা, চট্টগ্রাম বিভাগ, বাংলাদেশ","Bismilla pharmacy, ",,,,বাংলাদেশ,চট্টগ্রাম বিভাগ,admin2,boundaries,['pharmacy'],[],Bangladesh,Chittagong,Noakhali,Hatiya,SukhChar,8645ebadafec0085dd26a22711068ad1
1867,9152869249,893cd5a084bffff,22.3762805,91.0875945,,"Noakhali District, Chattogram Division, Bangladesh","নোয়াখালী জেলা, চট্টগ্রাম বিভাগ, বাংলাদেশ",,,,,বাংলাদেশ,চট্টগ্রাম বিভাগ,admin2,boundaries,['school'],[],Bangladesh,Chittagong,Noakhali,Hatiya,SukhChar,8645ebadafec0085dd26a22711068ad1
1873,9152869263,893cd5304bbffff,22.1453942,91.0928993,Mosque,"Mosque, Noakhali District, Chattogram Division, Bangladesh","নোয়াখালী জেলা, চট্টগ্রাম বিভাগ, বাংলাদেশ","Mosque, ",,,,বাংলাদেশ,চট্টগ্রাম বিভাগ,admin2,boundaries,['place_of_worship_muslim'],[],Bangladesh,Chittagong,Noakhali,Hatiya,Jahajmara,ae112db5dd64c2f6c5d7e3a919929b55
1878,9152869264,893cd530413ffff,22.1410015,91.0889018,Ali Bazar Jama Mosque,"Ali Bazar Jama Mosque, Noakhali District, Chattogram Division, Bangladesh","নোয়াখালী জেলা, চট্টগ্রাম বিভাগ, বাংলাদেশ","Ali Bazar Jama Mosque, ",,,,বাংলাদেশ,চট্টগ্রাম বিভাগ,admin2,boundaries,['place_of_worship_muslim'],[],Bangladesh,Chittagong,Noakhali,Hatiya,Jahajmara,ae112db5dd64c2f6c5d7e3a919929b55
1884,9152869265,893cd530413ffff,22.1410931,91.0898516,Mohammad Pur Ali Bazar,"Mohammad Pur Ali Bazar, Noakhali District, Chattogram Division, Bangladesh","নোয়াখালী জেলা, চট্টগ্রাম বিভাগ, বাংলাদেশ","Mohammad Pur Ali Bazar, ",,,,বাংলাদেশ,চট্টগ্রাম বিভাগ,admin2,boundaries,['marketplace'],[],Bangladesh,Chittagong,Noakhali,Hatiya,Jahajmara,ae112db5dd64c2f6c5d7e3a919929b55
1889,9152869270,893cd530473ffff,22.1315647,91.092795,Mosque,"Mosque, Noakhali District, Chattogram Division, Bangladesh","নোয়াখালী জেলা, চট্টগ্রাম বিভাগ, বাংলাদেশ","Mosque, ",,,,বাংলাদেশ,চট্টগ্রাম বিভাগ,admin2,boundaries,['place_of_worship_muslim'],[],Bangladesh,Chittagong,Noakhali,Hatiya,Jahajmara,ae112db5dd64c2f6c5d7e3a919929b55
1894,9152869271,893cd533127ffff,22.1318977,91.0809416,,"Noakhali District, Chattogram Division, Bangladesh","নোয়াখালী জেলা, চট্টগ্রাম বিভাগ, বাংলাদেশ",,,,,বাংলাদেশ,চট্টগ্রাম বিভাগ,admin2,boundaries,['school'],[],Bangladesh,Chittagong,Noakhali,Hatiya,Jahajmara,ae112db5dd64c2f6c5d7e3a919929b55
1899,9152869272,893cd530453ffff,22.1321651,91.0825624,Mohammad Pur Bazar,"Mohammad Pur Bazar, Noakhali District, Chattogram Division, Bangladesh","নোয়াখালী জেলা, চট্টগ্রাম বিভাগ, বাংলাদেশ","Mohammad Pur Bazar, ",,,,বাংলাদেশ,চট্টগ্রাম বিভাগ,admin2,boundaries,['marketplace'],[],Bangladesh,Chittagong,Noakhali,Hatiya,Jahajmara,ae112db5dd64c2f6c5d7e3a919929b55
1903,9152869274,893cd533547ffff,22.1391854,91.0471988,Haji Gift,"Haji Gift, Noakhali District, Chattogram Division, Bangladesh","নোয়াখালী জেলা, চট্টগ্রাম বিভাগ, বাংলাদেশ","Haji Gift, ",,['হাজী গোফট'],,বাংলাদেশ,চট্টগ্রাম বিভাগ,admin2,boundaries,['gift'],[],Bangladesh,Chittagong,Noakhali,Hatiya,Jahajmara,ae112db5dd64c2f6c5d7e3a919929b55
1908,9152869275,893cd533563ffff,22.1391663,91.0536135,মোল্লা বাজার,"Noakhali District, Chattogram Division, Bangladesh","মোল্লা বাজার, নোয়াখালী জেলা, চট্টগ্রাম বিভাগ, বাংলাদেশ",,"মোল্লা বাজার, ",,,বাংলাদেশ,চট্টগ্রাম বিভাগ,admin2,boundaries,['marketplace'],[],Bangladesh,Chittagong,Noakhali,Hatiya,Jahajmara,ae112db5dd64c2f6c5d7e3a919929b55
1912,9152869276,893cd53356fffff,22.1367838,91.0553178,Charhear Primary School,"Charhear Primary School, Noakhali District, Chattogram Division, Bangladesh","নোয়াখালী জেলা, চট্টগ্রাম বিভাগ, বাংলাদেশ","Charhear Primary School, ",,,,বাংলাদেশ,চট্টগ্রাম বিভাগ,admin2,boundaries,['school'],[],Bangladesh,Chittagong,Noakhali,Hatiya,Jahajmara,ae112db5dd64c2f6c5d7e3a919929b55
1916,9152869277,893cd5331c3ffff,22.1310777,91.0595027,সুখচর মোজাহারিয়া সরকারি প্রাথমিক বিদ্যালয়,"Noakhali District, Chattogram Division, Bangladesh","সুখচর মোজাহারিয়া সরকারি প্রাথমিক বিদ্যালয়, নোয়াখালী জেলা, চট্টগ্রাম বিভাগ, বাংলাদেশ",,"সুখচর মোজাহারিয়া সরকারি প্রাথমিক বিদ্যালয়, ",,,বাংলাদেশ,চট্টগ্রাম বিভাগ,admin2,boundaries,['school'],[],Bangladesh,Chittagong,Noakhali,Hatiya,Jahajmara,ae112db5dd64c2f6c5d7e3a919929b55
1920,9152869278,893cd5330a7ffff,22.132743,91.0537802,শান্তি বাজার,"Noakhali District, Chattogram Division, Bangladesh","শান্তি বাজার, নোয়াখালী জেলা, চট্টগ্রাম বিভাগ, বাংলাদেশ",,"শান্তি বাজার, ",,,বাংলাদেশ,চট্টগ্রাম বিভাগ,admin2,boundaries,['marketplace'],[],Bangladesh,Chittagong,Noakhali,Hatiya,Jahajmara,ae112db5dd64c2f6c5d7e3a919929b55
1924,9152869279,893cd5331c3ffff,22.1317716,91.0596499,কালামিয়া পণ্ডিত বাজার,"Noakhali District, Chattogram Division, Bangladesh","কালামিয়া পণ্ডিত বাজার, নোয়াখালী জেলা, চট্টগ্রাম বিভাগ, বাংলাদেশ",,"কালামিয়া পণ্ডিত বাজার, ",,,বাংলাদেশ,চট্টগ্রাম বিভাগ,admin2,boundaries,['marketplace'],[],Bangladesh,Chittagong,Noakhali,Hatiya,Jahajmara,ae112db5dd64c2f6c5d7e3a919929b55
1929,9152869280,893cd533017ffff,22.1265448,91.0448716,Amtali Bazar,"Amtali Bazar, Noakhali District, Chattogram Division, Bangladesh","নোয়াখালী জেলা, চট্টগ্রাম বিভাগ, বাংলাদেশ","Amtali Bazar, ",,['আমতলী বাজার'],,বাংলাদেশ,চট্টগ্রাম বিভাগ,admin2,boundaries,['marketplace'],[],Bangladesh,Chittagong,Noakhali,Hatiya,Jahajmara,ae112db5dd64c2f6c5d7e3a919929b55
1934,9152869281,893cd533017ffff,22.1278111,91.0450959,আমতলী দারুল কোরআন এমদাদীয়া মাদ্রাসা,"Noakhali District, Chattogram Division, Bangladesh","আমতলী দারুল কোরআন এমদাদীয়া মাদ্রাসা, নোয়াখালী জেলা, চট্টগ্রাম বিভাগ, বাংলাদেশ",,"আমতলী দারুল কোরআন এমদাদীয়া মাদ্রাসা, ",,,বাংলাদেশ,চট্টগ্রাম বিভাগ,admin2,boundaries,['school'],[],Bangladesh,Chittagong,Noakhali,Hatiya,Jahajmara,ae112db5dd64c2f6c5d7e3a919929b55
1938,9152869284,893cd533397ffff,22.119596,91.059436,নতুন সুখচর পোস্ট অফিস,"Noakhali District, Chattogram Division, Bangladesh","নতুন সুখচর পোস্ট অফিস, নোয়াখালী জেলা, চট্টগ্রাম বিভাগ, বাংলাদেশ",,"নতুন সুখচর পোস্ট অফিস, ",,,বাংলাদেশ,চট্টগ্রাম বিভাগ,admin2,boundaries,['post_office'],[],Bangladesh,Chittagong,Noakhali,Hatiya,Jahajmara,ae112db5dd64c2f6c5d7e3a919929b55
1942,9152869285,893cd533397ffff,22.1190661,91.05978,হাজী মোজাম্মেল হক সরকারি প্রাথমিক বিদ্যালয়,"Noakhali District, Chattogram Division, Bangladesh","হাজী মোজাম্মেল হক সরকারি প্রাথমিক বিদ্যালয়, নোয়াখালী জেলা, চট্টগ্রাম বিভাগ, বাংলাদেশ",,"হাজী মোজাম্মেল হক সরকারি প্রাথমিক বিদ্যালয়, ",,,বাংলাদেশ,চট্টগ্রাম বিভাগ,admin2,boundaries,['school'],[],Bangladesh,Chittagong,Noakhali,Hatiya,Jahajmara,ae112db5dd64c2f6c5d7e3a919929b55
1946,9152869286,893cd5333b3ffff,22.1169778,91.064324,জয়নাল মেম্বারের বাজার,"Noakhali District, Chattogram Division, Bangladesh","জয়নাল মেম্বারের বাজার, নোয়াখালী জেলা, চট্টগ্রাম বিভাগ, বাংলাদেশ",,"জয়নাল মেম্বারের বাজার, ",,,বাংলাদেশ,চট্টগ্রাম বিভাগ,admin2,boundaries,['marketplace'],[],Bangladesh,Chittagong,Noakhali,Hatiya,Jahajmara,ae112db5dd64c2f6c5d7e3a919929b55
1951,9152869287,893cd533387ffff,22.1173012,91.0596124,CDSP BAZAR,"CDSP BAZAR, Noakhali District, Chattogram Division, Bangladesh","নোয়াখালী জেলা, চট্টগ্রাম বিভাগ, বাংলাদেশ","CDSP BAZAR, ",,,,বাংলাদেশ,চট্টগ্রাম বিভাগ,admin2,boundaries,['marketplace'],[],Bangladesh,Chittagong,Noakhali,Hatiya,Jahajmara,ae112db5dd64c2f6c5d7e3a919929b55
1954,9152869288,893cd53339bffff,22.1165688,91.0534865,Sukhchar Bazar Jame Mosque,"Sukhchar Bazar Jame Mosque, Noakhali District, Chattogram Division, Bangladesh","নোয়াখালী জেলা, চট্টগ্রাম বিভাগ, বাংলাদেশ","Sukhchar Bazar Jame Mosque, ",,,,বাংলাদেশ,চট্টগ্রাম বিভাগ,admin2,boundaries,['place_of_worship_muslim'],[],Bangladesh,Chittagong,Noakhali,Hatiya,Jahajmara,ae112db5dd64c2f6c5d7e3a919929b55
1957,9152869289,893cd533383ffff,22.1166782,91.0568265,Saimun Bakery,"Saimun Bakery, Noakhali District, Chattogram Division, Bangladesh","নোয়াখালী জেলা, চট্টগ্রাম বিভাগ, বাংলাদেশ","Saimun Bakery, ",,,,বাংলাদেশ,চট্টগ্রাম বিভাগ,admin2,boundaries,['bakery'],[],Bangladesh,Chittagong,Noakhali,Hatiya,Jahajmara,ae112db5dd64c2f6c5d7e3a919929b55
1961,9152869290,893cd533313ffff,22.1120323,91.0593271,Yunuchia Jame Masjid,"Yunuchia Jame Masjid, Noakhali District, Chattogram Division, Bangladesh","নোয়াখালী জেলা, চট্টগ্রাম বিভাগ, বাংলাদেশ","Yunuchia Jame Masjid, ",,,,বাংলাদেশ,চট্টগ্রাম বিভাগ,admin2,boundaries,['place_of_worship_muslim'],[],Bangladesh,Chittagong,Noakhali,Hatiya,Jahajmara,ae112db5dd64c2f6c5d7e3a919929b55
1973,9152869295,893cd5049c3ffff,22.0789439,91.0212101,ডুবাইর খাল বাজার,"Nijhum Dip, Noakhali District, Chattogram Division, Bangladesh","ডুবাইর খাল বাজার, নোয়াখালী জেলা, চট্টগ্রাম বিভাগ, বাংলাদেশ",,"ডুবাইর খাল বাজার, ",,,বাংলাদেশ,চট্টগ্রাম বিভাগ,admin2,boundaries,['marketplace'],[],Bangladesh,Chittagong,Noakhali,Hatiya,NijumDip,bc4430816d69609b22001941b28ed135
1979,9152869296,893cd504827ffff,22.0722914,91.0200888,বদুওয়ালা গ্রাম জামে মসজিদ,"Nijhum Dip, Noakhali District, Chattogram Division, Bangladesh","বদুওয়ালা গ্রাম জামে মসজিদ, নোয়াখালী জেলা, চট্টগ্রাম বিভাগ, বাংলাদেশ",,"বদুওয়ালা গ্রাম জামে মসজিদ, ",,,বাংলাদেশ,চট্টগ্রাম বিভাগ,admin2,boundaries,['place_of_worship_muslim'],[],Bangladesh,Chittagong,Noakhali,Hatiya,NijumDip,bc4430816d69609b22001941b28ed135
1982,9152869297,893cd504953ffff,22.0731167,91.0222314,মোক্তার মার্কেট,"Nijhum Dip, Noakhali District, Chattogram Division, Bangladesh","মোক্তার মার্কেট, নোয়াখালী জেলা, চট্টগ্রাম বিভাগ, বাংলাদেশ",,"মোক্তার মার্কেট, ",,,বাংলাদেশ,চট্টগ্রাম বিভাগ,admin2,boundaries,['marketplace'],[],Bangladesh,Chittagong,Noakhali,Hatiya,NijumDip,bc4430816d69609b22001941b28ed135
2010,9526288915,893cd5a0a37ffff,22.3678221,91.0972544,Char Iswar Roy Dashar Hat High School,"Char Iswar Roy Dashar Hat High School, Noakhali District, Chattogram Division, Bangladesh","নোয়াখালী জেলা, চট্টগ্রাম বিভাগ, বাংলাদেশ","Char Iswar Roy Dashar Hat High School, ",,,,বাংলাদেশ,চট্টগ্রাম বিভাগ,admin2,boundaries,"['educational_institution', 'school']",[],Bangladesh,Chittagong,Noakhali,Hatiya,HatiyaPaurashava,4de390a3076f345e78bc74b1121f5226
2012,9526801711,893cd5321d3ffff,22.1844354,91.0941572,SONADIA ADARSH  HIGH SCHOOL,"SONADIA ADARSH HIGH SCHOOL, Noakhali District, Chattogram Division, Bangladesh","নোয়াখালী জেলা, চট্টগ্রাম বিভাগ, বাংলাদেশ","SONADIA ADARSH HIGH SCHOOL, ",,,,বাংলাদেশ,চট্টগ্রাম বিভাগ,admin2,boundaries,"['educational_institution', 'school']",[],Bangladesh,Chittagong,Noakhali,Hatiya,Sonadia,f8c1e07c81a5cbbc101b6ffc3832474b
2017,9526809520,893cd5a894fffff,22.2253565,91.0708646,M.C.S. HIGH SCHOOL,"M.C.S. HIGH SCHOOL, Noakhali District, Chattogram Division, Bangladesh","নোয়াখালী জেলা, চট্টগ্রাম বিভাগ, বাংলাদেশ","M.C.S. HIGH SCHOOL, ",,,,বাংলাদেশ,চট্টগ্রাম বিভাগ,admin2,boundaries,"['educational_institution', 'school']",[],Bangladesh,Chittagong,Noakhali,Hatiya,Sonadia,f8c1e07c81a5cbbc101b6ffc3832474b
2021,9526809525,893cd5af2a7ffff,22.2664115,91.0893704,,"Noakhali District, Chattogram Division, Bangladesh","নোয়াখালী জেলা, চট্টগ্রাম বিভাগ, বাংলাদেশ",,,,,বাংলাদেশ,চট্টগ্রাম বিভাগ,admin2,boundaries,"['educational_institution', 'school']",[],Bangladesh,Chittagong,Noakhali,Hatiya,Tamaruddin,c7af27b3439265cb8b3ae591bf9d7ae3
2024,9529223900,893cc673267ffff,22.8285872,91.0927282,BROTHER ANDRES HIGH SCHOOL,"BROTHER ANDRES HIGH SCHOOL, Noakhali, Noakhali District, Chattogram Division, Bangladesh","নোয়াখালী জেলা, চট্টগ্রাম বিভাগ, বাংলাদেশ","BROTHER ANDRES HIGH SCHOOL, ",,,Noakhali,বাংলাদেশ,চট্টগ্রাম বিভাগ,local_admin,boundaries,"['educational_institution', 'school']",[],Bangladesh,Chittagong,Noakhali,NoakhaliSadar(Sudharam),Binodpur,8e89e884775d4ae7341a4a0704d52d71
2028,9529223901,893cc67322fffff,22.832575,91.0975244,MOHABBATPUR GIRLS HIGH SCHOOL,"MOHABBATPUR GIRLS HIGH SCHOOL, Noakhali, Noakhali District, Chattogram Division, Bangladesh","নোয়াখালী জেলা, চট্টগ্রাম বিভাগ, বাংলাদেশ","MOHABBATPUR GIRLS HIGH SCHOOL, ",,,Noakhali,বাংলাদেশ,চট্টগ্রাম বিভাগ,local_admin,boundaries,"['educational_institution', 'school']",[],Bangladesh,Chittagong,Noakhali,NoakhaliSadar(Sudharam),NoakhaliPaurashava,3e63313d46b19bdcf4b5d56033e480ec
2032,9529223902,893cc67322fffff,22.8328089,91.0991666,COLLEGIATE SCHOOL,"COLLEGIATE SCHOOL, Noakhali, Noakhali District, Chattogram Division, Bangladesh","নোয়াখালী জেলা, চট্টগ্রাম বিভাগ, বাংলাদেশ","COLLEGIATE SCHOOL, ",,,Noakhali,বাংলাদেশ,চট্টগ্রাম বিভাগ,local_admin,boundaries,"['educational_institution', 'school']",[],Bangladesh,Chittagong,Noakhali,NoakhaliSadar(Sudharam),NoakhaliPaurashava,3e63313d46b19bdcf4b5d56033e480ec
2036,9529223904,893cc671453ffff,22.8146812,91.0942577,KALI TARA MUSLIM GIRLS ACHDEMY,"KALI TARA MUSLIM GIRLS ACHDEMY, Noakhali, Noakhali District, Chattogram Division, Bangladesh","নোয়াখালী জেলা, চট্টগ্রাম বিভাগ, বাংলাদেশ","KALI TARA MUSLIM GIRLS ACHDEMY, ",,,Noakhali,বাংলাদেশ,চট্টগ্রাম বিভাগ,local_admin,boundaries,"['educational_institution', 'school']",[],Bangladesh,Chittagong,Noakhali,NoakhaliSadar(Sudharam),Binodpur,8e89e884775d4ae7341a4a0704d52d71
2037,9529223904,893cc671453ffff,22.8146812,91.0942577,KALI TARA MUSLIM GIRLS ACHDEMY,"KALI TARA MUSLIM GIRLS ACHDEMY, Noakhali, Noakhali District, Chattogram Division, Bangladesh","নোয়াখালী জেলা, চট্টগ্রাম বিভাগ, বাংলাদেশ","KALI TARA MUSLIM GIRLS ACHDEMY, ",,,Noakhali,বাংলাদেশ,চট্টগ্রাম বিভাগ,local_admin,boundaries,"['educational_institution', 'school']",[],Bangladesh,Chittagong,Noakhali,NoakhaliSadar(Sudharam),Noakhali,a598de810b3306be42a2b0357ad797de
2043,9529223905,893cc644923ffff,22.8148534,91.0890241,OBAID ULLAH MEMORIAL HIGH SCHOOL,"OBAID ULLAH MEMORIAL HIGH SCHOOL, Noakhali, Noakhali District, Chattogram Division, Bangladesh","নোয়াখালী জেলা, চট্টগ্রাম বিভাগ, বাংলাদেশ","OBAID ULLAH MEMORIAL HIGH SCHOOL, ",,,Noakhali,বাংলাদেশ,চট্টগ্রাম বিভাগ,local_admin,boundaries,"['educational_institution', 'school']",[],Bangladesh,Chittagong,Noakhali,NoakhaliSadar(Sudharam),Noakhali,a598de810b3306be42a2b0357ad797de
2046,9529223906,893cc644c4fffff,22.813372,91.034971,WEST EWAZBALI JUNIOR HIGH SCHOOL,"WEST EWAZBALI JUNIOR HIGH SCHOOL, Noakhali, Noakhali District, Chattogram Division, Bangladesh","নোয়াখালী জেলা, চট্টগ্রাম বিভাগ, বাংলাদেশ","WEST EWAZBALI JUNIOR HIGH SCHOOL, ",,,Noakhali,বাংলাদেশ,চট্টগ্রাম বিভাগ,local_admin,boundaries,"['educational_institution', 'school']",[],Bangladesh,Chittagong,Noakhali,NoakhaliSadar(Sudharam),Ewazbalia,07a595d991201979f16515e8a155f9a5
2048,9529223908,893cc646a77ffff,22.8322908,91.0239349,KHALIFAR HAT HIGH SCHOOL,"KHALIFAR HAT HIGH SCHOOL, Noakhali, Noakhali District, Chattogram Division, Bangladesh","নোয়াখালী জেলা, চট্টগ্রাম বিভাগ, বাংলাদেশ","KHALIFAR HAT HIGH SCHOOL, ",,,Noakhali,বাংলাদেশ,চট্টগ্রাম বিভাগ,local_admin,boundaries,"['educational_institution', 'school']",[],Bangladesh,Chittagong,Noakhali,NoakhaliSadar(Sudharam),Kaladaraf,2ae4cd643e1130c5301ed7da962f9fbd
2052,9529223909,893cc646b6bffff,22.8330087,91.0459363,JAMIDAR HAT HIGH SCHOOL,"JAMIDAR HAT HIGH SCHOOL, Noakhali, Noakhali District, Chattogram Division, Bangladesh","নোয়াখালী জেলা, চট্টগ্রাম বিভাগ, বাংলাদেশ","JAMIDAR HAT HIGH SCHOOL, ",,,Noakhali,বাংলাদেশ,চট্টগ্রাম বিভাগ,local_admin,boundaries,"['educational_institution', 'school']",[],Bangladesh,Chittagong,Noakhali,NoakhaliSadar(Sudharam),Ewazbalia,07a595d991201979f16515e8a155f9a5
2056,9529223910,893cc644d33ffff,22.8322001,91.0677704,NALPUR HIGH SCHOOL,"NALPUR HIGH SCHOOL, Noakhali, Noakhali District, Chattogram Division, Bangladesh","নোয়াখালী জেলা, চট্টগ্রাম বিভাগ, বাংলাদেশ","NALPUR HIGH SCHOOL, ",,,Noakhali,বাংলাদেশ,চট্টগ্রাম বিভাগ,local_admin,boundaries,"['educational_institution', 'school']",[],Bangladesh,Chittagong,Noakhali,NoakhaliSadar(Sudharam),Binodpur,8e89e884775d4ae7341a4a0704d52d71
2059,9529223911,893cc67328fffff,22.8404659,91.0846084,BENODPUR HIGH SCHOOL,"BENODPUR HIGH SCHOOL, Noakhali, Noakhali District, Chattogram Division, Bangladesh","নোয়াখালী জেলা, চট্টগ্রাম বিভাগ, বাংলাদেশ","BENODPUR HIGH SCHOOL, ",,,Noakhali,বাংলাদেশ,চট্টগ্রাম বিভাগ,local_admin,boundaries,"['educational_institution', 'school']",[],Bangladesh,Chittagong,Noakhali,NoakhaliSadar(Sudharam),Binodpur,8e89e884775d4ae7341a4a0704d52d71
2063,9529223913,893cc67303bffff,22.8554784,91.0967399,MAIJDEE GIRLS ACADEMY,"MAIJDEE GIRLS ACADEMY, Noakhali, Noakhali District, Chattogram Division, Bangladesh","নোয়াখালী জেলা, চট্টগ্রাম বিভাগ, বাংলাদেশ","MAIJDEE GIRLS ACADEMY, ",,,Noakhali,বাংলাদেশ,চট্টগ্রাম বিভাগ,local_admin,boundaries,"['educational_institution', 'school']",[],Bangladesh,Chittagong,Noakhali,NoakhaliSadar(Sudharam),NoakhaliPaurashava,3e63313d46b19bdcf4b5d56033e480ec
2067,9529223914,893cc67303bffff,22.8576778,91.0966605,POURA KALYAN HIGH SCHOOL,"POURA KALYAN HIGH SCHOOL, Noakhali, Noakhali District, Chattogram Division, Bangladesh","নোয়াখালী জেলা, চট্টগ্রাম বিভাগ, বাংলাদেশ","POURA KALYAN HIGH SCHOOL, ",,,Noakhali,বাংলাদেশ,চট্টগ্রাম বিভাগ,local_admin,boundaries,"['educational_institution', 'school']",[],Bangladesh,Chittagong,Noakhali,NoakhaliSadar(Sudharam),NoakhaliPaurashava,3e63313d46b19bdcf4b5d56033e480ec
2071,9529223915,893cc6730abffff,22.8612148,91.0970196,HARINARAYAN PUR UNION HIGH SCHOOL,"HARINARAYAN PUR UNION HIGH SCHOOL, Noakhali, Noakhali District, Chattogram Division, Bangladesh","নোয়াখালী জেলা, চট্টগ্রাম বিভাগ, বাংলাদেশ","HARINARAYAN PUR UNION HIGH SCHOOL, ",,,Noakhali,বাংলাদেশ,চট্টগ্রাম বিভাগ,local_admin,boundaries,"['educational_institution', 'school']",[],Bangladesh,Chittagong,Noakhali,NoakhaliSadar(Sudharam),NoakhaliPaurashava,3e63313d46b19bdcf4b5d56033e480ec
2076,9529223916,893cc6730a3ffff,22.8640604,91.0977518,NOAKHLI ZILLA SCHOOL,"NOAKHLI ZILLA SCHOOL, Noakhali, Noakhali District, Chattogram Division, Bangladesh","নোয়াখালী জেলা, চট্টগ্রাম বিভাগ, বাংলাদেশ","NOAKHLI ZILLA SCHOOL, ",,,Noakhali,বাংলাদেশ,চট্টগ্রাম বিভাগ,local_admin,boundaries,"['educational_institution', 'school']",[],Bangladesh,Chittagong,Noakhali,NoakhaliSadar(Sudharam),KadirHanif,42ce4fc063e26947bceed975c8c3cb33
2082,9529226590,893cc64cab7ffff,22.6382898,91.0094616,CHAR AFZAL AZAD MEMORIAL  HIGH SCHOOL,"CHAR AFZAL AZAD MEMORIAL HIGH SCHOOL, Noakhali, Noakhali District, Chattogram Division, Bangladesh","নোয়াখালী জেলা, চট্টগ্রাম বিভাগ, বাংলাদেশ","CHAR AFZAL AZAD MEMORIAL HIGH SCHOOL, ",,,Noakhali,বাংলাদেশ,চট্টগ্রাম বিভাগ,local_admin,boundaries,"['educational_institution', 'school']",[],Bangladesh,Chittagong,Noakhali,Subarnachar,CharWapda,9c487b8eb1830c6d23240dad552c90ec
2085,9529302817,893cc6730bbffff,22.863809,91.0946347,AL-FAROOQ ACADEMY,"AL-FAROOQ ACADEMY, Noakhali, Noakhali District, Chattogram Division, Bangladesh","নোয়াখালী জেলা, চট্টগ্রাম বিভাগ, বাংলাদেশ","AL-FAROOQ ACADEMY, ",,,Noakhali,বাংলাদেশ,চট্টগ্রাম বিভাগ,local_admin,boundaries,"['educational_institution', 'school']",[],Bangladesh,Chittagong,Noakhali,NoakhaliSadar(Sudharam),KadirHanif,42ce4fc063e26947bceed975c8c3cb33
2088,9529302818,893cc673467ffff,22.8657404,91.0819509,AL MADINA ACADEMY HIGH SHCOOL,"AL MADINA ACADEMY HIGH SHCOOL, Noakhali, Noakhali District, Chattogram Division, Bangladesh","নোয়াখালী জেলা, চট্টগ্রাম বিভাগ, বাংলাদেশ","AL MADINA ACADEMY HIGH SHCOOL, ",,,Noakhali,বাংলাদেশ,চট্টগ্রাম বিভাগ,local_admin,boundaries,"['educational_institution', 'school']",[],Bangladesh,Chittagong,Noakhali,NoakhaliSadar(Sudharam),KadirHanif,42ce4fc063e26947bceed975c8c3cb33
2091,9529302819,893cc673687ffff,22.85871,91.0667529,SHIBPUR MUSLIM  HIGH SCHOOL,"SHIBPUR MUSLIM HIGH SCHOOL, Noakhali, Noakhali District, Chattogram Division, Bangladesh","নোয়াখালী জেলা, চট্টগ্রাম বিভাগ, বাংলাদেশ","SHIBPUR MUSLIM HIGH SCHOOL, ",,,Noakhali,বাংলাদেশ,চট্টগ্রাম বিভাগ,local_admin,boundaries,"['educational_institution', 'school']",[],Bangladesh,Chittagong,Noakhali,NoakhaliSadar(Sudharam),Noannai,f701c5834aa2a3f8d14d905ac6126ee8
2094,9529302820,893cc646903ffff,22.8668171,91.0490891,ISLAMGONJ JANATA HIGH SCHOOL,"ISLAMGONJ JANATA HIGH SCHOOL, Noakhali, Noakhali District, Chattogram Division, Bangladesh","নোয়াখালী জেলা, চট্টগ্রাম বিভাগ, বাংলাদেশ","ISLAMGONJ JANATA HIGH SCHOOL, ",,,Noakhali,বাংলাদেশ,চট্টগ্রাম বিভাগ,local_admin,boundaries,"['educational_institution', 'school']",[],Bangladesh,Chittagong,Noakhali,NoakhaliSadar(Sudharam),Noannai,f701c5834aa2a3f8d14d905ac6126ee8
2097,9529302822,893cc673547ffff,22.8749478,91.0952788,MOSHAREF GRAMMAR SCHOOL,"MOSHAREF GRAMMAR SCHOOL, Noakhali, Noakhali District, Chattogram Division, Bangladesh","নোয়াখালী জেলা, চট্টগ্রাম বিভাগ, বাংলাদেশ","MOSHAREF GRAMMAR SCHOOL, ",,,Noakhali,বাংলাদেশ,চট্টগ্রাম বিভাগ,local_admin,boundaries,"['educational_institution', 'school']",[],Bangladesh,Chittagong,Noakhali,NoakhaliSadar(Sudharam),KadirHanif,42ce4fc063e26947bceed975c8c3cb33
2111,9655395822,893cc601393ffff,23.0625331,91.0498363,Bangla Bazar,"Bangla Bazar, Begumganj, Noakhali District, Chattogram Division, Bangladesh","নোয়াখালী জেলা, চট্টগ্রাম বিভাগ, বাংলাদেশ","Bangla Bazar, ",,['বাংলা বাজার'],Begumganj,বাংলাদেশ,চট্টগ্রাম বিভাগ,local_admin,boundaries,['marketplace'],[],Bangladesh,Chittagong,Noakhali,Sonaimuri,Nadana,1a7d1745d89730b474b84d46fa120d1a
2190,9935702423,893cc671663ffff,22.7911106,91.0997929,,"Noakhali, Noakhali District, Chattogram Division, Bangladesh","নোয়াখালী জেলা, চট্টগ্রাম বিভাগ, বাংলাদেশ",,,,Noakhali,বাংলাদেশ,চট্টগ্রাম বিভাগ,local_admin,boundaries,['water_tower'],[],Bangladesh,Chittagong,Noakhali,NoakhaliSadar(Sudharam),Noakhali,a598de810b3306be42a2b0357ad797de
2195,9935702427,893cc67167bffff,22.7897252,91.0987181,,"Noakhali, Noakhali District, Chattogram Division, Bangladesh","নোয়াখালী জেলা, চট্টগ্রাম বিভাগ, বাংলাদেশ",,,,Noakhali,বাংলাদেশ,চট্টগ্রাম বিভাগ,local_admin,boundaries,['gate'],[],Bangladesh,Chittagong,Noakhali,NoakhaliSadar(Sudharam),Noakhali,a598de810b3306be42a2b0357ad797de
2199,9935702428,893cc67167bffff,22.7904086,91.098733,,"Noakhali, Noakhali District, Chattogram Division, Bangladesh","নোয়াখালী জেলা, চট্টগ্রাম বিভাগ, বাংলাদেশ",,,,Noakhali,বাংলাদেশ,চট্টগ্রাম বিভাগ,local_admin,boundaries,['gate'],[],Bangladesh,Chittagong,Noakhali,NoakhaliSadar(Sudharam),Noakhali,a598de810b3306be42a2b0357ad797de
2204,9982948882,893cc671673ffff,22.7929315,91.0984355,Moina Dighi,"Moina Dighi, Noakhali, Noakhali District, Chattogram Division, Bangladesh","নোয়াখালী জেলা, চট্টগ্রাম বিভাগ, বাংলাদেশ","Moina Dighi, ",,,Noakhali,বাংলাদেশ,চট্টগ্রাম বিভাগ,local_admin,boundaries,['park'],[],Bangladesh,Chittagong,Noakhali,NoakhaliSadar(Sudharam),Noakhali,a598de810b3306be42a2b0357ad797de
2274,225807535,893cc67350bffff,22.87634856,91.09808533,Shahid Bulu Stadium,"Shahid Bulu Stadium, Noakhali, Noakhali District, Chattogram Division, Bangladesh","নোয়াখালী জেলা, চট্টগ্রাম বিভাগ, বাংলাদেশ","Shahid Bulu Stadium, ",,,Noakhali,বাংলাদেশ,চট্টগ্রাম বিভাগ,local_admin,boundaries,['stadium'],[],Bangladesh,Chittagong,Noakhali,NoakhaliSadar(Sudharam),KadirHanif,42ce4fc063e26947bceed975c8c3cb33
2461,518634020,893cd5b4153ffff,22.54542242,91.0863776,,"Noakhali District, Chattogram Division, Bangladesh","নোয়াখালী জেলা, চট্টগ্রাম বিভাগ, বাংলাদেশ",,,,,বাংলাদেশ,চট্টগ্রাম বিভাগ,admin2,boundaries,['mall'],[],Bangladesh,Chittagong,Noakhali,Hatiya,Chandnandi,9018337a8ed68bc8172c5c2fd2f88ba2
2465,518634021,893cd5b4153ffff,22.54537655,91.08658238,,"Noakhali District, Chattogram Division, Bangladesh","নোয়াখালী জেলা, চট্টগ্রাম বিভাগ, বাংলাদেশ",,,,,বাংলাদেশ,চট্টগ্রাম বিভাগ,admin2,boundaries,['mall'],[],Bangladesh,Chittagong,Noakhali,Hatiya,Chandnandi,9018337a8ed68bc8172c5c2fd2f88ba2
2467,518855685,893cd5a8917ffff,22.2386005,91.07450345,,"Noakhali District, Chattogram Division, Bangladesh","নোয়াখালী জেলা, চট্টগ্রাম বিভাগ, বাংলাদেশ",,,,,বাংলাদেশ,চট্টগ্রাম বিভাগ,admin2,boundaries,['bridge'],[],Bangladesh,Chittagong,Noakhali,Hatiya,Tamaruddin,c7af27b3439265cb8b3ae591bf9d7ae3
2474,519397900,893cd5a004fffff,22.37761058,91.02539707,,"Noakhali District, Chattogram Division, Bangladesh","নোয়াখালী জেলা, চট্টগ্রাম বিভাগ, বাংলাদেশ",,,,,বাংলাদেশ,চট্টগ্রাম বিভাগ,admin2,boundaries,['beach'],[],Bangladesh,Chittagong,Noakhali,Hatiya,CharKing,fcc97ce1893ce0deb8c246e71406f982
2479,519721297,893cd5a066fffff,22.37294723,91.00902158,,"Monpura Subdistrict, Bhola District, Barishal Division, Bangladesh","মনপুরা উপজেলা, ভোলা জেলা, বরিশাল বিভাগ, বাংলাদেশ",,,,মনপুরা উপজেলা,বাংলাদেশ,বরিশাল বিভাগ,local_admin,boundaries,['ford'],[],Bangladesh,Chittagong,Noakhali,Hatiya,CharKing,fcc97ce1893ce0deb8c246e71406f982
2482,519893519,893cd5a001bffff,22.38835267,91.02379376,,"Noakhali District, Chattogram Division, Bangladesh","নোয়াখালী জেলা, চট্টগ্রাম বিভাগ, বাংলাদেশ",,,,,বাংলাদেশ,চট্টগ্রাম বিভাগ,admin2,boundaries,['beach'],[],Bangladesh,Chittagong,Noakhali,Hatiya,CharKing,fcc97ce1893ce0deb8c246e71406f982
2487,519893520,893cd5a0013ffff,22.38993183,91.02570992,,"Noakhali District, Chattogram Division, Bangladesh","নোয়াখালী জেলা, চট্টগ্রাম বিভাগ, বাংলাদেশ",,,,,বাংলাদেশ,চট্টগ্রাম বিভাগ,admin2,boundaries,['beach'],[],Bangladesh,Chittagong,Noakhali,Hatiya,CharKing,fcc97ce1893ce0deb8c246e71406f982
2492,519893521,893cd5a0013ffff,22.38932962,91.02564713,,"Noakhali District, Chattogram Division, Bangladesh","নোয়াখালী জেলা, চট্টগ্রাম বিভাগ, বাংলাদেশ",,,,,বাংলাদেশ,চট্টগ্রাম বিভাগ,admin2,boundaries,['beach'],[],Bangladesh,Chittagong,Noakhali,Hatiya,CharKing,fcc97ce1893ce0deb8c246e71406f982
2495,519893522,893cd5a0013ffff,22.391531,91.02554044,,"Noakhali District, Chattogram Division, Bangladesh","নোয়াখালী জেলা, চট্টগ্রাম বিভাগ, বাংলাদেশ",,,,,বাংলাদেশ,চট্টগ্রাম বিভাগ,admin2,boundaries,['beach'],[],Bangladesh,Chittagong,Noakhali,Hatiya,CharKing,fcc97ce1893ce0deb8c246e71406f982
2499,519893525,893cd5a000bffff,22.38543186,91.02704972,,"Noakhali District, Chattogram Division, Bangladesh","নোয়াখালী জেলা, চট্টগ্রাম বিভাগ, বাংলাদেশ",,,,,বাংলাদেশ,চট্টগ্রাম বিভাগ,admin2,boundaries,['beach'],[],Bangladesh,Chittagong,Noakhali,Hatiya,CharKing,fcc97ce1893ce0deb8c246e71406f982
2501,519893526,893cd5a0047ffff,22.38181386,91.02660164,,"Noakhali District, Chattogram Division, Bangladesh","নোয়াখালী জেলা, চট্টগ্রাম বিভাগ, বাংলাদেশ",,,,,বাংলাদেশ,চট্টগ্রাম বিভাগ,admin2,boundaries,['beach'],[],Bangladesh,Chittagong,Noakhali,Hatiya,CharKing,fcc97ce1893ce0deb8c246e71406f982
2558,537606033,893cc6730a7ffff,22.86619435,91.09950933,,"Noakhali, Noakhali District, Chattogram Division, Bangladesh","নোয়াখালী জেলা, চট্টগ্রাম বিভাগ, বাংলাদেশ",,,,Noakhali,বাংলাদেশ,চট্টগ্রাম বিভাগ,local_admin,boundaries,['park'],[],Bangladesh,Chittagong,Noakhali,NoakhaliSadar(Sudharam),NoakhaliPaurashava,3e63313d46b19bdcf4b5d56033e480ec
2587,604872659,893cc67355bffff,22.8715571,91.0894675,Maa O Shishu Hospital Pvt.,"Maa O Shishu Hospital Pvt., Noakhali, Noakhali District, Chattogram Division, Bangladesh","নোয়াখালী জেলা, চট্টগ্রাম বিভাগ, বাংলাদেশ","Maa O Shishu Hospital Pvt., ",,,Noakhali,বাংলাদেশ,চট্টগ্রাম বিভাগ,local_admin,boundaries,['hospital'],[],Bangladesh,Chittagong,Noakhali,NoakhaliSadar(Sudharam),KadirHanif,42ce4fc063e26947bceed975c8c3cb33
2590,604946100,893cc6730a3ffff,22.8649165,91.09536445,Bakhrabad Gas Distribution Company Limited,"Bakhrabad Gas Distribution Company Limited, Noakhali, Noakhali District, Chattogram Division, Bangladesh","নোয়াখালী জেলা, চট্টগ্রাম বিভাগ, বাংলাদেশ","Bakhrabad Gas Distribution Company Limited, ",,,Noakhali,বাংলাদেশ,চট্টগ্রাম বিভাগ,local_admin,boundaries,['government'],[],Bangladesh,Chittagong,Noakhali,NoakhaliSadar(Sudharam),KadirHanif,42ce4fc063e26947bceed975c8c3cb33
2640,690126265,893cc67350bffff,22.87634372,91.09811813,,"Noakhali, Noakhali District, Chattogram Division, Bangladesh","নোয়াখালী জেলা, চট্টগ্রাম বিভাগ, বাংলাদেশ",,,,Noakhali,বাংলাদেশ,চট্টগ্রাম বিভাগ,local_admin,boundaries,['pitch'],[],Bangladesh,Chittagong,Noakhali,NoakhaliSadar(Sudharam),KadirHanif,42ce4fc063e26947bceed975c8c3cb33
2650,709623731,893cc6730abffff,22.86202351,91.09474934,,"Noakhali, Noakhali District, Chattogram Division, Bangladesh","নোয়াখালী জেলা, চট্টগ্রাম বিভাগ, বাংলাদেশ",,,,Noakhali,বাংলাদেশ,চট্টগ্রাম বিভাগ,local_admin,boundaries,['park'],[],Bangladesh,Chittagong,Noakhali,NoakhaliSadar(Sudharam),NoakhaliPaurashava,3e63313d46b19bdcf4b5d56033e480ec
2653,709762082,893cc6730abffff,22.8607668,91.09518505,,"Noakhali, Noakhali District, Chattogram Division, Bangladesh","নোয়াখালী জেলা, চট্টগ্রাম বিভাগ, বাংলাদেশ",,,,Noakhali,বাংলাদেশ,চট্টগ্রাম বিভাগ,local_admin,boundaries,['park'],[],Bangladesh,Chittagong,Noakhali,NoakhaliSadar(Sudharam),NoakhaliPaurashava,3e63313d46b19bdcf4b5d56033e480ec
2677,867019008,893cc673267ffff,22.82998353,91.09173681,Church of Our Lady of Lourdes,"Church of Our Lady of Lourdes, Noakhali, Noakhali District, Chattogram Division, Bangladesh","নোয়াখালী জেলা, চট্টগ্রাম বিভাগ, বাংলাদেশ","Church of Our Lady of Lourdes, ",,,Noakhali,বাংলাদেশ,চট্টগ্রাম বিভাগ,local_admin,boundaries,['place_of_worship_christian'],[],Bangladesh,Chittagong,Noakhali,NoakhaliSadar(Sudharam),Binodpur,8e89e884775d4ae7341a4a0704d52d71
2681,913700527,893cc673517ffff,22.88289059,91.09784715,Arun Chandra High School,"Arun Chandra High School, Noakhali, Noakhali District, Chattogram Division, Bangladesh","নোয়াখালী জেলা, চট্টগ্রাম বিভাগ, বাংলাদেশ","Arun Chandra High School, ",,,Noakhali,বাংলাদেশ,চট্টগ্রাম বিভাগ,local_admin,boundaries,['school'],[],Bangladesh,Chittagong,Noakhali,NoakhaliSadar(Sudharam),KadirHanif,42ce4fc063e26947bceed975c8c3cb33
2684,9152404456,893cd50599bffff,22.0335066,90.9869617,,"Nijhum Dip, Noakhali District, Chattogram Division, Bangladesh","নোয়াখালী জেলা, চট্টগ্রাম বিভাগ, বাংলাদেশ",,,['উপরের বাজার'],,বাংলাদেশ,চট্টগ্রাম বিভাগ,admin2,boundaries,['marketplace'],[],Bangladesh,Chittagong,Noakhali,Hatiya,NijumDip,bc4430816d69609b22001941b28ed135
2685,913700769,893cc673513ffff,22.88185283,91.09565248,Balika Biddaya Niketon,"Balika Biddaya Niketon, Noakhali, Noakhali District, Chattogram Division, Bangladesh","নোয়াখালী জেলা, চট্টগ্রাম বিভাগ, বাংলাদেশ","Balika Biddaya Niketon, ",,,Noakhali,বাংলাদেশ,চট্টগ্রাম বিভাগ,local_admin,boundaries,['school'],[],Bangladesh,Chittagong,Noakhali,NoakhaliSadar(Sudharam),KadirHanif,42ce4fc063e26947bceed975c8c3cb33
2687,913700901,893cc673547ffff,22.87350506,91.09591381,Fire Station Maidji,"Fire Station Maidji, Noakhali, Noakhali District, Chattogram Division, Bangladesh","নোয়াখালী জেলা, চট্টগ্রাম বিভাগ, বাংলাদেশ","Fire Station Maidji, ",,,Noakhali,বাংলাদেশ,চট্টগ্রাম বিভাগ,local_admin,boundaries,['fire_station'],[],Bangladesh,Chittagong,Noakhali,NoakhaliSadar(Sudharam),KadirHanif,42ce4fc063e26947bceed975c8c3cb33
2688,9152422523,893cd5059abffff,22.0318258,90.9974197,Shotoful Bazar,"Shotoful Bazar, Nijhum Dip, Noakhali District, Chattogram Division, Bangladesh","নোয়াখালী জেলা, চট্টগ্রাম বিভাগ, বাংলাদেশ","Shotoful Bazar, ",,['শতফুল বাজার'],,বাংলাদেশ,চট্টগ্রাম বিভাগ,admin2,boundaries,['marketplace'],[],Bangladesh,Chittagong,Noakhali,Hatiya,NijumDip,bc4430816d69609b22001941b28ed135
2755,1034076535,893cd5a0a2bffff,22.3611963,91.0970802,Char King Girls High School,"Char King Girls High School, Noakhali District, Chattogram Division, Bangladesh","নোয়াখালী জেলা, চট্টগ্রাম বিভাগ, বাংলাদেশ","Char King Girls High School, ",,,,বাংলাদেশ,চট্টগ্রাম বিভাগ,admin2,boundaries,"['educational_institution', 'school']",[],Bangladesh,Chittagong,Noakhali,Hatiya,HatiyaPaurashava,4de390a3076f345e78bc74b1121f5226
2760,1034127882,893cd504a6bffff,22.04063509,91.00412927,NIZUM DWIP JUNIOR HIGH SCHOOL,"NIZUM DWIP JUNIOR HIGH SCHOOL, Nijhum Dip, Noakhali District, Chattogram Division, Bangladesh","নোয়াখালী জেলা, চট্টগ্রাম বিভাগ, বাংলাদেশ","NIZUM DWIP JUNIOR HIGH SCHOOL, ",,,,বাংলাদেশ,চট্টগ্রাম বিভাগ,admin2,boundaries,"['educational_institution', 'school']",[],Bangladesh,Chittagong,Noakhali,Hatiya,NijumDip,bc4430816d69609b22001941b28ed135
2761,1034127883,893cd5330abffff,22.12901275,91.04608623,FARUQ MEMORIAL JUNIOR HIGH SCHOOL,"FARUQ MEMORIAL JUNIOR HIGH SCHOOL, Noakhali District, Chattogram Division, Bangladesh","নোয়াখালী জেলা, চট্টগ্রাম বিভাগ, বাংলাদেশ","FARUQ MEMORIAL JUNIOR HIGH SCHOOL, ",,,,বাংলাদেশ,চট্টগ্রাম বিভাগ,admin2,boundaries,"['educational_institution', 'school']",[],Bangladesh,Chittagong,Noakhali,Hatiya,Jahajmara,ae112db5dd64c2f6c5d7e3a919929b55
2767,1034127884,893cd5322d3ffff,22.15457165,91.06236975,JAHAJMARA HIGH SCHOOL,"JAHAJMARA HIGH SCHOOL, Noakhali District, Chattogram Division, Bangladesh","নোয়াখালী জেলা, চট্টগ্রাম বিভাগ, বাংলাদেশ","JAHAJMARA HIGH SCHOOL, ",,,,বাংলাদেশ,চট্টগ্রাম বিভাগ,admin2,boundaries,"['educational_institution', 'school']",[],Bangladesh,Chittagong,Noakhali,Hatiya,Jahajmara,ae112db5dd64c2f6c5d7e3a919929b55
2773,1034127885,893cd53231bffff,22.15948293,91.09443914,BIRBIRI CENTRE BAZAR HIGH SCHOOL,"BIRBIRI CENTRE BAZAR HIGH SCHOOL, Noakhali District, Chattogram Division, Bangladesh","নোয়াখালী জেলা, চট্টগ্রাম বিভাগ, বাংলাদেশ","BIRBIRI CENTRE BAZAR HIGH SCHOOL, ",,,,বাংলাদেশ,চট্টগ্রাম বিভাগ,admin2,boundaries,"['educational_institution', 'school']",[],Bangladesh,Chittagong,Noakhali,Hatiya,Jahajmara,ae112db5dd64c2f6c5d7e3a919929b55
2776,1034127887,893cd5ad4cfffff,22.24047017,91.09190444,PURBO CHARCHANGA GOVT. PRIMARY SCHOOL,"PURBO CHARCHANGA GOVT. PRIMARY SCHOOL, Noakhali District, Chattogram Division, Bangladesh","নোয়াখালী জেলা, চট্টগ্রাম বিভাগ, বাংলাদেশ","PURBO CHARCHANGA GOVT. PRIMARY SCHOOL, ",,,,বাংলাদেশ,চট্টগ্রাম বিভাগ,admin2,boundaries,"['educational_institution', 'school']",[],Bangladesh,Chittagong,Noakhali,Hatiya,Sonadia,f8c1e07c81a5cbbc101b6ffc3832474b
2780,1034127891,893cd5ae6cfffff,22.32254401,91.09267138,BOALIYA HIGH  SCHOOL,"BOALIYA HIGH SCHOOL, Noakhali District, Chattogram Division, Bangladesh","নোয়াখালী জেলা, চট্টগ্রাম বিভাগ, বাংলাদেশ","BOALIYA HIGH SCHOOL, ",,,,বাংলাদেশ,চট্টগ্রাম বিভাগ,admin2,boundaries,"['educational_institution', 'school']",[],Bangladesh,Chittagong,Noakhali,Hatiya,HatiyaPaurashava,4de390a3076f345e78bc74b1121f5226
2785,1034407695,893cc64cb4fffff,22.62456905,91.0267315,CHAR AFZAL  SESDP  MODEL HIGH SCHOOL,"CHAR AFZAL SESDP MODEL HIGH SCHOOL, Noakhali, Noakhali District, Chattogram Division, Bangladesh","নোয়াখালী জেলা, চট্টগ্রাম বিভাগ, বাংলাদেশ","CHAR AFZAL SESDP MODEL HIGH SCHOOL, ",,,Noakhali,বাংলাদেশ,চট্টগ্রাম বিভাগ,local_admin,boundaries,['educational_institution'],[],Bangladesh,Chittagong,Noakhali,Subarnachar,CharWapda,9c487b8eb1830c6d23240dad552c90ec
2788,1041851963,893cc608d4bffff,22.97377775,91.0985175,,"Begumganj, Noakhali District, Chattogram Division, Bangladesh","নোয়াখালী জেলা, চট্টগ্রাম বিভাগ, বাংলাদেশ",,,,Begumganj,বাংলাদেশ,চট্টগ্রাম বিভাগ,local_admin,boundaries,['substation'],[],Bangladesh,Chittagong,Noakhali,Begumganj,MirWarishpur,69d89b3ea605c1eff4616345b8eb3502
2800,9152869294,893cd505d03ffff,22.0425837,90.9750999,Nijhum Dwip Beach,"Nijhum Dwip Beach, Nijhum Dip, Monpura Subdistrict, Bhola District, Barishal Division, Bangladesh","মনপুরা উপজেলা, ভোলা জেলা, বরিশাল বিভাগ, বাংলাদেশ","Nijhum Dwip Beach, ",,,মনপুরা উপজেলা,বাংলাদেশ,বরিশাল বিভাগ,local_admin,boundaries,['beach_resort'],[],Bangladesh,Chittagong,Noakhali,Hatiya,NijumDip,bc4430816d69609b22001941b28ed135
2803,9152869304,893cd505d3bffff,22.0432979,90.9801757,Namar Bazar Ghat,"Namar Bazar Ghat, Nijhum Dip, Noakhali District, Chattogram Division, Bangladesh","নোয়াখালী জেলা, চট্টগ্রাম বিভাগ, বাংলাদেশ","Namar Bazar Ghat, ",,,,বাংলাদেশ,চট্টগ্রাম বিভাগ,admin2,boundaries,['marketplace'],[],Bangladesh,Chittagong,Noakhali,Hatiya,NijumDip,bc4430816d69609b22001941b28ed135
2804,1072570006,893cc67148bffff,22.82460411,91.09911829,,"Noakhali, Noakhali District, Chattogram Division, Bangladesh","নোয়াখালী জেলা, চট্টগ্রাম বিভাগ, বাংলাদেশ",,,,Noakhali,বাংলাদেশ,চট্টগ্রাম বিভাগ,local_admin,boundaries,['water_tower'],[],Bangladesh,Chittagong,Noakhali,NoakhaliSadar(Sudharam),NoakhaliPaurashava,3e63313d46b19bdcf4b5d56033e480ec
2806,9152869305,893cd505d3bffff,22.0412547,90.9825093,Nijum Dwip Bidhaniketon Gov. School,"Nijum Dwip Bidhaniketon Gov. School, Nijhum Dip, Noakhali District, Chattogram Division, Bangladesh","নোয়াখালী জেলা, চট্টগ্রাম বিভাগ, বাংলাদেশ","Nijum Dwip Bidhaniketon Gov. School, ",,,,বাংলাদেশ,চট্টগ্রাম বিভাগ,admin2,boundaries,['school'],[],Bangladesh,Chittagong,Noakhali,Hatiya,NijumDip,bc4430816d69609b22001941b28ed135
2811,9152869306,893cd505d3bffff,22.0414381,90.9813308,Hotel Obokash Resort,"Hotel Obokash Resort, Nijhum Dip, Noakhali District, Chattogram Division, Bangladesh","নোয়াখালী জেলা, চট্টগ্রাম বিভাগ, বাংলাদেশ","Hotel Obokash Resort, ",,,,বাংলাদেশ,চট্টগ্রাম বিভাগ,admin2,boundaries,['restaurant'],[],Bangladesh,Chittagong,Noakhali,Hatiya,NijumDip,bc4430816d69609b22001941b28ed135
2812,1083267267,893cc671663ffff,22.7907691,91.099846,,"Noakhali, Noakhali District, Chattogram Division, Bangladesh","নোয়াখালী জেলা, চট্টগ্রাম বিভাগ, বাংলাদেশ",,,,Noakhali,বাংলাদেশ,চট্টগ্রাম বিভাগ,local_admin,boundaries,['substation'],[],Bangladesh,Chittagong,Noakhali,NoakhaliSadar(Sudharam),Noakhali,a598de810b3306be42a2b0357ad797de
2814,1083267268,893cc671673ffff,22.79102955,91.099553,,"Noakhali, Noakhali District, Chattogram Division, Bangladesh","নোয়াখালী জেলা, চট্টগ্রাম বিভাগ, বাংলাদেশ",,,,Noakhali,বাংলাদেশ,চট্টগ্রাম বিভাগ,local_admin,boundaries,['wastewater_plant'],[],Bangladesh,Chittagong,Noakhali,NoakhaliSadar(Sudharam),Noakhali,a598de810b3306be42a2b0357ad797de
2817,1084247947,893cc671673ffff,22.79194466,91.09970474,,"Noakhali, Noakhali District, Chattogram Division, Bangladesh","নোয়াখালী জেলা, চট্টগ্রাম বিভাগ, বাংলাদেশ",,,,Noakhali,বাংলাদেশ,চট্টগ্রাম বিভাগ,local_admin,boundaries,['place_of_worship_muslim'],[],Bangladesh,Chittagong,Noakhali,NoakhaliSadar(Sudharam),Noakhali,a598de810b3306be42a2b0357ad797de
2819,9152869311,893cd505d77ffff,22.0409878,90.9807215,Sohel Resort,"Sohel Resort, Nijhum Dip, Noakhali District, Chattogram Division, Bangladesh","নোয়াখালী জেলা, চট্টগ্রাম বিভাগ, বাংলাদেশ","Sohel Resort, ",,,,বাংলাদেশ,চট্টগ্রাম বিভাগ,admin2,boundaries,['restaurant'],[],Bangladesh,Chittagong,Noakhali,Hatiya,NijumDip,bc4430816d69609b22001941b28ed135
2821,9152869312,893cd505d77ffff,22.0406626,90.9809335,Namar Bazar jame Mosque,"Namar Bazar jame Mosque, Nijhum Dip, Noakhali District, Chattogram Division, Bangladesh","নোয়াখালী জেলা, চট্টগ্রাম বিভাগ, বাংলাদেশ","Namar Bazar jame Mosque, ",,,,বাংলাদেশ,চট্টগ্রাম বিভাগ,admin2,boundaries,['place_of_worship_muslim'],[],Bangladesh,Chittagong,Noakhali,Hatiya,NijumDip,bc4430816d69609b22001941b28ed135
2823,1084247950,893cc671673ffff,22.79179675,91.0981319,,"Noakhali, Noakhali District, Chattogram Division, Bangladesh","নোয়াখালী জেলা, চট্টগ্রাম বিভাগ, বাংলাদেশ",,,,Noakhali,বাংলাদেশ,চট্টগ্রাম বিভাগ,local_admin,boundaries,['parking'],[],Bangladesh,Chittagong,Noakhali,NoakhaliSadar(Sudharam),Noakhali,a598de810b3306be42a2b0357ad797de
2825,9152869313,893cd505d77ffff,22.0401189,90.9808382,আসিক হোটেল এন্ড রেষ্টুরেন্ট,"Nijhum Dip, Noakhali District, Chattogram Division, Bangladesh","আসিক হোটেল এন্ড রেষ্টুরেন্ট, নোয়াখালী জেলা, চট্টগ্রাম বিভাগ, বাংলাদেশ",,"আসিক হোটেল এন্ড রেষ্টুরেন্ট, ",,,বাংলাদেশ,চট্টগ্রাম বিভাগ,admin2,boundaries,['restaurant'],[],Bangladesh,Chittagong,Noakhali,Hatiya,NijumDip,bc4430816d69609b22001941b28ed135
2829,9152869314,893cd505d77ffff,22.0401592,90.9808785,Allahr Dhan Hotel & Resturant,"Allahr Dhan Hotel & Resturant, Nijhum Dip, Noakhali District, Chattogram Division, Bangladesh","নোয়াখালী জেলা, চট্টগ্রাম বিভাগ, বাংলাদেশ","Allahr Dhan Hotel & Resturant, ",,,,বাংলাদেশ,চট্টগ্রাম বিভাগ,admin2,boundaries,['restaurant'],[],Bangladesh,Chittagong,Noakhali,Hatiya,NijumDip,bc4430816d69609b22001941b28ed135
2837,9152869315,893cd505d77ffff,22.0401665,90.9809496,Hotel Al Madina,"Hotel Al Madina, Nijhum Dip, Noakhali District, Chattogram Division, Bangladesh","নোয়াখালী জেলা, চট্টগ্রাম বিভাগ, বাংলাদেশ","Hotel Al Madina, ",,,,বাংলাদেশ,চট্টগ্রাম বিভাগ,admin2,boundaries,['restaurant'],[],Bangladesh,Chittagong,Noakhali,Hatiya,NijumDip,bc4430816d69609b22001941b28ed135
2840,9152869317,893cd505d77ffff,22.0400265,90.9810015,Namaar Bazaar,"Namaar Bazaar, Nijhum Dip, Noakhali District, Chattogram Division, Bangladesh","নোয়াখালী জেলা, চট্টগ্রাম বিভাগ, বাংলাদেশ","Namaar Bazaar, ",,,,বাংলাদেশ,চট্টগ্রাম বিভাগ,admin2,boundaries,['marketplace'],[],Bangladesh,Chittagong,Noakhali,Hatiya,NijumDip,bc4430816d69609b22001941b28ed135
2846,9152869318,893cd505d77ffff,22.039977,90.9810847,নিঝুম দ্বীপ টেলিকম,"Nijhum Dip, Noakhali District, Chattogram Division, Bangladesh","নিঝুম দ্বীপ টেলিকম, নোয়াখালী জেলা, চট্টগ্রাম বিভাগ, বাংলাদেশ",,"নিঝুম দ্বীপ টেলিকম, ",,,বাংলাদেশ,চট্টগ্রাম বিভাগ,admin2,boundaries,['mobile_phone'],[],Bangladesh,Chittagong,Noakhali,Hatiya,NijumDip,bc4430816d69609b22001941b28ed135
2847,9152869319,893cd505d77ffff,22.0398624,90.9809511,হোটেল দ্বীপ সম্পদ,"Nijhum Dip, Noakhali District, Chattogram Division, Bangladesh","হোটেল দ্বীপ সম্পদ, নোয়াখালী জেলা, চট্টগ্রাম বিভাগ, বাংলাদেশ",,"হোটেল দ্বীপ সম্পদ, ",,,বাংলাদেশ,চট্টগ্রাম বিভাগ,admin2,boundaries,['restaurant'],[],Bangladesh,Chittagong,Noakhali,Hatiya,NijumDip,bc4430816d69609b22001941b28ed135
2855,9152869320,893cd505d77ffff,22.039861,90.981062,ভাই ভাই হোটেল এন্ড রেসটুরেন্ট,"Nijhum Dip, Noakhali District, Chattogram Division, Bangladesh","ভাই ভাই হোটেল এন্ড রেসটুরেন্ট, নোয়াখালী জেলা, চট্টগ্রাম বিভাগ, বাংলাদেশ",,"ভাই ভাই হোটেল এন্ড রেসটুরেন্ট, ",,,বাংলাদেশ,চট্টগ্রাম বিভাগ,admin2,boundaries,['restaurant'],[],Bangladesh,Chittagong,Noakhali,Hatiya,NijumDip,bc4430816d69609b22001941b28ed135
2857,9152869322,893cd505d77ffff,22.0396396,90.9810846,Arif Compute,"Arif Compute, Nijhum Dip, Noakhali District, Chattogram Division, Bangladesh","নোয়াখালী জেলা, চট্টগ্রাম বিভাগ, বাংলাদেশ","Arif Compute, ",,,,বাংলাদেশ,চট্টগ্রাম বিভাগ,admin2,boundaries,['kiosk'],[],Bangladesh,Chittagong,Noakhali,Hatiya,NijumDip,bc4430816d69609b22001941b28ed135
2862,9152869323,893cd505d77ffff,22.0396732,90.9810445,Sohel Restaurant,"Sohel Restaurant, Nijhum Dip, Noakhali District, Chattogram Division, Bangladesh","নোয়াখালী জেলা, চট্টগ্রাম বিভাগ, বাংলাদেশ","Sohel Restaurant, ",,,,বাংলাদেশ,চট্টগ্রাম বিভাগ,admin2,boundaries,['restaurant'],[],Bangladesh,Chittagong,Noakhali,Hatiya,NijumDip,bc4430816d69609b22001941b28ed135
2867,9152869324,893cd505d77ffff,22.0398174,90.9809938,ভাই ভাই হোটেল,"Nijhum Dip, Noakhali District, Chattogram Division, Bangladesh","ভাই ভাই হোটেল, নোয়াখালী জেলা, চট্টগ্রাম বিভাগ, বাংলাদেশ",,"ভাই ভাই হোটেল, ",,,বাংলাদেশ,চট্টগ্রাম বিভাগ,admin2,boundaries,['restaurant'],[],Bangladesh,Chittagong,Noakhali,Hatiya,NijumDip,bc4430816d69609b22001941b28ed135
2888,9529223907,893cc644083ffff,22.8167843,90.9832284,CHARKAWNIA ANWAR HOSSAIN HIGH SCHOOL,"CHARKAWNIA ANWAR HOSSAIN HIGH SCHOOL, Noakhali, Noakhali District, Chattogram Division, Bangladesh","নোয়াখালী জেলা, চট্টগ্রাম বিভাগ, বাংলাদেশ","CHARKAWNIA ANWAR HOSSAIN HIGH SCHOOL, ",,,Noakhali,বাংলাদেশ,চট্টগ্রাম বিভাগ,local_admin,boundaries,"['educational_institution', 'school']",[],Bangladesh,Chittagong,Noakhali,NoakhaliSadar(Sudharam),PurbaCharMatua,6785565c3231a587c6e94fe32c5dd341
2933,9529302841,893cc60b113ffff,22.9771949,90.9880428,AMANILAXMIPUR BEGUM HAMIDA HIGH SCHOOL,"AMANILAXMIPUR BEGUM HAMIDA HIGH SCHOOL, Lakshmipur, Lakshmipur District, Chattogram Division, Bangladesh","লক্ষ্মীপুর জেলা, চট্টগ্রাম বিভাগ, বাংলাদেশ","AMANILAXMIPUR BEGUM HAMIDA HIGH SCHOOL, ",,,Lakshmipur,বাংলাদেশ,চট্টগ্রাম বিভাগ,local_admin,boundaries,"['educational_institution', 'school']",[],Bangladesh,Chittagong,Noakhali,Chatkhil,KhilPara,c9deb9d00901d101798e3e4e6c774377
2963,9529302850,893cc619a6fffff,22.9877626,90.9348025,DATTAPARA  GIRLS HIGH SCHOOL,"DATTAPARA GIRLS HIGH SCHOOL, Lakshmipur, Lakshmipur District, Chattogram Division, Bangladesh","লক্ষ্মীপুর জেলা, চট্টগ্রাম বিভাগ, বাংলাদেশ","DATTAPARA GIRLS HIGH SCHOOL, ",,,Lakshmipur,বাংলাদেশ,চট্টগ্রাম বিভাগ,local_admin,boundaries,"['educational_institution', 'school']",[],Bangladesh,Chittagong,Noakhali,Chatkhil,Ramnarayanpur,ec4ac2d7d7e0af90a731e462741783b5
2977,9529326526,893cc6182b7ffff,23.06355,90.905092,SHOSHALIA MOSHARAF HOSSAIN MODEL SCHOOL,"SHOSHALIA MOSHARAF HOSSAIN MODEL SCHOOL, Ramganj, Lakshmipur District, Chattogram Division, Bangladesh","লক্ষ্মীপুর জেলা, চট্টগ্রাম বিভাগ, বাংলাদেশ","SHOSHALIA MOSHARAF HOSSAIN MODEL SCHOOL, ",,,Ramganj,বাংলাদেশ,চট্টগ্রাম বিভাগ,local_admin,boundaries,"['educational_institution', 'school']",[],Bangladesh,Chittagong,Noakhali,Chatkhil,Parkote,b9620008d09a9fd9e20546b8a9d50f84
2982,9592025007,893cd5059b7ffff,22.0392375,90.9990491,Nizum Dwip Junior High School,"Nizum Dwip Junior High School, Nijhum Dip, Noakhali District, Chattogram Division, Bangladesh","নোয়াখালী জেলা, চট্টগ্রাম বিভাগ, বাংলাদেশ","Nizum Dwip Junior High School, ",,,,বাংলাদেশ,চট্টগ্রাম বিভাগ,admin2,boundaries,['school'],[],Bangladesh,Chittagong,Noakhali,Hatiya,NijumDip,bc4430816d69609b22001941b28ed135
3008,5254958,893cd50484fffff,22.06312426,91.0037507,নিঝুম দ্বীপ,"Nijhum Dip, Noakhali District, Chattogram Division, Bangladesh","নিঝুম দ্বীপ, নোয়াখালী জেলা, চট্টগ্রাম বিভাগ, বাংলাদেশ",,"নিঝুম দ্বীপ, ",['Nijhum Dweep'],,বাংলাদেশ,চট্টগ্রাম বিভাগ,admin2,boundaries,['island'],[],Bangladesh,Chittagong,Noakhali,Hatiya,NijumDip,bc4430816d69609b22001941b28ed135
3026,9590128,893cc6735dbffff,22.88075924,91.08538615,Central Jail,"Central Jail, Noakhali, Noakhali District, Chattogram Division, Bangladesh","নোয়াখালী জেলা, চট্টগ্রাম বিভাগ, বাংলাদেশ","Central Jail, ",,,Noakhali,বাংলাদেশ,চট্টগ্রাম বিভাগ,local_admin,boundaries,['prison'],[],Bangladesh,Chittagong,Noakhali,NoakhaliSadar(Sudharam),KadirHanif,42ce4fc063e26947bceed975c8c3cb33
3033,12868999,893cd531217ffff,22.05086987,91.06793518,দমার চর,"Noakhali District, Chattogram Division, Bangladesh","দমার চর, নোয়াখালী জেলা, চট্টগ্রাম বিভাগ, বাংলাদেশ",,"দমার চর, ",['Domar Char'],,বাংলাদেশ,চট্টগ্রাম বিভাগ,admin2,boundaries,['island'],[],Bangladesh,Chittagong,Noakhali,Hatiya,NijumDip,bc4430816d69609b22001941b28ed135
3068,8813733735,893cc67355bffff,22.8711786,91.0891293,Aponaloy,"Aponaloy, ",,"Aponaloy, ",,,Noakhali,বাংলাদেশ,চট্টগ্রাম বিভাগ,housenumber,,,,Bangladesh,Chittagong,Noakhali,NoakhaliSadar(Sudharam),KadirHanif,42ce4fc063e26947bceed975c8c3cb33
3092,604872056,893cc67306bffff,22.84866594,91.09627527,Nice Guest House,"Nice Guest House, ",,"Nice Guest House, ",,,Noakhali,বাংলাদেশ,চট্টগ্রাম বিভাগ,housenumber,,,,Bangladesh,Chittagong,Noakhali,NoakhaliSadar(Sudharam),Binodpur,8e89e884775d4ae7341a4a0704d52d71
3096,604872708,893cc67355bffff,22.87117203,91.08911234,Aponaloy,"Aponaloy, ",,"Aponaloy, ",,,Noakhali,বাংলাদেশ,চট্টগ্রাম বিভাগ,housenumber,,,,Bangladesh,Chittagong,Noakhali,NoakhaliSadar(Sudharam),KadirHanif,42ce4fc063e26947bceed975c8c3cb33
3100,604946031,893cc673503ffff,22.8801788,91.096789,Uniko Engineers,"Uniko Engineers, ",,"Uniko Engineers, ",,,Noakhali,বাংলাদেশ,চট্টগ্রাম বিভাগ,housenumber,,,,Bangladesh,Chittagong,Noakhali,NoakhaliSadar(Sudharam),KadirHanif,42ce4fc063e26947bceed975c8c3cb33
3199,899987445,893cc6730b3ffff,22.86893990331633,91.09340755004699,Road 16,"Road 16, Noakhali, Noakhali District, Chattogram Division, Bangladesh","নোয়াখালী জেলা, চট্টগ্রাম বিভাগ, বাংলাদেশ",Road 16,,,Noakhali,বাংলাদেশ,চট্টগ্রাম বিভাগ,street,,,,Bangladesh,Chittagong,Noakhali,NoakhaliSadar(Sudharam),KadirHanif,42ce4fc063e26947bceed975c8c3cb33
3231,520744906,893cc608233ffff,22.944160553433463,91.03387752542228,লক্ষ্মীপুর-চৌমুহনী সড়ক,"Lakshmipur Chowmuhani Road, Begumganj, Noakhali District, Chattogram Division, Bangladesh","লক্ষ্মীপুর-চৌমুহনী সড়ক, নোয়াখালী জেলা, চট্টগ্রাম বিভাগ, বাংলাদেশ",,"লক্ষ্মীপুর-চৌমুহনী সড়ক, ","['লক্ষ্মীপুর-চৌমুহনী সড়ক', 'Lakshmipur Chowmuhani Road']",Begumganj,বাংলাদেশ,চট্টগ্রাম বিভাগ,street,,,,Bangladesh,Chittagong,Noakhali,Begumganj,Jirtali,69abc747f63bbd941ced0dab92b2de64
3291,1063459514,893cc601a4fffff,23.0356762,91.0968295,লালমাই-লাকসাম-সোনাইমুড়ি সড়ক,"Lalmai-Laksam-Sonaimuri Road, Begumganj, Noakhali District, Chattogram Division, Bangladesh","লালমাই-লাকসাম-সোনাইমুড়ি সড়ক, নোয়াখালী জেলা, চট্টগ্রাম বিভাগ, বাংলাদেশ",,"লালমাই-লাকসাম-সোনাইমুড়ি সড়ক, ","['লালমাই-লাকসাম-সোনাইমুড়ি সড়ক', 'Lalmai-Laksam-Sonaimuri Road']",Begumganj,বাংলাদেশ,চট্টগ্রাম বিভাগ,street,,,,Bangladesh,Chittagong,Noakhali,Sonaimuri,SonaimuriPaurashava,550217582db3212d1fa05b1d53b6864c
3308,519443189,893cd5b4187ffff,22.559542097480993,91.09269403651055,weg,"weg, Noakhali District, Chattogram Division, Bangladesh","নোয়াখালী জেলা, চট্টগ্রাম বিভাগ, বাংলাদেশ",weg,,,,বাংলাদেশ,চট্টগ্রাম বিভাগ,street,,,,Bangladesh,Chittagong,Noakhali,Hatiya,Chandnandi,9018337a8ed68bc8172c5c2fd2f88ba2
3323,899987423,893cc67354bffff,22.86931635,91.09343665,Road 15,"Road 15, Noakhali, Noakhali District, Chattogram Division, Bangladesh","নোয়াখালী জেলা, চট্টগ্রাম বিভাগ, বাংলাদেশ",Road 15,,,Noakhali,বাংলাদেশ,চট্টগ্রাম বিভাগ,street,,,,Bangladesh,Chittagong,Noakhali,NoakhaliSadar(Sudharam),KadirHanif,42ce4fc063e26947bceed975c8c3cb33
3366,835198142,893cc601a9bffff,23.050191428466245,91.09034974696733,বেগমগঞ্জ-সোনাইমুড়ি-রামগঞ্জ সড়ক,"Begamganj-Sonaimuri-Ramganj Road, Begumganj, Noakhali District, Chattogram Division, Bangladesh","বেগমগঞ্জ-সোনাইমুড়ি-রামগঞ্জ সড়ক, নোয়াখালী জেলা, চট্টগ্রাম বিভাগ, বাংলাদেশ",,"বেগমগঞ্জ-সোনাইমুড়ি-রামগঞ্জ সড়ক, ","['বেগমগঞ্জ-সোনাইমুড়ি-রামগঞ্জ সড়ক', 'Begamganj-Sonaimuri-Ramganj Road']",Begumganj,বাংলাদেশ,চট্টগ্রাম বিভাগ,street,,,,Bangladesh,Chittagong,Noakhali,Sonaimuri,Nadana,1a7d1745d89730b474b84d46fa120d1a
3390,899986220,893cc67354bffff,22.8701172,91.0925569,Road 3,"Road 3, Noakhali, Noakhali District, Chattogram Division, Bangladesh","নোয়াখালী জেলা, চট্টগ্রাম বিভাগ, বাংলাদেশ",Road 3,,,Noakhali,বাংলাদেশ,চট্টগ্রাম বিভাগ,street,,,,Bangladesh,Chittagong,Noakhali,NoakhaliSadar(Sudharam),KadirHanif,42ce4fc063e26947bceed975c8c3cb33
3408,899987063,893cc6730b3ffff,22.867800000000003,91.0924852,Road 9,"Road 9, Noakhali, Noakhali District, Chattogram Division, Bangladesh","নোয়াখালী জেলা, চট্টগ্রাম বিভাগ, বাংলাদেশ",Road 9,,,Noakhali,বাংলাদেশ,চট্টগ্রাম বিভাগ,street,,,,Bangladesh,Chittagong,Noakhali,NoakhaliSadar(Sudharam),KadirHanif,42ce4fc063e26947bceed975c8c3cb33
3428,899986664,893cc67354bffff,22.86857675,91.09250915000001,Road 7,"Road 7, Noakhali, Noakhali District, Chattogram Division, Bangladesh","নোয়াখালী জেলা, চট্টগ্রাম বিভাগ, বাংলাদেশ",Road 7,,,Noakhali,বাংলাদেশ,চট্টগ্রাম বিভাগ,street,,,,Bangladesh,Chittagong,Noakhali,NoakhaliSadar(Sudharam),KadirHanif,42ce4fc063e26947bceed975c8c3cb33
3465,835204767,893cc601047ffff,23.063751902558444,91.03722129052973,বেগমগঞ্জ-সোনাইমুড়ি-রামগঞ্জ সড়ক,"Begamganj-Sonaimuri-Ramganj Road, Chatkhil, Noakhali District, Chattogram Division, Bangladesh","বেগমগঞ্জ-সোনাইমুড়ি-রামগঞ্জ সড়ক, নোয়াখালী জেলা, চট্টগ্রাম বিভাগ, বাংলাদেশ",,"বেগমগঞ্জ-সোনাইমুড়ি-রামগঞ্জ সড়ক, ","['বেগমগঞ্জ-সোনাইমুড়ি-রামগঞ্জ সড়ক', 'Begamganj-Sonaimuri-Ramganj Road']",Chatkhil,বাংলাদেশ,চট্টগ্রাম বিভাগ,street,,,,Bangladesh,Chittagong,Noakhali,Sonaimuri,Jayag,b8cba2c1cb1f01824249c5f8a1af4fb0
3467,835204767,893cc601047ffff,23.063751902558444,91.03722129052973,বেগমগঞ্জ-সোনাইমুড়ি-রামগঞ্জ সড়ক,"Begamganj-Sonaimuri-Ramganj Road, Begumganj, Noakhali District, Chattogram Division, Bangladesh","বেগমগঞ্জ-সোনাইমুড়ি-রামগঞ্জ সড়ক, নোয়াখালী জেলা, চট্টগ্রাম বিভাগ, বাংলাদেশ",,"বেগমগঞ্জ-সোনাইমুড়ি-রামগঞ্জ সড়ক, ","['বেগমগঞ্জ-সোনাইমুড়ি-রামগঞ্জ সড়ক', 'Begamganj-Sonaimuri-Ramganj Road']",Begumganj,বাংলাদেশ,চট্টগ্রাম বিভাগ,street,,,,Bangladesh,Chittagong,Noakhali,Sonaimuri,Jayag,b8cba2c1cb1f01824249c5f8a1af4fb0
3594,835198143,893cc601e1bffff,23.059983799999998,91.0760903,বেগমগঞ্জ-সোনাইমুড়ি-রামগঞ্জ সড়ক,"Begamganj-Sonaimuri-Ramganj Road, Begumganj, Noakhali District, Chattogram Division, Bangladesh","বেগমগঞ্জ-সোনাইমুড়ি-রামগঞ্জ সড়ক, নোয়াখালী জেলা, চট্টগ্রাম বিভাগ, বাংলাদেশ",,"বেগমগঞ্জ-সোনাইমুড়ি-রামগঞ্জ সড়ক, ","['বেগমগঞ্জ-সোনাইমুড়ি-রামগঞ্জ সড়ক', 'Begamganj-Sonaimuri-Ramganj Road']",Begumganj,বাংলাদেশ,চট্টগ্রাম বিভাগ,street,,,,Bangladesh,Chittagong,Noakhali,Sonaimuri,Nadana,1a7d1745d89730b474b84d46fa120d1a
3598,899986035,893cc67354bffff,22.8704419,91.09256690000001,Road 2,"Road 2, Noakhali, Noakhali District, Chattogram Division, Bangladesh","নোয়াখালী জেলা, চট্টগ্রাম বিভাগ, বাংলাদেশ",Road 2,,,Noakhali,বাংলাদেশ,চট্টগ্রাম বিভাগ,street,,,,Bangladesh,Chittagong,Noakhali,NoakhaliSadar(Sudharam),KadirHanif,42ce4fc063e26947bceed975c8c3cb33
3620,1049577361,893cc60102fffff,23.065817277570652,91.04979309090464,Nurul Anwar Road,"Nurul Anwar Road, Begumganj, Noakhali District, Chattogram Division, Bangladesh","নোয়াখালী জেলা, চট্টগ্রাম বিভাগ, বাংলাদেশ",Nurul Anwar Road,,,Begumganj,বাংলাদেশ,চট্টগ্রাম বিভাগ,street,,,,Bangladesh,Chittagong,Noakhali,Sonaimuri,Nadana,1a7d1745d89730b474b84d46fa120d1a
3658,899985706,893cc67354bffff,22.869282499370975,91.09292157601192,New Housing Road,"New Housing Road, Noakhali, Noakhali District, Chattogram Division, Bangladesh","নোয়াখালী জেলা, চট্টগ্রাম বিভাগ, বাংলাদেশ",New Housing Road,,,Noakhali,বাংলাদেশ,চট্টগ্রাম বিভাগ,street,,,,Bangladesh,Chittagong,Noakhali,NoakhaliSadar(Sudharam),KadirHanif,42ce4fc063e26947bceed975c8c3cb33
3732,959649394,893cc60abb7ffff,23.010680066266495,91.09395894011983,বেগমগঞ্জ-সোনাইমুড়ি-রামগঞ্জ সড়ক,"Begamganj-Sonaimuri-Ramganj Road, Begumganj, Noakhali District, Chattogram Division, Bangladesh","বেগমগঞ্জ-সোনাইমুড়ি-রামগঞ্জ সড়ক, নোয়াখালী জেলা, চট্টগ্রাম বিভাগ, বাংলাদেশ",,"বেগমগঞ্জ-সোনাইমুড়ি-রামগঞ্জ সড়ক, ","['বেগমগঞ্জ-সোনাইমুড়ি-রামগঞ্জ সড়ক', 'Begamganj-Sonaimuri-Ramganj Road']",Begumganj,বাংলাদেশ,চট্টগ্রাম বিভাগ,street,,,,Bangladesh,Chittagong,Noakhali,Sonaimuri,Bazra,39e2f93186b75b5b539bdbb24a11dbd0
3772,337529045,893cc60a917ffff,23.0254597101026,91.09559840267823,বেগমগঞ্জ-সোনাইমুড়ি-রামগঞ্জ সড়ক,"Begamganj-Sonaimuri-Ramganj Road, Begumganj, Noakhali District, Chattogram Division, Bangladesh","বেগমগঞ্জ-সোনাইমুড়ি-রামগঞ্জ সড়ক, নোয়াখালী জেলা, চট্টগ্রাম বিভাগ, বাংলাদেশ",,"বেগমগঞ্জ-সোনাইমুড়ি-রামগঞ্জ সড়ক, ","['বেগমগঞ্জ-সোনাইমুড়ি-রামগঞ্জ সড়ক', 'Begamganj-Sonaimuri-Ramganj Road']",Begumganj,বাংলাদেশ,চট্টগ্রাম বিভাগ,street,,,,Bangladesh,Chittagong,Noakhali,Sonaimuri,SonaimuriPaurashava,550217582db3212d1fa05b1d53b6864c
3780,897832906,893cc672657ffff,22.89818245,91.1001447,Passport Office Road,"Passport Office Road, Begumganj, Noakhali District, Chattogram Division, Bangladesh","নোয়াখালী জেলা, চট্টগ্রাম বিভাগ, বাংলাদেশ",Passport Office Road,,,Begumganj,বাংলাদেশ,চট্টগ্রাম বিভাগ,street,,,,Bangladesh,Chittagong,Noakhali,Begumganj,Eklashpur,adf22d722a7b0f5e23004debfd735805
3794,899986726,893cc6730b3ffff,22.868189450000003,91.09249715,Road 8,"Road 8, Noakhali, Noakhali District, Chattogram Division, Bangladesh","নোয়াখালী জেলা, চট্টগ্রাম বিভাগ, বাংলাদেশ",Road 8,,,Noakhali,বাংলাদেশ,চট্টগ্রাম বিভাগ,street,,,,Bangladesh,Chittagong,Noakhali,NoakhaliSadar(Sudharam),KadirHanif,42ce4fc063e26947bceed975c8c3cb33
3897,835196398,893cc6032c3ffff,23.101315917138237,90.99221595856035,Mudaffarganj-Catkhil Road,"Mudaffarganj-Catkhil Road, Monohorgonj Upazila, Cumilla District, Chattogram Division, Bangladesh","মনোহরগঞ্জ উপজেলা, কুমিল্লা জেলা, চট্টগ্রাম বিভাগ, বাংলাদেশ",Mudaffarganj-Catkhil Road,,,মনোহরগঞ্জ উপজেলা,বাংলাদেশ,চট্টগ্রাম বিভাগ,street,,,,Bangladesh,Chittagong,Noakhali,Chatkhil,Mohammadpur,8b057ec173966afe796c35af0b3aea51
3900,835196398,893cc6032c3ffff,23.101315917138237,90.99221595856035,Mudaffarganj-Catkhil Road,"Mudaffarganj-Catkhil Road, Shaharasti Upazila, Chandpur District, Chattogram Division, Bangladesh","শাহরাস্তি উপজেলা, চাঁদপুর জেলা, চট্টগ্রাম বিভাগ, বাংলাদেশ",Mudaffarganj-Catkhil Road,,,শাহরাস্তি উপজেলা,বাংলাদেশ,চট্টগ্রাম বিভাগ,street,,,,Bangladesh,Chittagong,Noakhali,Chatkhil,Mohammadpur,8b057ec173966afe796c35af0b3aea51
3904,835196398,893cc6032c3ffff,23.101315917138237,90.99221595856035,Mudaffarganj-Catkhil Road,"Mudaffarganj-Catkhil Road, Shaharasti Upazila, Cumilla District, Chattogram Division, Bangladesh","শাহরাস্তি উপজেলা, কুমিল্লা জেলা, চট্টগ্রাম বিভাগ, বাংলাদেশ",Mudaffarganj-Catkhil Road,,,শাহরাস্তি উপজেলা,বাংলাদেশ,চট্টগ্রাম বিভাগ,street,,,,Bangladesh,Chittagong,Noakhali,Chatkhil,Mohammadpur,8b057ec173966afe796c35af0b3aea51
3936,164439900,893cc609e5bffff,22.89601896698643,91.0295824438869,Maijdee-Chandragonj Rd,"Maijdee-Chandragonj Rd, Noakhali, Noakhali District, Chattogram Division, Bangladesh","নোয়াখালী জেলা, চট্টগ্রাম বিভাগ, বাংলাদেশ",Maijdee-Chandragonj Rd,,,Noakhali,বাংলাদেশ,চট্টগ্রাম বিভাগ,street,,,,Bangladesh,Chittagong,Noakhali,Begumganj,Chhayani,e1cbf20f3d5c4333387fd15071247ba6
3938,164439900,893cc609e5bffff,22.89601896698643,91.0295824438869,Maijdee-Chandragonj Rd,"Maijdee-Chandragonj Rd, Begumganj, Noakhali District, Chattogram Division, Bangladesh","নোয়াখালী জেলা, চট্টগ্রাম বিভাগ, বাংলাদেশ",Maijdee-Chandragonj Rd,,,Begumganj,বাংলাদেশ,চট্টগ্রাম বিভাগ,street,,,,Bangladesh,Chittagong,Noakhali,Begumganj,Chhayani,e1cbf20f3d5c4333387fd15071247ba6
3966,225806393,893cc6731dbffff,22.864922281955405,91.1024854346048,Station Road,"Station Road, Noakhali, Noakhali District, Chattogram Division, Bangladesh","নোয়াখালী জেলা, চট্টগ্রাম বিভাগ, বাংলাদেশ",Station Road,,,Noakhali,বাংলাদেশ,চট্টগ্রাম বিভাগ,street,,,,Bangladesh,Chittagong,Noakhali,NoakhaliSadar(Sudharam),NoakhaliPaurashava,3e63313d46b19bdcf4b5d56033e480ec
3971,225804991,893cc6714c7ffff,22.820976949347813,91.09686055239646,Char Alaxander-Sonapur Rd,"Char Alaxander-Sonapur Rd, Noakhali, Noakhali District, Chattogram Division, Bangladesh","নোয়াখালী জেলা, চট্টগ্রাম বিভাগ, বাংলাদেশ",Char Alaxander-Sonapur Rd,,,Noakhali,বাংলাদেশ,চট্টগ্রাম বিভাগ,street,,,,Bangladesh,Chittagong,Noakhali,NoakhaliSadar(Sudharam),NoakhaliPaurashava,3e63313d46b19bdcf4b5d56033e480ec
3976,899986428,893cc67354bffff,22.86934465,91.092533,Road 5,"Road 5, Noakhali, Noakhali District, Chattogram Division, Bangladesh","নোয়াখালী জেলা, চট্টগ্রাম বিভাগ, বাংলাদেশ",Road 5,,,Noakhali,বাংলাদেশ,চট্টগ্রাম বিভাগ,street,,,,Bangladesh,Chittagong,Noakhali,NoakhaliSadar(Sudharam),KadirHanif,42ce4fc063e26947bceed975c8c3cb33
3998,899986332,893cc67354bffff,22.86973005,91.09254485,Road 4,"Road 4, Noakhali, Noakhali District, Chattogram Division, Bangladesh","নোয়াখালী জেলা, চট্টগ্রাম বিভাগ, বাংলাদেশ",Road 4,,,Noakhali,বাংলাদেশ,চট্টগ্রাম বিভাগ,street,,,,Bangladesh,Chittagong,Noakhali,NoakhaliSadar(Sudharam),KadirHanif,42ce4fc063e26947bceed975c8c3cb33
4006,225802457,893cc673547ffff,22.8735920993982,91.09694275928769,Chowmohani-Maijdi Road,"Chowmohani-Maijdi Road, Noakhali, Noakhali District, Chattogram Division, Bangladesh","নোয়াখালী জেলা, চট্টগ্রাম বিভাগ, বাংলাদেশ",Chowmohani-Maijdi Road,,,Noakhali,বাংলাদেশ,চট্টগ্রাম বিভাগ,street,,,,Bangladesh,Chittagong,Noakhali,NoakhaliSadar(Sudharam),KadirHanif,42ce4fc063e26947bceed975c8c3cb33
4008,225802457,893cc673547ffff,22.8735920993982,91.09694275928769,Chowmohani-Maijdi Road,"Chowmohani-Maijdi Road, Begumganj, Noakhali District, Chattogram Division, Bangladesh","নোয়াখালী জেলা, চট্টগ্রাম বিভাগ, বাংলাদেশ",Chowmohani-Maijdi Road,,,Begumganj,বাংলাদেশ,চট্টগ্রাম বিভাগ,street,,,,Bangladesh,Chittagong,Noakhali,NoakhaliSadar(Sudharam),KadirHanif,42ce4fc063e26947bceed975c8c3cb33
4060,618492575,893cc60867bffff,22.94931288681676,91.00859780434689,লক্ষ্মীপুর-চৌমুহনী সড়ক,"Lakshmipur Chowmuhani Road, Begumganj, Noakhali District, Chattogram Division, Bangladesh","লক্ষ্মীপুর-চৌমুহনী সড়ক, নোয়াখালী জেলা, চট্টগ্রাম বিভাগ, বাংলাদেশ",,"লক্ষ্মীপুর-চৌমুহনী সড়ক, ","['লক্ষ্মীপুর-চৌমুহনী সড়ক', 'Lakshmipur Chowmuhani Road']",Begumganj,বাংলাদেশ,চট্টগ্রাম বিভাগ,street,,,,Bangladesh,Chittagong,Noakhali,Begumganj,Alyerapur,eafc237090a4452170ba4a20fd87cfac
4069,226082375,893cc608e6bffff,22.945203707437113,91.07572679492449,লক্ষ্মীপুর-চৌমুহনী সড়ক,"Lakshmipur Chowmuhani Road, Begumganj, Noakhali District, Chattogram Division, Bangladesh","লক্ষ্মীপুর-চৌমুহনী সড়ক, নোয়াখালী জেলা, চট্টগ্রাম বিভাগ, বাংলাদেশ",,"লক্ষ্মীপুর-চৌমুহনী সড়ক, ","['লক্ষ্মীপুর-চৌমুহনী সড়ক', 'Lakshmipur Chowmuhani Road']",Begumganj,বাংলাদেশ,চট্টগ্রাম বিভাগ,street,,,,Bangladesh,Chittagong,Noakhali,Begumganj,MirWarishpur,69d89b3ea605c1eff4616345b8eb3502
4186,899987259,893cc67354bffff,22.869718300000002,91.0934687,Road 14,"Road 14, Noakhali, Noakhali District, Chattogram Division, Bangladesh","নোয়াখালী জেলা, চট্টগ্রাম বিভাগ, বাংলাদেশ",Road 14,,,Noakhali,বাংলাদেশ,চট্টগ্রাম বিভাগ,street,,,,Bangladesh,Chittagong,Noakhali,NoakhaliSadar(Sudharam),KadirHanif,42ce4fc063e26947bceed975c8c3cb33
4217,959649395,893cc60abb7ffff,23.01067402094279,91.09406654944952,বেগমগঞ্জ-সোনাইমুড়ি-রামগঞ্জ সড়ক,"Begamganj-Sonaimuri-Ramganj Road, Begumganj, Noakhali District, Chattogram Division, Bangladesh","বেগমগঞ্জ-সোনাইমুড়ি-রামগঞ্জ সড়ক, নোয়াখালী জেলা, চট্টগ্রাম বিভাগ, বাংলাদেশ",,"বেগমগঞ্জ-সোনাইমুড়ি-রামগঞ্জ সড়ক, ","['বেগমগঞ্জ-সোনাইমুড়ি-রামগঞ্জ সড়ক', 'Begamganj-Sonaimuri-Ramganj Road']",Begumganj,বাংলাদেশ,চট্টগ্রাম বিভাগ,street,,,,Bangladesh,Chittagong,Noakhali,Sonaimuri,Bazra,39e2f93186b75b5b539bdbb24a11dbd0
4232,835204773,893cc64599bffff,22.769466709368825,91.03430126264549,Char Alaxander-Sonapur Rd,"Char Alaxander-Sonapur Rd, Noakhali, Lakshmipur District, Chattogram Division, Bangladesh","লক্ষ্মীপুর জেলা, চট্টগ্রাম বিভাগ, বাংলাদেশ",Char Alaxander-Sonapur Rd,,,Noakhali,বাংলাদেশ,চট্টগ্রাম বিভাগ,street,,,,Bangladesh,Chittagong,Noakhali,NoakhaliSadar(Sudharam),Kaladaraf,2ae4cd643e1130c5301ed7da962f9fbd
4234,835204773,893cc64599bffff,22.769466709368825,91.03430126264549,Char Alaxander-Sonapur Rd,"Char Alaxander-Sonapur Rd, Noakhali, Noakhali District, Chattogram Division, Bangladesh","নোয়াখালী জেলা, চট্টগ্রাম বিভাগ, বাংলাদেশ",Char Alaxander-Sonapur Rd,,,Noakhali,বাংলাদেশ,চট্টগ্রাম বিভাগ,street,,,,Bangladesh,Chittagong,Noakhali,NoakhaliSadar(Sudharam),Kaladaraf,2ae4cd643e1130c5301ed7da962f9fbd
4254,835204768,893cc618b37ffff,23.05998335,90.99906625,বেগমগঞ্জ-সোনাইমুড়ি-রামগঞ্জ সড়ক,"Begamganj-Sonaimuri-Ramganj Road, Chatkhil, Noakhali District, Chattogram Division, Bangladesh","বেগমগঞ্জ-সোনাইমুড়ি-রামগঞ্জ সড়ক, নোয়াখালী জেলা, চট্টগ্রাম বিভাগ, বাংলাদেশ",,"বেগমগঞ্জ-সোনাইমুড়ি-রামগঞ্জ সড়ক, ","['বেগমগঞ্জ-সোনাইমুড়ি-রামগঞ্জ সড়ক', 'Begamganj-Sonaimuri-Ramganj Road']",Chatkhil,বাংলাদেশ,চট্টগ্রাম বিভাগ,street,,,,Bangladesh,Chittagong,Noakhali,Chatkhil,Panchgaon,6551258ba43f86c354fbc104845be6c8
4291,899986562,893cc67354bffff,22.8689576,91.092521,Road 6,"Road 6, Noakhali, Noakhali District, Chattogram Division, Bangladesh","নোয়াখালী জেলা, চট্টগ্রাম বিভাগ, বাংলাদেশ",Road 6,,,Noakhali,বাংলাদেশ,চট্টগ্রাম বিভাগ,street,,,,Bangladesh,Chittagong,Noakhali,NoakhaliSadar(Sudharam),KadirHanif,42ce4fc063e26947bceed975c8c3cb33
4295,1053547255,893cc601a73ffff,23.03829792556119,91.10135814750574,Sonaimuri High School Road,"Sonaimuri High School Road, Begumganj, Noakhali District, Chattogram Division, Bangladesh","নোয়াখালী জেলা, চট্টগ্রাম বিভাগ, বাংলাদেশ",Sonaimuri High School Road,,,Begumganj,বাংলাদেশ,চট্টগ্রাম বিভাগ,street,,,,Bangladesh,Chittagong,Noakhali,Sonaimuri,SonaimuriPaurashava,550217582db3212d1fa05b1d53b6864c
4298,913700815,893cc673513ffff,22.88150075,91.0964415,School  RD,"School RD, Noakhali, Noakhali District, Chattogram Division, Bangladesh","নোয়াখালী জেলা, চট্টগ্রাম বিভাগ, বাংলাদেশ",School RD,,,Noakhali,বাংলাদেশ,চট্টগ্রাম বিভাগ,street,,,,Bangladesh,Chittagong,Noakhali,NoakhaliSadar(Sudharam),KadirHanif,42ce4fc063e26947bceed975c8c3cb33
4300,687460596,893cc601a47ffff,23.038390982841108,91.0967037006844,Sonaimuri High School Road,"Sonaimuri High School Road, Begumganj, Noakhali District, Chattogram Division, Bangladesh","নোয়াখালী জেলা, চট্টগ্রাম বিভাগ, বাংলাদেশ",Sonaimuri High School Road,,,Begumganj,বাংলাদেশ,চট্টগ্রাম বিভাগ,street,,,,Bangladesh,Chittagong,Noakhali,Sonaimuri,SonaimuriPaurashava,550217582db3212d1fa05b1d53b6864c
4337,236529693,893cc60186bffff,23.056170204324317,91.10892439644371,লালমাই-লাকসাম-সোনাইমুড়ি সড়ক,"Lalmai-Laksam-Sonaimuri Road, Begumganj, Noakhali District, Chattogram Division, Bangladesh","লালমাই-লাকসাম-সোনাইমুড়ি সড়ক, নোয়াখালী জেলা, চট্টগ্রাম বিভাগ, বাংলাদেশ",,"লালমাই-লাকসাম-সোনাইমুড়ি সড়ক, ","['লালমাই-লাকসাম-সোনাইমুড়ি সড়ক', 'Lalmai-Laksam-Sonaimuri Road']",Begumganj,বাংলাদেশ,চট্টগ্রাম বিভাগ,street,,,,Bangladesh,Chittagong,Noakhali,Sonaimuri,SonaimuriPaurashava,550217582db3212d1fa05b1d53b6864c
4417,519443197,893cd5b418bffff,22.55662553016064,91.0896282024586,weg,"weg, Noakhali District, Chattogram Division, Bangladesh","নোয়াখালী জেলা, চট্টগ্রাম বিভাগ, বাংলাদেশ",weg,,,,বাংলাদেশ,চট্টগ্রাম বিভাগ,street,,,,Bangladesh,Chittagong,Noakhali,Hatiya,Chandnandi,9018337a8ed68bc8172c5c2fd2f88ba2
4426,1063459515,893cc601a4fffff,23.035656819533585,91.09654735034933,লালমাই-লাকসাম-সোনাইমুড়ি সড়ক,"Lalmai-Laksam-Sonaimuri Road, Begumganj, Noakhali District, Chattogram Division, Bangladesh","লালমাই-লাকসাম-সোনাইমুড়ি সড়ক, নোয়াখালী জেলা, চট্টগ্রাম বিভাগ, বাংলাদেশ",,"লালমাই-লাকসাম-সোনাইমুড়ি সড়ক, ","['লালমাই-লাকসাম-সোনাইমুড়ি সড়ক', 'Lalmai-Laksam-Sonaimuri Road']",Begumganj,বাংলাদেশ,চট্টগ্রাম বিভাগ,street,,,,Bangladesh,Chittagong,Noakhali,Sonaimuri,SonaimuriPaurashava,550217582db3212d1fa05b1d53b6864c
4484,9139743538,893cc673547ffff,22.8743049,91.0967194,মাইজদী,"Maijdee, Noakhali, Noakhali District, Chattogram Division, Bangladesh","মাইজদী, নোয়াখালী জেলা, চট্টগ্রাম বিভাগ, বাংলাদেশ",,"মাইজদী, ","['মাইজদী', 'Maijdee']",Noakhali,বাংলাদেশ,চট্টগ্রাম বিভাগ,local_admin,,,,Bangladesh,Chittagong,Noakhali,NoakhaliSadar(Sudharam),KadirHanif,42ce4fc063e26947bceed975c8c3cb33
4494,2460350186,893cc601a4fffff,23.0350499,91.0977053,সোনাইমুড়ি,"Sonaimuri, Begumganj, Noakhali District, Chattogram Division, Bangladesh","সোনাইমুড়ি, নোয়াখালী জেলা, চট্টগ্রাম বিভাগ, বাংলাদেশ",,"সোনাইমুড়ি, ","['সোনাইমুড়ি', 'Sonaimuri']",Begumganj,বাংলাদেশ,চট্টগ্রাম বিভাগ,locality,,,,Bangladesh,Chittagong,Noakhali,Sonaimuri,SonaimuriPaurashava,550217582db3212d1fa05b1d53b6864c
4654,398313139,893cc618b8bffff,23.059449306369977,90.98476747927238,বেগমগঞ্জ-সোনাইমুড়ি-রামগঞ্জ সড়ক,"Begamganj-Sonaimuri-Ramganj Road, Chatkhil, Noakhali District, Chattogram Division, Bangladesh","বেগমগঞ্জ-সোনাইমুড়ি-রামগঞ্জ সড়ক, নোয়াখালী জেলা, চট্টগ্রাম বিভাগ, বাংলাদেশ",,"বেগমগঞ্জ-সোনাইমুড়ি-রামগঞ্জ সড়ক, ","['বেগমগঞ্জ-সোনাইমুড়ি-রামগঞ্জ সড়ক', 'Begamganj-Sonaimuri-Ramganj Road']",Chatkhil,বাংলাদেশ,চট্টগ্রাম বিভাগ,street,,,,Bangladesh,Chittagong,Noakhali,Chatkhil,ChatkhilPaurashava,b6a76c997c917a98910a12b806c82d37
4661,7562554637,893cc609d5bffff,22.9247217,91.0581206,জিরতলী,"Jirtoli, Begumganj, Noakhali District, Chattogram Division, Bangladesh","জিরতলী, নোয়াখালী জেলা, চট্টগ্রাম বিভাগ, বাংলাদেশ",,"জিরতলী, ",['Jirtoli'],Begumganj,বাংলাদেশ,চট্টগ্রাম বিভাগ,locality,,,,Bangladesh,Chittagong,Noakhali,Begumganj,Jirtali,69abc747f63bbd941ced0dab92b2de64
4683,7562554631,893cd5b409bffff,22.5507696,91.0648153,হরণী,"Harni, Noakhali District, Chattogram Division, Bangladesh","হরণী, নোয়াখালী জেলা, চট্টগ্রাম বিভাগ, বাংলাদেশ",,"হরণী, ",['Harni'],,বাংলাদেশ,চট্টগ্রাম বিভাগ,locality,,,,Bangladesh,Chittagong,Noakhali,Hatiya,Harni,cb1e0d82e08fb9062100eb5755ab684e
4727,2481964378,893cc608a33ffff,22.9431118,91.0978056,বেগমগঞ্জ,"Begumganj, Noakhali District, Chattogram Division, Bangladesh","বেগমগঞ্জ, নোয়াখালী জেলা, চট্টগ্রাম বিভাগ, বাংলাদেশ",,"বেগমগঞ্জ, ","['বেগমগঞ্জ', 'Begumganj']",Begumganj,বাংলাদেশ,চট্টগ্রাম বিভাগ,local_admin,,,,Bangladesh,Chittagong,Noakhali,Begumganj,ChaumohaniPaurashava,83714b073d2e8d326a500dfb27012344
4761,7562554642,893cc60a10fffff,23.02429,91.0279082,দেওটি,"Deoti, Begumganj, Noakhali District, Chattogram Division, Bangladesh","দেওটি, নোয়াখালী জেলা, চট্টগ্রাম বিভাগ, বাংলাদেশ",,"দেওটি, ",['Deoti'],Begumganj,বাংলাদেশ,চট্টগ্রাম বিভাগ,locality,,,,Bangladesh,Chittagong,Noakhali,Sonaimuri,Deoti,9b7b7163a24ce2aa80a418f566d87810
4771,1623159411,893cc673547ffff,22.8741068,91.0967316,নোয়াখালী,"Noakhali, Noakhali District, Chattogram Division, Bangladesh","নোয়াখালী, নোয়াখালী জেলা, চট্টগ্রাম বিভাগ, বাংলাদেশ",,"নোয়াখালী, ","['মাইজদী', 'Maijdee', 'নোয়াখালী', 'Maijdee', 'Noakhali']",Noakhali,বাংলাদেশ,চট্টগ্রাম বিভাগ,locality,,,,Bangladesh,Chittagong,Noakhali,NoakhaliSadar(Sudharam),KadirHanif,42ce4fc063e26947bceed975c8c3cb33
4799,835196398,893cc6032c3ffff,23.101315917138237,90.99221595856035,Mudaffarganj-Catkhil Road,"Mudaffarganj-Catkhil Road, Chatkhil, Noakhali District, Chattogram Division, Bangladesh","নোয়াখালী জেলা, চট্টগ্রাম বিভাগ, বাংলাদেশ",Mudaffarganj-Catkhil Road,,,Chatkhil,বাংলাদেশ,চট্টগ্রাম বিভাগ,street,,,,Bangladesh,Chittagong,Noakhali,Chatkhil,Mohammadpur,8b057ec173966afe796c35af0b3aea51
4803,835196398,893cc6032c3ffff,23.101315917138237,90.99221595856035,Mudaffarganj-Catkhil Road,"Mudaffarganj-Catkhil Road, Monohorgonj Upazila, Noakhali District, Chattogram Division, Bangladesh","মনোহরগঞ্জ উপজেলা, নোয়াখালী জেলা, চট্টগ্রাম বিভাগ, বাংলাদেশ",Mudaffarganj-Catkhil Road,,,মনোহরগঞ্জ উপজেলা,বাংলাদেশ,চট্টগ্রাম বিভাগ,street,,,,Bangladesh,Chittagong,Noakhali,Chatkhil,Mohammadpur,8b057ec173966afe796c35af0b3aea51
4821,7562554641,893cc60aab3ffff,23.0035922,91.0661886,সোনাপুর,"Sonapur, Begumganj, Noakhali District, Chattogram Division, Bangladesh","সোনাপুর, নোয়াখালী জেলা, চট্টগ্রাম বিভাগ, বাংলাদেশ",,"সোনাপুর, ",['Sonapur'],Begumganj,বাংলাদেশ,চট্টগ্রাম বিভাগ,locality,,,,Bangladesh,Chittagong,Noakhali,Sonaimuri,Sonapur,d332532e715bedef7351ed67ef2ce33e
4835,164439900,893cc609e5bffff,22.89601896698643,91.0295824438869,Maijdee-Chandragonj Rd,"Maijdee-Chandragonj Rd, Lakshmipur, Lakshmipur District, Chattogram Division, Bangladesh","লক্ষ্মীপুর জেলা, চট্টগ্রাম বিভাগ, বাংলাদেশ",Maijdee-Chandragonj Rd,,,Lakshmipur,বাংলাদেশ,চট্টগ্রাম বিভাগ,street,,,,Bangladesh,Chittagong,Noakhali,Begumganj,Chhayani,e1cbf20f3d5c4333387fd15071247ba6
4836,164439900,893cc609e5bffff,22.89601896698643,91.0295824438869,Maijdee-Chandragonj Rd,"Maijdee-Chandragonj Rd, Begumganj, Chattogram Division, Bangladesh","চট্টগ্রাম বিভাগ, বাংলাদেশ",Maijdee-Chandragonj Rd,,,Begumganj,বাংলাদেশ,চট্টগ্রাম বিভাগ,street,,,,Bangladesh,Chittagong,Noakhali,Begumganj,Chhayani,e1cbf20f3d5c4333387fd15071247ba6
4839,164439900,893cc609e5bffff,22.89601896698643,91.0295824438869,Maijdee-Chandragonj Rd,"Maijdee-Chandragonj Rd, Lakshmipur, Noakhali District, Chattogram Division, Bangladesh","নোয়াখালী জেলা, চট্টগ্রাম বিভাগ, বাংলাদেশ",Maijdee-Chandragonj Rd,,,Lakshmipur,বাংলাদেশ,চট্টগ্রাম বিভাগ,street,,,,Bangladesh,Chittagong,Noakhali,Begumganj,Chhayani,e1cbf20f3d5c4333387fd15071247ba6
4869,618492572,893cc609597ffff,22.947382949999998,90.9971872,Lakshmipur Chowmuhani Road,"Lakshmipur Chowmuhani Road, Begumganj, Noakhali District, Chattogram Division, Bangladesh","নোয়াখালী জেলা, চট্টগ্রাম বিভাগ, বাংলাদেশ",Lakshmipur Chowmuhani Road,,,Begumganj,বাংলাদেশ,চট্টগ্রাম বিভাগ,street,,,,Bangladesh,Chittagong,Noakhali,Begumganj,Amanullapur,f1e046596395105eb01eb3a9432a11cb
252,2460379655,893cc61887bffff,23.063094,90.9723615,চাটখিল,"Chatkhil, Noakhali District, Chattogram Division, Bangladesh","চাটখিল, নোয়াখালী জেলা, চট্টগ্রাম বিভাগ, বাংলাদেশ",,"চাটখিল, ","['চাটখিল', 'Chatkhil']",Chatkhil,বাংলাদেশ,চট্টগ্রাম বিভাগ,locality,,,,Bangladesh,Chittagong,Noakhali,Chatkhil,ChatkhilPaurashava,b6a76c997c917a98910a12b806c82d37
343,7562554643,893cc619eb7ffff,23.0257119,90.9166716,সাহাপুর,"Sahapur, Chatkhil, Noakhali District, Chattogram Division, Bangladesh","সাহাপুর, নোয়াখালী জেলা, চট্টগ্রাম বিভাগ, বাংলাদেশ",,"সাহাপুর, ",['Sahapur'],Chatkhil,বাংলাদেশ,চট্টগ্রাম বিভাগ,locality,,,,Bangladesh,Chittagong,Noakhali,Chatkhil,Sahapur,a0d95a3919d63a39d0adac149235db25
674,241906286,893cd5b486fffff,22.5333194,91.145186,,"Noakhali District, Chattogram Division, Bangladesh","নোয়াখালী জেলা, চট্টগ্রাম বিভাগ, বাংলাদেশ",,,,,বাংলাদেশ,চট্টগ্রাম বিভাগ,admin2,boundaries,['ford'],[],Bangladesh,Chittagong,Noakhali,Hatiya,Chandnandi,9018337a8ed68bc8172c5c2fd2f88ba2
715,2343344192,893cd5ac477ffff,22.2881156,91.1416066,হাতিয়া উপজেলা স্বাস্থ্য কমপ্লেক্স,"Noakhali District, Chattogram Division, Bangladesh","হাতিয়া উপজেলা স্বাস্থ্য কমপ্লেক্স, নোয়াখালী জেলা, চট্টগ্রাম বিভাগ, বাংলাদেশ",,"হাতিয়া উপজেলা স্বাস্থ্য কমপ্লেক্স, ",['Hatiya Upazila Health Complex'],,বাংলাদেশ,চট্টগ্রাম বিভাগ,admin2,boundaries,['hospital'],[],Bangladesh,Chittagong,Noakhali,Hatiya,CharIshwar,e44272eab5e7bb8214b1461defe9c904
