,osm_id,h3level9,lat,lon,name,name_en,name_bn,need_translate_en2bn,need_translate_bn2en,alt_names,local_admin_name,admin0_name,admin2_name,addr_level,poi_addr_match,poi_class,poi_keywords,country,division,district,thana,union,region_hash
4069,5153087849,893cf0b2d37ffff,24.0827547,89.1755809,Ganti Post Office,"Ganti Post Office, Pabna, Pabna District, Rajshahi Division, Bangladesh","পাবনা জেলা, রাজশাহী বিভাগ, বাংলাদেশ","Ganti Post Office, ",,,Pabna,বাংলাদেশ,রাজশাহী বিভাগ,local_admin,boundaries,['post_office'],[],Bangladesh,Rajshahi,Pabna,PabnaSadar,Dapunia,4d34919d579fe5a9f742515c3004db55
4071,5153110363,893cf0b2d37ffff,24.0824306,89.1763491,Haji Market হাজী মার্কেট,"Haji Market, Pabna, Pabna District, Rajshahi Division, Bangladesh","হাজী মার্কেট, পাবনা জেলা, রাজশাহী বিভাগ, বাংলাদেশ",,,,Pabna,বাংলাদেশ,রাজশাহী বিভাগ,local_admin,boundaries,['marketplace'],[],Bangladesh,Rajshahi,Pabna,PabnaSadar,Dapunia,4d34919d579fe5a9f742515c3004db55
4073,5153111343,893cf0b74d7ffff,24.0761516,89.1983769,Seed Goddown Bazzar Pabna,"Seed Goddown Bazzar Pabna, Pabna, Pabna District, Rajshahi Division, Bangladesh","পাবনা জেলা, রাজশাহী বিভাগ, বাংলাদেশ","Seed Goddown Bazzar Pabna, ",,,Pabna,বাংলাদেশ,রাজশাহী বিভাগ,local_admin,boundaries,['marketplace'],[],Bangladesh,Rajshahi,Pabna,PabnaSadar,Maligachha,d610de28093686b458eb8d45ff536fb5
4075,5153123043,893cf0b2d37ffff,24.0821144,89.1763891,Atmail Bus Station,"Atmail Bus Station, Pabna, Pabna District, Rajshahi Division, Bangladesh","পাবনা জেলা, রাজশাহী বিভাগ, বাংলাদেশ",Atmail Bus Station,,,Pabna,বাংলাদেশ,রাজশাহী বিভাগ,street,boundaries,['bus_stop'],[],Bangladesh,Rajshahi,Pabna,PabnaSadar,Dapunia,4d34919d579fe5a9f742515c3004db55
4077,5153123163,893cf54d32bffff,24.0923065,89.157402,কালিকাপুর,"Iswardi, Pabna District, Rajshahi Division, Bangladesh","কালিকাপুর, পাবনা জেলা, রাজশাহী বিভাগ, বাংলাদেশ",,কালিকাপুর,,Iswardi,বাংলাদেশ,রাজশাহী বিভাগ,street,boundaries,['bus_stop'],[],Bangladesh,Rajshahi,Pabna,Ishwardi,Dashuria,abb29998fb26f24bd5332565c439d324
4078,5153203779,893cf54d00bffff,24.1086723,89.1289901,Art Cottage Technologies,"Art Cottage Technologies, Iswardi, Pabna District, Rajshahi Division, Bangladesh","পাবনা জেলা, রাজশাহী বিভাগ, বাংলাদেশ","Art Cottage Technologies, ",,,Iswardi,বাংলাদেশ,রাজশাহী বিভাগ,local_admin,boundaries,['artwork'],[],Bangladesh,Rajshahi,Pabna,Ishwardi,Dashuria,abb29998fb26f24bd5332565c439d324
4079,5153226040,893cf54d0c7ffff,24.1119918,89.1224386,Dutch-Bangla Bank Limited Fast Track,"Dutch-Bangla Bank Limited Fast Track, Iswardi, Pabna District, Rajshahi Division, Bangladesh","পাবনা জেলা, রাজশাহী বিভাগ, বাংলাদেশ","Dutch-Bangla Bank Limited Fast Track, ",,['ডাচ-বাংলা ব্যাংক লিমিটেড ফার্স্ট ট্র্যাক'],Iswardi,বাংলাদেশ,রাজশাহী বিভাগ,local_admin,boundaries,['bank'],[],Bangladesh,Rajshahi,Pabna,Ishwardi,Dashuria,abb29998fb26f24bd5332565c439d324
4080,5153226306,893cf54d0d7ffff,24.1127494,89.1216409,Dashuria Bus Station,"Dashuria Bus Station, Iswardi, Pabna District, Rajshahi Division, Bangladesh","পাবনা জেলা, রাজশাহী বিভাগ, বাংলাদেশ","Dashuria Bus Station, ",,,Iswardi,বাংলাদেশ,রাজশাহী বিভাগ,local_admin,boundaries,['bus_station'],[],Bangladesh,Rajshahi,Pabna,Ishwardi,Dashuria,abb29998fb26f24bd5332565c439d324
4081,5153226490,893cf54d0c3ffff,24.1121484,89.1214142,হাজী বিরানি হাউজ,"Iswardi, Pabna District, Rajshahi Division, Bangladesh","হাজী বিরানি হাউজ, পাবনা জেলা, রাজশাহী বিভাগ, বাংলাদেশ",,"হাজী বিরানি হাউজ, ",,Iswardi,বাংলাদেশ,রাজশাহী বিভাগ,local_admin,boundaries,['restaurant'],[],Bangladesh,Rajshahi,Pabna,Ishwardi,Silimpur,7d71b0f5de9ede75bb5fcea9be20b4c4
4082,5153227041,893cf54d0d7ffff,24.1123675,89.1216623,Dashuria circle,"Dashuria circle, Iswardi, Pabna District, Rajshahi Division, Bangladesh","পাবনা জেলা, রাজশাহী বিভাগ, বাংলাদেশ","Dashuria circle, ",,,Iswardi,বাংলাদেশ,রাজশাহী বিভাগ,local_admin,boundaries,['monument'],[],Bangladesh,Rajshahi,Pabna,Ishwardi,Dashuria,abb29998fb26f24bd5332565c439d324
4083,5153227256,893cf54d0d7ffff,24.1129624,89.1217616,ট্রাস্ট ব্যাংক লিমিটেড,"Iswardi, Pabna District, Rajshahi Division, Bangladesh","ট্রাস্ট ব্যাংক লিমিটেড, পাবনা জেলা, রাজশাহী বিভাগ, বাংলাদেশ",,"ট্রাস্ট ব্যাংক লিমিটেড, ",['Trust Bank Limited'],Iswardi,বাংলাদেশ,রাজশাহী বিভাগ,local_admin,boundaries,['bank'],[],Bangladesh,Rajshahi,Pabna,Ishwardi,Dashuria,abb29998fb26f24bd5332565c439d324
4084,5153228220,893cf54c68bffff,24.1584485,89.1378262,Muladuli Kacha Bazar কাচা বাজার,"Muladuli Kacha Bazar, Iswardi, Pabna District, Rajshahi Division, Bangladesh","কাচা বাজার, পাবনা জেলা, রাজশাহী বিভাগ, বাংলাদেশ",,,,Iswardi,বাংলাদেশ,রাজশাহী বিভাগ,local_admin,boundaries,['marketplace'],[],Bangladesh,Rajshahi,Pabna,Ishwardi,Muladuli,4cdfec87dbdfba0322cb081daa08a3fe
4086,5153232510,893cf54c44bffff,24.1676297,89.1410472,Jnanada Pharmacy,"Jnanada Pharmacy, Iswardi, Pabna District, Rajshahi Division, Bangladesh","পাবনা জেলা, রাজশাহী বিভাগ, বাংলাদেশ","Jnanada Pharmacy, ",,,Iswardi,বাংলাদেশ,রাজশাহী বিভাগ,local_admin,boundaries,['pharmacy'],[],Bangladesh,Rajshahi,Pabna,Ishwardi,Muladuli,4cdfec87dbdfba0322cb081daa08a3fe
4088,5153232529,893cf54c687ffff,24.1626676,89.1401275,SAFIA SUPER MARKET সাফিয়া সুপার মার্কেট,"SAFIA SUPER MARKET, Iswardi, Pabna District, Rajshahi Division, Bangladesh","সাফিয়া সুপার মার্কেট, পাবনা জেলা, রাজশাহী বিভাগ, বাংলাদেশ",,,,Iswardi,বাংলাদেশ,রাজশাহী বিভাগ,local_admin,boundaries,['marketplace'],[],Bangladesh,Rajshahi,Pabna,Ishwardi,Muladuli,4cdfec87dbdfba0322cb081daa08a3fe
4095,5153232570,893cf54c687ffff,24.1631873,89.1403526,AL-AMIN SUPER MARKET আওয়ামী লীগ-আমিন সুপার মার্কেট,"AL-AMIN SUPER MARKET, Iswardi, Pabna District, Rajshahi Division, Bangladesh","আওয়ামী লীগ-আমিন সুপার মার্কেট, পাবনা জেলা, রাজশাহী বিভাগ, বাংলাদেশ",,,,Iswardi,বাংলাদেশ,রাজশাহী বিভাগ,local_admin,boundaries,['supermarket'],[],Bangladesh,Rajshahi,Pabna,Ishwardi,Muladuli,4cdfec87dbdfba0322cb081daa08a3fe
4098,5153235816,893cf54c44bffff,24.1670998,89.1406168,Biswas Medical Hall,"Biswas Medical Hall, Iswardi, Pabna District, Rajshahi Division, Bangladesh","পাবনা জেলা, রাজশাহী বিভাগ, বাংলাদেশ","Biswas Medical Hall, ",,,Iswardi,বাংলাদেশ,রাজশাহী বিভাগ,local_admin,boundaries,['pharmacy'],[],Bangladesh,Rajshahi,Pabna,Ishwardi,Muladuli,4cdfec87dbdfba0322cb081daa08a3fe
4593,3731340874,893cf56d37bffff,24.077227,89.614898,Bera Upazilla Health Complex,"Bera Upazilla Health Complex, Bera, Pabna District, Rajshahi Division, Bangladesh","পাবনা জেলা, রাজশাহী বিভাগ, বাংলাদেশ","Bera Upazilla Health Complex, ",,,Bera,বাংলাদেশ,রাজশাহী বিভাগ,local_admin,boundaries,['hospital'],[],Bangladesh,Rajshahi,Pabna,Bera,BeraPaurashava,5a3313b78a62849bf2656f5c8a21feee
4760,2344452078,893cf0a4297ffff,23.9386038,89.4095874,Sujanagar Upazila Health Complex,"Sujanagar Upazila Health Complex, Sujanagar, Pabna District, Rajshahi Division, Bangladesh","পাবনা জেলা, রাজশাহী বিভাগ, বাংলাদেশ","Sujanagar Upazila Health Complex, ",,,Sujanagar,বাংলাদেশ,রাজশাহী বিভাগ,local_admin,boundaries,['hospital'],[],Bangladesh,Rajshahi,Pabna,Sujanagar,SujanagarPaurashava,30f97e37c00e2f24c3251eba3a33d321
4764,2344452178,893cf56a10bffff,24.1607052,89.457109,FaridpurUpazila Health Complex,"FaridpurUpazila Health Complex, Faridpur Pabna, Pabna District, Rajshahi Division, Bangladesh","পাবনা জেলা, রাজশাহী বিভাগ, বাংলাদেশ","FaridpurUpazila Health Complex, ",,,Faridpur (Pabna),বাংলাদেশ,রাজশাহী বিভাগ,local_admin,boundaries,['hospital'],[],Bangladesh,Rajshahi,Pabna,Faridpur,Banwarinagar,4b58e114ed84cbb979be4bcfe423d9f7
4785,2456516040,893cf0a4d7bffff,23.9610666,89.496046,Chinakhora High School,"Chinakhora High School, Sujanagar, Pabna District, Rajshahi Division, Bangladesh","পাবনা জেলা, রাজশাহী বিভাগ, বাংলাদেশ","Chinakhora High School, ",,,Sujanagar,বাংলাদেশ,রাজশাহী বিভাগ,local_admin,boundaries,['school'],[],Bangladesh,Rajshahi,Pabna,Sujanagar,Dulai,81b1e314531a7ecfa44f956da5399a28
4866,2841323559,893cf0a694bffff,23.9965265,89.4736123,Bonogram Bazar Bus Stop,"Bonogram Bazar Bus Stop, Santhia, Pabna District, Rajshahi Division, Bangladesh","পাবনা জেলা, রাজশাহী বিভাগ, বাংলাদেশ","Bonogram Bazar Bus Stop, ",,,Santhia,বাংলাদেশ,রাজশাহী বিভাগ,local_admin,boundaries,['bus_station'],[],Bangladesh,Rajshahi,Pabna,Santhia,Ataikola,2c6e4088fb1b47a3e208257b9e7de992
5023,5060561030,893cf0a4d7bffff,23.9617096,89.4960541,,"Sujanagar, Pabna District, Rajshahi Division, Bangladesh","পাবনা জেলা, রাজশাহী বিভাগ, বাংলাদেশ",,,['Bus station'],Sujanagar,বাংলাদেশ,রাজশাহী বিভাগ,local_admin,boundaries,['bus_station'],[],Bangladesh,Rajshahi,Pabna,Sujanagar,Dulai,81b1e314531a7ecfa44f956da5399a28
1,5108011933,893cf1db5b3ffff,23.876045,89.48808,,"Sujanagar, Pabna District, Rajshahi Division, Bangladesh","পাবনা জেলা, রাজশাহী বিভাগ, বাংলাদেশ",,,"[""Hasan's house""]",Sujanagar,বাংলাদেশ,রাজশাহী বিভাগ,local_admin,boundaries,['confectionery'],[],Bangladesh,Rajshahi,Pabna,Sujanagar,Manikhat,954ae2c8746b0acb07ae605b800e20ff
2,5719892574,893cf54d0d3ffff,24.1132985,89.1164912,,"Iswardi, Pabna District, Rajshahi Division, Bangladesh","পাবনা জেলা, রাজশাহী বিভাগ, বাংলাদেশ",,,,Iswardi,বাংলাদেশ,রাজশাহী বিভাগ,local_admin,boundaries,['gate'],[],Bangladesh,Rajshahi,Pabna,Ishwardi,Dashuria,abb29998fb26f24bd5332565c439d324
5,5720936762,893cf54d0c7ffff,24.1113996,89.1233589,Janata Bank Limited,"Janata Bank Limited, Iswardi, Pabna District, Rajshahi Division, Bangladesh","পাবনা জেলা, রাজশাহী বিভাগ, বাংলাদেশ","Janata Bank Limited, ",,['জনতা ব্যাংক লিমিটেড'],Iswardi,বাংলাদেশ,রাজশাহী বিভাগ,local_admin,boundaries,['bank'],[],Bangladesh,Rajshahi,Pabna,Ishwardi,Dashuria,abb29998fb26f24bd5332565c439d324
13,6018702590,893cf54d017ffff,24.1126858,89.130372,দাশুরিয়া,"Iswardi, Pabna District, Rajshahi Division, Bangladesh","দাশুরিয়া, পাবনা জেলা, রাজশাহী বিভাগ, বাংলাদেশ",,"দাশুরিয়া, ","['দাশুরিয়া', 'Dashuria']",Iswardi,বাংলাদেশ,রাজশাহী বিভাগ,local_admin,boundaries,['railway_station'],[],Bangladesh,Rajshahi,Pabna,Ishwardi,Muladuli,4cdfec87dbdfba0322cb081daa08a3fe
27,6185338150,893cf54c6b3ffff,24.1638224,89.1432797,মূলাডুলি,"Iswardi, Pabna District, Rajshahi Division, Bangladesh","মূলাডুলি, পাবনা জেলা, রাজশাহী বিভাগ, বাংলাদেশ",,"মূলাডুলি, ",['Muladuli'],Iswardi,বাংলাদেশ,রাজশাহী বিভাগ,local_admin,boundaries,['railway_station'],[],Bangladesh,Rajshahi,Pabna,Ishwardi,Muladuli,4cdfec87dbdfba0322cb081daa08a3fe
177,7382672510,893cf54d01bffff,24.1098963,89.125754,Art Cottage Technologies,"Art Cottage Technologies, Iswardi, Pabna District, Rajshahi Division, Bangladesh","পাবনা জেলা, রাজশাহী বিভাগ, বাংলাদেশ","Art Cottage Technologies, ",,,Iswardi,বাংলাদেশ,রাজশাহী বিভাগ,local_admin,boundaries,['it'],[],Bangladesh,Rajshahi,Pabna,Ishwardi,Dashuria,abb29998fb26f24bd5332565c439d324
233,5149385651,893cf0a4d7bffff,23.9615583,89.4959527,Bondhu Restora & Sweets,"Bondhu Restora & Sweets, Sujanagar, Pabna District, Rajshahi Division, Bangladesh","পাবনা জেলা, রাজশাহী বিভাগ, বাংলাদেশ","Bondhu Restora & Sweets, ",,,Sujanagar,বাংলাদেশ,রাজশাহী বিভাগ,local_admin,boundaries,['restaurant'],[],Bangladesh,Rajshahi,Pabna,Sujanagar,Dulai,81b1e314531a7ecfa44f956da5399a28
243,5149389887,893cf0a4d7bffff,23.9621933,89.4951315,Chinakhora Bazar,"Chinakhora Bazar, Sujanagar, Pabna District, Rajshahi Division, Bangladesh","পাবনা জেলা, রাজশাহী বিভাগ, বাংলাদেশ","Chinakhora Bazar, ",,,Sujanagar,বাংলাদেশ,রাজশাহী বিভাগ,local_admin,boundaries,['marketplace'],[],Bangladesh,Rajshahi,Pabna,Sujanagar,Dulai,81b1e314531a7ecfa44f956da5399a28
246,5149389929,893cf0a4d73ffff,23.9626542,89.4958766,Mostakim Cloth Store মোস্তাকিম কাপড়ের দোকান,"Mostakim Cloth Store, Sujanagar, Pabna District, Rajshahi Division, Bangladesh","মোস্তাকিম কাপড়ের দোকান, পাবনা জেলা, রাজশাহী বিভাগ, বাংলাদেশ",,,,Sujanagar,বাংলাদেশ,রাজশাহী বিভাগ,local_admin,boundaries,['clothes'],[],Bangladesh,Rajshahi,Pabna,Sujanagar,Dulai,81b1e314531a7ecfa44f956da5399a28
249,5149427793,893cf0a694bffff,23.9965418,89.4737513,Freelancerdesh,"Freelancerdesh, Santhia, Pabna District, Rajshahi Division, Bangladesh","পাবনা জেলা, রাজশাহী বিভাগ, বাংলাদেশ","Freelancerdesh, ",,,Santhia,বাংলাদেশ,রাজশাহী বিভাগ,local_admin,boundaries,['supermarket'],[],Bangladesh,Rajshahi,Pabna,Santhia,Ataikola,2c6e4088fb1b47a3e208257b9e7de992
252,5149429716,893cf0a694bffff,23.9966949,89.4736507,New Ghosh Sweets & Restaurent,"New Ghosh Sweets & Restaurent, Santhia, Pabna District, Rajshahi Division, Bangladesh","পাবনা জেলা, রাজশাহী বিভাগ, বাংলাদেশ","New Ghosh Sweets & Restaurent, ",,,Santhia,বাংলাদেশ,রাজশাহী বিভাগ,local_admin,boundaries,['restaurant'],[],Bangladesh,Rajshahi,Pabna,Santhia,Ataikola,2c6e4088fb1b47a3e208257b9e7de992
255,5149432482,893cf0a6b97ffff,23.9965673,89.4733375,Shamim Electric,"Shamim Electric, Santhia, Pabna District, Rajshahi Division, Bangladesh","পাবনা জেলা, রাজশাহী বিভাগ, বাংলাদেশ","Shamim Electric, ",,,Santhia,বাংলাদেশ,রাজশাহী বিভাগ,local_admin,boundaries,['electronics'],[],Bangladesh,Rajshahi,Pabna,Santhia,Ataikola,2c6e4088fb1b47a3e208257b9e7de992
258,5149432504,893cf0a6b97ffff,23.9965449,89.4727782,Molla Super Market মোল্লা সুপার মার্কেট,"Molla Super Market, Santhia, Pabna District, Rajshahi Division, Bangladesh","মোল্লা সুপার মার্কেট, পাবনা জেলা, রাজশাহী বিভাগ, বাংলাদেশ",,,,Santhia,বাংলাদেশ,রাজশাহী বিভাগ,local_admin,boundaries,['supermarket'],[],Bangladesh,Rajshahi,Pabna,Santhia,Ataikola,2c6e4088fb1b47a3e208257b9e7de992
302,5149432895,893cf0a695bffff,23.9969923,89.4730996,"M.S. Traders, Bonogram Bazer.","M.S. Traders Bonogram Bazer., Santhia, Pabna District, Rajshahi Division, Bangladesh","পাবনা জেলা, রাজশাহী বিভাগ, বাংলাদেশ","M.S. Traders Bonogram Bazer., ",,,Santhia,বাংলাদেশ,রাজশাহী বিভাগ,local_admin,boundaries,['marketplace'],[],Bangladesh,Rajshahi,Pabna,Santhia,Ataikola,2c6e4088fb1b47a3e208257b9e7de992
306,5149432898,893cf0a695bffff,23.9969721,89.4728045,Ma Electric and Solar,"Ma Electric and Solar, Santhia, Pabna District, Rajshahi Division, Bangladesh","পাবনা জেলা, রাজশাহী বিভাগ, বাংলাদেশ","Ma Electric and Solar, ",,,Santhia,বাংলাদেশ,রাজশাহী বিভাগ,local_admin,boundaries,['electronics'],[],Bangladesh,Rajshahi,Pabna,Santhia,Ataikola,2c6e4088fb1b47a3e208257b9e7de992
309,5149432987,893cf0a694bffff,23.9968854,89.4735531,Bonogram Bazer,"Bonogram Bazer, Santhia, Pabna District, Rajshahi Division, Bangladesh","পাবনা জেলা, রাজশাহী বিভাগ, বাংলাদেশ","Bonogram Bazer, ",,,Santhia,বাংলাদেশ,রাজশাহী বিভাগ,local_admin,boundaries,['marketplace'],[],Bangladesh,Rajshahi,Pabna,Santhia,Ataikola,2c6e4088fb1b47a3e208257b9e7de992
312,5149435485,893cf0a695bffff,23.9973571,89.4730669,জনতা ব্যাংক লিমিটেড,"Santhia, Pabna District, Rajshahi Division, Bangladesh","জনতা ব্যাংক লিমিটেড, পাবনা জেলা, রাজশাহী বিভাগ, বাংলাদেশ",,"জনতা ব্যাংক লিমিটেড, ",['Janata Bank Limited'],Santhia,বাংলাদেশ,রাজশাহী বিভাগ,local_admin,boundaries,['bank'],[],Bangladesh,Rajshahi,Pabna,Santhia,Ataikola,2c6e4088fb1b47a3e208257b9e7de992
315,5149436333,893cf0a695bffff,23.9976267,89.4728755,Aziz Co-Operative Commarce & Finance Society Limited,"Aziz Co-Operative Commarce & Finance Society Limited, Santhia, Pabna District, Rajshahi Division, Bangladesh","পাবনা জেলা, রাজশাহী বিভাগ, বাংলাদেশ","Aziz Co-Operative Commarce & Finance Society Limited, ",,,Santhia,বাংলাদেশ,রাজশাহী বিভাগ,local_admin,boundaries,['bank'],[],Bangladesh,Rajshahi,Pabna,Santhia,Ataikola,2c6e4088fb1b47a3e208257b9e7de992
318,5149439839,893cf5692c7ffff,24.0330361,89.4147294,কাদের বিরিয়ানী,"Pabna, Pabna District, Rajshahi Division, Bangladesh","কাদের বিরিয়ানী, পাবনা জেলা, রাজশাহী বিভাগ, বাংলাদেশ",,"কাদের বিরিয়ানী, ",,Pabna,বাংলাদেশ,রাজশাহী বিভাগ,local_admin,boundaries,['restaurant'],[],Bangladesh,Rajshahi,Pabna,Santhia,Ataikola,2c6e4088fb1b47a3e208257b9e7de992
321,5149439906,893cf5692c3ffff,24.0317953,89.4117472,Ataikula Church of Fallowship,"Ataikula Church of Fallowship, Pabna, Pabna District, Rajshahi Division, Bangladesh","পাবনা জেলা, রাজশাহী বিভাগ, বাংলাদেশ","Ataikula Church of Fallowship, ",,,Pabna,বাংলাদেশ,রাজশাহী বিভাগ,local_admin,boundaries,['place_of_worship_christian'],[],Bangladesh,Rajshahi,Pabna,Santhia,Ataikola,2c6e4088fb1b47a3e208257b9e7de992
324,5149445267,893cf56930bffff,24.0336033,89.4445185,Madhpur Bazar Bus Stop,"Madhpur Bazar Bus Stop, Santhia, Pabna District, Rajshahi Division, Bangladesh","পাবনা জেলা, রাজশাহী বিভাগ, বাংলাদেশ",Madhpur Bazar Bus Stop,,,Santhia,বাংলাদেশ,রাজশাহী বিভাগ,street,boundaries,['bus_stop'],[],Bangladesh,Rajshahi,Pabna,Santhia,Ataikola,2c6e4088fb1b47a3e208257b9e7de992
326,5149453944,893cf56928bffff,24.0331403,89.4157331,লোকমান চা,"Santhia, Pabna District, Rajshahi Division, Bangladesh","লোকমান চা, পাবনা জেলা, রাজশাহী বিভাগ, বাংলাদেশ",,"লোকমান চা, ",,Santhia,বাংলাদেশ,রাজশাহী বিভাগ,local_admin,boundaries,['tea'],[],Bangladesh,Rajshahi,Pabna,Santhia,Ataikola,2c6e4088fb1b47a3e208257b9e7de992
330,5149456119,893cf5692c7ffff,24.0330002,89.414608,Islam Hotel & Restaurent,"Islam Hotel & Restaurent, Pabna, Pabna District, Rajshahi Division, Bangladesh","পাবনা জেলা, রাজশাহী বিভাগ, বাংলাদেশ","Islam Hotel & Restaurent, ",,,Pabna,বাংলাদেশ,রাজশাহী বিভাগ,local_admin,boundaries,['restaurant'],[],Bangladesh,Rajshahi,Pabna,Santhia,Ataikola,2c6e4088fb1b47a3e208257b9e7de992
334,5149456570,893cf5692c7ffff,24.0329056,89.414426,Dr. Mozammel Haq Market ডাঃ মোজাম্মেল হক মার্কেট,"Dr. Mozammel Haq Market, Pabna, Pabna District, Rajshahi Division, Bangladesh","ডাঃ মোজাম্মেল হক মার্কেট, পাবনা জেলা, রাজশাহী বিভাগ, বাংলাদেশ",,,,Pabna,বাংলাদেশ,রাজশাহী বিভাগ,local_admin,boundaries,['marketplace'],[],Bangladesh,Rajshahi,Pabna,Santhia,Ataikola,2c6e4088fb1b47a3e208257b9e7de992
337,5149456586,893cf5692c7ffff,24.0330893,89.4143469,Sobuj Store সবুজ স্টোর,"Sobuj Store, Pabna, Pabna District, Rajshahi Division, Bangladesh","সবুজ স্টোর, পাবনা জেলা, রাজশাহী বিভাগ, বাংলাদেশ",,,,Pabna,বাংলাদেশ,রাজশাহী বিভাগ,local_admin,boundaries,['shoes'],[],Bangladesh,Rajshahi,Pabna,Santhia,Ataikola,2c6e4088fb1b47a3e208257b9e7de992
341,5149457551,893cf5692c7ffff,24.0327917,89.4142354,Khan Varaities Store,"Khan Varaities Store, Pabna, Pabna District, Rajshahi Division, Bangladesh","পাবনা জেলা, রাজশাহী বিভাগ, বাংলাদেশ","Khan Varaities Store, ",,,Pabna,বাংলাদেশ,রাজশাহী বিভাগ,local_admin,boundaries,['variety_store'],[],Bangladesh,Rajshahi,Pabna,Santhia,Ataikola,2c6e4088fb1b47a3e208257b9e7de992
345,5149457560,893cf5692c7ffff,24.0328309,89.4140142,Ataikula Bazar Bus Stop,"Ataikula Bazar Bus Stop, Pabna, Pabna District, Rajshahi Division, Bangladesh","পাবনা জেলা, রাজশাহী বিভাগ, বাংলাদেশ","Ataikula Bazar Bus Stop, ",,,Pabna,বাংলাদেশ,রাজশাহী বিভাগ,local_admin,boundaries,['bus_station'],[],Bangladesh,Rajshahi,Pabna,Santhia,Ataikola,2c6e4088fb1b47a3e208257b9e7de992
534,5201890172,893cf56a1cbffff,24.1591485,89.4472752,পিতা -মাতা স্টোর,"Faridpur Pabna, Pabna District, Rajshahi Division, Bangladesh","পিতা -মাতা স্টোর, পাবনা জেলা, রাজশাহী বিভাগ, বাংলাদেশ",,"পিতা -মাতা স্টোর, ",,Faridpur (Pabna),বাংলাদেশ,রাজশাহী বিভাগ,local_admin,boundaries,['greengrocer'],[],Bangladesh,Rajshahi,Pabna,Faridpur,FaridpurPaurashava,85e23b1ddbcd96120e64d7c6f18fb405
703,9705203296,893cf0b76cfffff,24.0492137,89.1954635,Ruppur High School,"Ruppur High School, Pabna, Pabna District, Rajshahi Division, Bangladesh","পাবনা জেলা, রাজশাহী বিভাগ, বাংলাদেশ","Ruppur High School, ",,,Pabna,বাংলাদেশ,রাজশাহী বিভাগ,local_admin,boundaries,"['educational_institution', 'school']",[],Bangladesh,Rajshahi,Pabna,PabnaSadar,Maligachha,d610de28093686b458eb8d45ff536fb5
705,9705203297,893cf0b290bffff,24.0615197,89.1835414,Shahid Rafiz Uddin High School,"Shahid Rafiz Uddin High School, Pabna, Pabna District, Rajshahi Division, Bangladesh","পাবনা জেলা, রাজশাহী বিভাগ, বাংলাদেশ","Shahid Rafiz Uddin High School, ",,,Pabna,বাংলাদেশ,রাজশাহী বিভাগ,local_admin,boundaries,"['educational_institution', 'school']",[],Bangladesh,Rajshahi,Pabna,PabnaSadar,Dapunia,4d34919d579fe5a9f742515c3004db55
902,2344452177,893cf578c77ffff,24.2189873,89.3911297,Bhangura Upazila Health Complex,"Bhangura Upazila Health Complex, Bhangura, Pabna District, Rajshahi Division, Bangladesh","পাবনা জেলা, রাজশাহী বিভাগ, বাংলাদেশ","Bhangura Upazila Health Complex, ",,,Bhangura,বাংলাদেশ,রাজশাহী বিভাগ,local_admin,boundaries,['hospital'],[],Bangladesh,Rajshahi,Pabna,Bhangura,Bhangura,f7a36ecd9d1957bd09030adbd5b9c338
911,2451664683,893cf0a29a7ffff,23.9676211,89.3210623,ASEAB Health Clinic,"ASEAB Health Clinic, Pabna, Pabna District, Rajshahi Division, Bangladesh","পাবনা জেলা, রাজশাহী বিভাগ, বাংলাদেশ","ASEAB Health Clinic, ",,,Pabna,বাংলাদেশ,রাজশাহী বিভাগ,local_admin,boundaries,['hospital'],[],Bangladesh,Rajshahi,Pabna,PabnaSadar,Bharara,c43e169aa7d625bec99d4500ded8ebdb
958,4639080603,893cf1c316bffff,23.8876231,89.6780276,,"Bera, Pabna District, Rajshahi Division, Bangladesh","পাবনা জেলা, রাজশাহী বিভাগ, বাংলাদেশ",,,,Bera,বাংলাদেশ,রাজশাহী বিভাগ,local_admin,boundaries,['ferry_terminal'],[],Bangladesh,Rajshahi,Pabna,Bera,Ruppur,2c20f89780386b27db1350f47667d785
963,4639080604,893cf1c33bbffff,23.8834664,89.6708864,,"Bera, Pabna District, Rajshahi Division, Bangladesh","পাবনা জেলা, রাজশাহী বিভাগ, বাংলাদেশ",,,['Kazir Hat Ferry Terminal'],Bera,বাংলাদেশ,রাজশাহী বিভাগ,local_admin,boundaries,['ferry_terminal'],[],Bangladesh,Rajshahi,Pabna,Bera,Ruppur,2c20f89780386b27db1350f47667d785
971,4727097092,893cf1c33bbffff,23.8830664,89.6707848,,"Bera, Pabna District, Rajshahi Division, Bangladesh","পাবনা জেলা, রাজশাহী বিভাগ, বাংলাদেশ",,,['Kazir Hat'],Bera,বাংলাদেশ,রাজশাহী বিভাগ,local_admin,boundaries,['viewpoint'],[],Bangladesh,Rajshahi,Pabna,Bera,Ruppur,2c20f89780386b27db1350f47667d785
1012,530746019,893cf54da5bffff,24.0793172,89.18272659,Ichamati Filling Station ইছামতি ফিলিং স্টেশন,"Ichamati Filling Station, Pabna, Pabna District, Rajshahi Division, Bangladesh","ইছামতি ফিলিং স্টেশন, পাবনা জেলা, রাজশাহী বিভাগ, বাংলাদেশ",,,,Pabna,বাংলাদেশ,রাজশাহী বিভাগ,local_admin,boundaries,['fuel'],[],Bangladesh,Rajshahi,Pabna,PabnaSadar,Dapunia,4d34919d579fe5a9f742515c3004db55
1014,530746088,893cf0b2d37ffff,24.08203555,89.17616483,Atmail Mosque Dapunia -Atmail Road আটমাইল,"Atmail Mosque Dapunia -Atmail Road, Pabna, Pabna District, Rajshahi Division, Bangladesh","আটমাইল, পাবনা জেলা, রাজশাহী বিভাগ, বাংলাদেশ",,,,Pabna,বাংলাদেশ,রাজশাহী বিভাগ,local_admin,boundaries,['place_of_worship_muslim'],[],Bangladesh,Rajshahi,Pabna,PabnaSadar,Dapunia,4d34919d579fe5a9f742515c3004db55
1018,5149059858,893cf56d343ffff,24.0764196,89.6088469,ডিবিবিএল এটিএম,"Santhia, Pabna District, Rajshahi Division, Bangladesh","ডিবিবিএল এটিএম, পাবনা জেলা, রাজশাহী বিভাগ, বাংলাদেশ",,"ডিবিবিএল এটিএম, ",['Dutch-Bangla Bank ATM'],Santhia,বাংলাদেশ,রাজশাহী বিভাগ,local_admin,boundaries,['bank'],[],Bangladesh,Rajshahi,Pabna,Bera,BeraPaurashava,5a3313b78a62849bf2656f5c8a21feee
1020,530757287,893cf54d00bffff,24.10866685,89.12907221,Dasuria Post Office,"Dasuria Post Office, Iswardi, Pabna District, Rajshahi Division, Bangladesh","পাবনা জেলা, রাজশাহী বিভাগ, বাংলাদেশ","Dasuria Post Office, ",,,Iswardi,বাংলাদেশ,রাজশাহী বিভাগ,local_admin,boundaries,['post_office'],[],Bangladesh,Rajshahi,Pabna,Ishwardi,Dashuria,abb29998fb26f24bd5332565c439d324
1024,530757295,893cf54d01bffff,24.1091414,89.12673344,Mokarram Memorial High School,"Mokarram Memorial High School, Iswardi, Pabna District, Rajshahi Division, Bangladesh","পাবনা জেলা, রাজশাহী বিভাগ, বাংলাদেশ","Mokarram Memorial High School, ",,['মোকাররাম মেমোরিয়াল উচ্চ বিদ্যালয়'],Iswardi,বাংলাদেশ,রাজশাহী বিভাগ,local_admin,boundaries,['school'],[],Bangladesh,Rajshahi,Pabna,Ishwardi,Dashuria,abb29998fb26f24bd5332565c439d324
1025,5149060201,893cf56d353ffff,24.078646,89.6073406,,"Santhia, Pabna District, Rajshahi Division, Bangladesh","পাবনা জেলা, রাজশাহী বিভাগ, বাংলাদেশ",,,,Santhia,বাংলাদেশ,রাজশাহী বিভাগ,local_admin,boundaries,['toilets'],[],Bangladesh,Rajshahi,Pabna,Santhia,Karanja,edb76ed17d0cdf9d8d17a907a03ac3e0
1028,5149061468,893cf56d343ffff,24.0768401,89.6088239,,"Santhia, Pabna District, Rajshahi Division, Bangladesh","পাবনা জেলা, রাজশাহী বিভাগ, বাংলাদেশ",,,,Santhia,বাংলাদেশ,রাজশাহী বিভাগ,local_admin,boundaries,['toilets'],[],Bangladesh,Rajshahi,Pabna,Bera,BeraPaurashava,5a3313b78a62849bf2656f5c8a21feee
1029,530759985,893cf54d0c7ffff,24.11035579,89.1244012,Dashuria Bazar Jame Mosque,"Dashuria Bazar Jame Mosque, Iswardi, Pabna District, Rajshahi Division, Bangladesh","পাবনা জেলা, রাজশাহী বিভাগ, বাংলাদেশ","Dashuria Bazar Jame Mosque, ",,['দাশুড়িয়া বাজার মসজিদ'],Iswardi,বাংলাদেশ,রাজশাহী বিভাগ,local_admin,boundaries,['place_of_worship_muslim'],[],Bangladesh,Rajshahi,Pabna,Ishwardi,Dashuria,abb29998fb26f24bd5332565c439d324
1033,530760422,893cf54d0c7ffff,24.11177457,89.12194574,Sonali Bank Limited,"Sonali Bank Limited, Iswardi, Pabna District, Rajshahi Division, Bangladesh","পাবনা জেলা, রাজশাহী বিভাগ, বাংলাদেশ","Sonali Bank Limited, ",,['সোনালী ব্যাংক লিমিটেড'],Iswardi,বাংলাদেশ,রাজশাহী বিভাগ,local_admin,boundaries,['bank'],[],Bangladesh,Rajshahi,Pabna,Ishwardi,Dashuria,abb29998fb26f24bd5332565c439d324
1034,5149062947,893cf56d35bffff,24.0769845,89.6077018,Bazar,"Bazar, Santhia, Pabna District, Rajshahi Division, Bangladesh","পাবনা জেলা, রাজশাহী বিভাগ, বাংলাদেশ","Bazar, ",,,Santhia,বাংলাদেশ,রাজশাহী বিভাগ,local_admin,boundaries,['marketplace'],[],Bangladesh,Rajshahi,Pabna,Santhia,Karanja,edb76ed17d0cdf9d8d17a907a03ac3e0
1036,5149063637,893cf56d34bffff,24.0761257,89.609451,Tania Medical Hall তানিয়া মেডিকেল হলের,"Tania Medical Hall, Santhia, Pabna District, Rajshahi Division, Bangladesh","তানিয়া মেডিকেল হলের, পাবনা জেলা, রাজশাহী বিভাগ, বাংলাদেশ",,,,Santhia,বাংলাদেশ,রাজশাহী বিভাগ,local_admin,boundaries,['pharmacy'],[],Bangladesh,Rajshahi,Pabna,Bera,BeraPaurashava,5a3313b78a62849bf2656f5c8a21feee
1038,530760641,893cf54d08bffff,24.11603887,89.12366355,দাশ্তড়িয়া উত্তর পাড়া জামে মসজিদ দাশ্তড়িয়া উত্তর পাড়া জামে মসজিদ,"Iswardi, Pabna District, Rajshahi Division, Bangladesh","দাশ্তড়িয়া উত্তর পাড়া জামে মসজিদ দাশ্তড়িয়া উত্তর পাড়া জামে মসজিদ, পাবনা জেলা, রাজশাহী বিভাগ, বাংলাদেশ",,"দাশ্তড়িয়া উত্তর পাড়া জামে মসজিদ দাশ্তড়িয়া উত্তর পাড়া জামে মসজিদ, ",,Iswardi,বাংলাদেশ,রাজশাহী বিভাগ,local_admin,boundaries,['place_of_worship_muslim'],[],Bangladesh,Rajshahi,Pabna,Ishwardi,Dashuria,abb29998fb26f24bd5332565c439d324
1040,5149063759,893cf56d343ffff,24.0766437,89.6092935,C&B Bus Stand সিএন্ডবি বাসস্ট্যান্ড,"C&B Bus Stand, Santhia, Pabna District, Rajshahi Division, Bangladesh","সিএন্ডবি বাসস্ট্যান্ড, পাবনা জেলা, রাজশাহী বিভাগ, বাংলাদেশ",,,,Santhia,বাংলাদেশ,রাজশাহী বিভাগ,street,boundaries,['bus_stop'],[],Bangladesh,Rajshahi,Pabna,Bera,BeraPaurashava,5a3313b78a62849bf2656f5c8a21feee
1042,530760754,893cf54d097ffff,24.12122617,89.12649296,Filling station,"Filling station, Iswardi, Pabna District, Rajshahi Division, Bangladesh","পাবনা জেলা, রাজশাহী বিভাগ, বাংলাদেশ","Filling station, ",,,Iswardi,বাংলাদেশ,রাজশাহী বিভাগ,local_admin,boundaries,['fuel'],[],Bangladesh,Rajshahi,Pabna,Ishwardi,Muladuli,4cdfec87dbdfba0322cb081daa08a3fe
1044,5149121970,893cf1d0037ffff,24.000295,89.6016312,Paikorhati Post Office পাইকরহাটী ডাকঘর,"Paikorhati Post Office, Santhia, Pabna District, Rajshahi Division, Bangladesh","পাইকরহাটী ডাকঘর, পাবনা জেলা, রাজশাহী বিভাগ, বাংলাদেশ",,,,Santhia,বাংলাদেশ,রাজশাহী বিভাগ,local_admin,boundaries,['post_office'],[],Bangladesh,Rajshahi,Pabna,Santhia,Kashinathpur,c8684e9d9780f92e270bad7d77ca5f66
1045,530760814,893cf54c613ffff,24.15599927,89.13859877,মুলাডুলি কলেজ,"Iswardi, Pabna District, Rajshahi Division, Bangladesh","মুলাডুলি কলেজ, পাবনা জেলা, রাজশাহী বিভাগ, বাংলাদেশ",,"মুলাডুলি কলেজ, ",['Muladuli College'],Iswardi,বাংলাদেশ,রাজশাহী বিভাগ,local_admin,boundaries,['college'],[],Bangladesh,Rajshahi,Pabna,Ishwardi,Muladuli,4cdfec87dbdfba0322cb081daa08a3fe
1047,5149141558,893cf1d1c17ffff,23.9627699,89.6022661,Bagan Barir Misti বাগান বাড়ির মিষ্টি,"Bagan Barir Misti, Sujanagar, Pabna District, Rajshahi Division, Bangladesh","বাগান বাড়ির মিষ্টি, পাবনা জেলা, রাজশাহী বিভাগ, বাংলাদেশ",,,,Sujanagar,বাংলাদেশ,রাজশাহী বিভাগ,local_admin,boundaries,['restaurant'],[],Bangladesh,Rajshahi,Pabna,Santhia,Kashinathpur,c8684e9d9780f92e270bad7d77ca5f66
1049,530761113,893cf54c687ffff,24.16185998,89.14070385,Muladuli Union Parishad মুলাডুলি ইউনিয়ন পরিষদ,"Muladuli Union Parishad, Iswardi, Pabna District, Rajshahi Division, Bangladesh","মুলাডুলি ইউনিয়ন পরিষদ, পাবনা জেলা, রাজশাহী বিভাগ, বাংলাদেশ",,,,Iswardi,বাংলাদেশ,রাজশাহী বিভাগ,local_admin,boundaries,['government'],[],Bangladesh,Rajshahi,Pabna,Ishwardi,Muladuli,4cdfec87dbdfba0322cb081daa08a3fe
1051,5149142816,893cf1d1c17ffff,23.962947,89.6030421,Sahin Cosmetics & Bag House,"Sahin Cosmetics & Bag House, Sujanagar, Pabna District, Rajshahi Division, Bangladesh","পাবনা জেলা, রাজশাহী বিভাগ, বাংলাদেশ","Sahin Cosmetics & Bag House, ",,,Sujanagar,বাংলাদেশ,রাজশাহী বিভাগ,local_admin,boundaries,['cosmetics'],[],Bangladesh,Rajshahi,Pabna,Santhia,Kashinathpur,c8684e9d9780f92e270bad7d77ca5f66
1053,530761255,893cf54c687ffff,24.16194285,89.14192646,Muladuli High School মুলাডুলি উচ্চ বিদ্যালয়,"Muladuli High School, Iswardi, Pabna District, Rajshahi Division, Bangladesh","মুলাডুলি উচ্চ বিদ্যালয়, পাবনা জেলা, রাজশাহী বিভাগ, বাংলাদেশ",,,,Iswardi,বাংলাদেশ,রাজশাহী বিভাগ,local_admin,boundaries,['college'],[],Bangladesh,Rajshahi,Pabna,Ishwardi,Muladuli,4cdfec87dbdfba0322cb081daa08a3fe
1055,5149144214,893cf1d1c17ffff,23.9630044,89.6034314,Kashinathpur Post Office,"Kashinathpur Post Office, Sujanagar, Pabna District, Rajshahi Division, Bangladesh","পাবনা জেলা, রাজশাহী বিভাগ, বাংলাদেশ","Kashinathpur Post Office, ",,,Sujanagar,বাংলাদেশ,রাজশাহী বিভাগ,local_admin,boundaries,['post_office'],[],Bangladesh,Rajshahi,Pabna,Santhia,Kashinathpur,c8684e9d9780f92e270bad7d77ca5f66
1057,530761317,893cf54c687ffff,24.1625586,89.14162588,Muladuli Bazar Jame Mosjid,"Muladuli Bazar Jame Mosjid, Iswardi, Pabna District, Rajshahi Division, Bangladesh","পাবনা জেলা, রাজশাহী বিভাগ, বাংলাদেশ","Muladuli Bazar Jame Mosjid, ",,,Iswardi,বাংলাদেশ,রাজশাহী বিভাগ,local_admin,boundaries,['place_of_worship_muslim'],[],Bangladesh,Rajshahi,Pabna,Ishwardi,Muladuli,4cdfec87dbdfba0322cb081daa08a3fe
1060,530761625,893cf54c44bffff,24.16579471,89.14152238,অগ্রণী ব্যাংক লিমিটেড,"Iswardi, Pabna District, Rajshahi Division, Bangladesh","অগ্রণী ব্যাংক লিমিটেড, পাবনা জেলা, রাজশাহী বিভাগ, বাংলাদেশ",,"অগ্রণী ব্যাংক লিমিটেড, ",['Agrani Bank Limited'],Iswardi,বাংলাদেশ,রাজশাহী বিভাগ,local_admin,boundaries,['bank'],[],Bangladesh,Rajshahi,Pabna,Ishwardi,Muladuli,4cdfec87dbdfba0322cb081daa08a3fe
1078,5149144938,893cf1d1c17ffff,23.9622724,89.6032155,New Hasina Food,"New Hasina Food, Sujanagar, Pabna District, Rajshahi Division, Bangladesh","পাবনা জেলা, রাজশাহী বিভাগ, বাংলাদেশ","New Hasina Food, ",,,Sujanagar,বাংলাদেশ,রাজশাহী বিভাগ,local_admin,boundaries,['food_court'],[],Bangladesh,Rajshahi,Pabna,Santhia,Kashinathpur,c8684e9d9780f92e270bad7d77ca5f66
1080,5149146595,893cf1d1c17ffff,23.9618147,89.6032077,MUNSHI SUPAR MARKET,"MUNSHI SUPAR MARKET, Sujanagar, Pabna District, Rajshahi Division, Bangladesh","পাবনা জেলা, রাজশাহী বিভাগ, বাংলাদেশ","MUNSHI SUPAR MARKET, ",,,Sujanagar,বাংলাদেশ,রাজশাহী বিভাগ,local_admin,boundaries,['marketplace'],[],Bangladesh,Rajshahi,Pabna,Santhia,Kashinathpur,c8684e9d9780f92e270bad7d77ca5f66
1083,5149152475,893cf1d1c03ffff,23.9607604,89.6038559,Rita Varaities,"Rita Varaities, Sujanagar, Pabna District, Rajshahi Division, Bangladesh","পাবনা জেলা, রাজশাহী বিভাগ, বাংলাদেশ","Rita Varaities, ",,,Sujanagar,বাংলাদেশ,রাজশাহী বিভাগ,local_admin,boundaries,['variety_store'],[],Bangladesh,Rajshahi,Pabna,Santhia,Kashinathpur,c8684e9d9780f92e270bad7d77ca5f66
1092,5149159723,893cf1d1c17ffff,23.961429,89.6036808,ROHIM COFHI SHOP,"ROHIM COFHI SHOP, Sujanagar, Pabna District, Rajshahi Division, Bangladesh","পাবনা জেলা, রাজশাহী বিভাগ, বাংলাদেশ","ROHIM COFHI SHOP, ",,,Sujanagar,বাংলাদেশ,রাজশাহী বিভাগ,local_admin,boundaries,['cafe'],[],Bangladesh,Rajshahi,Pabna,Santhia,Kashinathpur,c8684e9d9780f92e270bad7d77ca5f66
1095,5149162385,893cf1d1c03ffff,23.9608147,89.6028397,Torun bostro bitan,"Torun bostro bitan, Sujanagar, Pabna District, Rajshahi Division, Bangladesh","পাবনা জেলা, রাজশাহী বিভাগ, বাংলাদেশ","Torun bostro bitan, ",,,Sujanagar,বাংলাদেশ,রাজশাহী বিভাগ,local_admin,boundaries,['clothes'],[],Bangladesh,Rajshahi,Pabna,Santhia,Kashinathpur,c8684e9d9780f92e270bad7d77ca5f66
1098,5149162723,893cf1d1c03ffff,23.9605571,89.6039779,Mou electronics মৌ ইলেকট্রনিক্স,"Mou electronics, Sujanagar, Pabna District, Rajshahi Division, Bangladesh","মৌ ইলেকট্রনিক্স, পাবনা জেলা, রাজশাহী বিভাগ, বাংলাদেশ",,,,Sujanagar,বাংলাদেশ,রাজশাহী বিভাগ,local_admin,boundaries,['electronics'],[],Bangladesh,Rajshahi,Pabna,Santhia,Kashinathpur,c8684e9d9780f92e270bad7d77ca5f66
1105,5149165039,893cf1d1c07ffff,23.9606691,89.6055214,Hossain Brothers Shoping Complex,"Hossain Brothers Shoping Complex, Sujanagar, Pabna District, Rajshahi Division, Bangladesh","পাবনা জেলা, রাজশাহী বিভাগ, বাংলাদেশ","Hossain Brothers Shoping Complex, ",,,Sujanagar,বাংলাদেশ,রাজশাহী বিভাগ,local_admin,boundaries,['supermarket'],[],Bangladesh,Rajshahi,Pabna,Santhia,Kashinathpur,c8684e9d9780f92e270bad7d77ca5f66
1109,5149173967,893cf1d1c07ffff,23.9591561,89.6062523,Sikder Super Market,"Sikder Super Market, Bera, Pabna District, Rajshahi Division, Bangladesh","পাবনা জেলা, রাজশাহী বিভাগ, বাংলাদেশ","Sikder Super Market, ",,,Bera,বাংলাদেশ,রাজশাহী বিভাগ,local_admin,boundaries,['marketplace'],[],Bangladesh,Rajshahi,Pabna,Santhia,Kashinathpur,c8684e9d9780f92e270bad7d77ca5f66
1112,5149174311,893cf1d1c07ffff,23.9590656,89.6056581,Fatema Filling Station ফাতেমা ফিলিং স্টেশন,"Fatema Filling Station, Bera, Pabna District, Rajshahi Division, Bangladesh","ফাতেমা ফিলিং স্টেশন, পাবনা জেলা, রাজশাহী বিভাগ, বাংলাদেশ",,,,Bera,বাংলাদেশ,রাজশাহী বিভাগ,local_admin,boundaries,['fuel'],[],Bangladesh,Rajshahi,Pabna,Santhia,Kashinathpur,c8684e9d9780f92e270bad7d77ca5f66
1116,5149176007,893cf1d1c0fffff,23.9584359,89.6055029,Kashinathpur Bazar,"Kashinathpur Bazar, Bera, Pabna District, Rajshahi Division, Bangladesh","পাবনা জেলা, রাজশাহী বিভাগ, বাংলাদেশ","Kashinathpur Bazar, ",,,Bera,বাংলাদেশ,রাজশাহী বিভাগ,local_admin,boundaries,['marketplace'],[],Bangladesh,Rajshahi,Pabna,Sujanagar,Ahammedpur,281b923bcc339aed350eeb0c016a0727
1120,5149176343,893cf1d1c07ffff,23.9590729,89.6064746,Hazi N Zaman Shopping Complex হাজী এন জামান শপিং কমপ্লেক্স,"Hazi N Zaman Shopping Complex, Bera, Pabna District, Rajshahi Division, Bangladesh","হাজী এন জামান শপিং কমপ্লেক্স, পাবনা জেলা, রাজশাহী বিভাগ, বাংলাদেশ",,,,Bera,বাংলাদেশ,রাজশাহী বিভাগ,local_admin,boundaries,['marketplace'],[],Bangladesh,Rajshahi,Pabna,Santhia,Kashinathpur,c8684e9d9780f92e270bad7d77ca5f66
1124,5149177725,893cf1d1c0fffff,23.9584798,89.6062249,Police Box,"Police Box, Bera, Pabna District, Rajshahi Division, Bangladesh","পাবনা জেলা, রাজশাহী বিভাগ, বাংলাদেশ","Police Box, ",,,Bera,বাংলাদেশ,রাজশাহী বিভাগ,local_admin,boundaries,['police'],[],Bangladesh,Rajshahi,Pabna,Sujanagar,Ahammedpur,281b923bcc339aed350eeb0c016a0727
1127,5149177735,893cf1d1c0fffff,23.9583818,89.6064703,কাশীনাথপুর ফুলবাগান,"Bera, Pabna District, Rajshahi Division, Bangladesh","কাশীনাথপুর ফুলবাগান, পাবনা জেলা, রাজশাহী বিভাগ, বাংলাদেশ",,"কাশীনাথপুর ফুলবাগান, ",,Bera,বাংলাদেশ,রাজশাহী বিভাগ,local_admin,boundaries,['park'],[],Bangladesh,Rajshahi,Pabna,Sujanagar,Ahammedpur,281b923bcc339aed350eeb0c016a0727
1129,5149179895,893cf1d1c07ffff,23.9590049,89.6066436,Hasina Bread & Biscuit Factory হাসিনা ব্রেড ও বিস্কুট ফ্যাক্টরি,"Hasina Bread & Biscuit Factory, Bera, Pabna District, Rajshahi Division, Bangladesh","হাসিনা ব্রেড ও বিস্কুট ফ্যাক্টরি, পাবনা জেলা, রাজশাহী বিভাগ, বাংলাদেশ",,,,Bera,বাংলাদেশ,রাজশাহী বিভাগ,local_admin,boundaries,['restaurant'],[],Bangladesh,Rajshahi,Pabna,Santhia,Kashinathpur,c8684e9d9780f92e270bad7d77ca5f66
1133,5149180619,893cf1d1c0fffff,23.9587172,89.6067806,অগ্রণী ব্যাংক লিমিটেড,"Bera, Pabna District, Rajshahi Division, Bangladesh","অগ্রণী ব্যাংক লিমিটেড, পাবনা জেলা, রাজশাহী বিভাগ, বাংলাদেশ",,"অগ্রণী ব্যাংক লিমিটেড, ",['Agrani Bank Limited'],Bera,বাংলাদেশ,রাজশাহী বিভাগ,local_admin,boundaries,['bank'],[],Bangladesh,Rajshahi,Pabna,Sujanagar,Ahammedpur,281b923bcc339aed350eeb0c016a0727
1137,5149180731,893cf1d1c0fffff,23.9588055,89.6067042,আইএফআইসি ব্যাংক লিমিটেড,"Bera, Pabna District, Rajshahi Division, Bangladesh","আইএফআইসি ব্যাংক লিমিটেড, পাবনা জেলা, রাজশাহী বিভাগ, বাংলাদেশ",,"আইএফআইসি ব্যাংক লিমিটেড, ",['IFIC Bank Limited'],Bera,বাংলাদেশ,রাজশাহী বিভাগ,local_admin,boundaries,['bank'],[],Bangladesh,Rajshahi,Pabna,Sujanagar,Ahammedpur,281b923bcc339aed350eeb0c016a0727
1139,5149343605,893cf1d1c3bffff,23.9581332,89.6073749,Roton Filling Station,"Roton Filling Station, Bera, Pabna District, Rajshahi Division, Bangladesh","পাবনা জেলা, রাজশাহী বিভাগ, বাংলাদেশ","Roton Filling Station, ",,,Bera,বাংলাদেশ,রাজশাহী বিভাগ,local_admin,boundaries,['fuel'],[],Bangladesh,Rajshahi,Pabna,Santhia,Kashinathpur,c8684e9d9780f92e270bad7d77ca5f66
1143,5149351071,893cf1d1c0fffff,23.9576288,89.6068659,Kashinathpur-Kajirhat Bus Station,"Kashinathpur-Kajirhat Bus Station, Bera, Pabna District, Rajshahi Division, Bangladesh","পাবনা জেলা, রাজশাহী বিভাগ, বাংলাদেশ",Kashinathpur-Kajirhat Bus Station,,,Bera,বাংলাদেশ,রাজশাহী বিভাগ,street,boundaries,['bus_stop'],[],Bangladesh,Rajshahi,Pabna,Sujanagar,Ahammedpur,281b923bcc339aed350eeb0c016a0727
1146,5149351719,893cf1d1c3bffff,23.9576156,89.60797,Anando Sweets,"Anando Sweets, Bera, Pabna District, Rajshahi Division, Bangladesh","পাবনা জেলা, রাজশাহী বিভাগ, বাংলাদেশ","Anando Sweets, ",,,Bera,বাংলাদেশ,রাজশাহী বিভাগ,local_admin,boundaries,['restaurant'],[],Bangladesh,Rajshahi,Pabna,Santhia,Kashinathpur,c8684e9d9780f92e270bad7d77ca5f66
1147,5149353530,893cf1d1c2bffff,23.9559826,89.611165,Bismillah bag & ছাতা বাজার,"Bismillah bag &, Bera, Pabna District, Rajshahi Division, Bangladesh","ছাতা বাজার, পাবনা জেলা, রাজশাহী বিভাগ, বাংলাদেশ",,,,Bera,বাংলাদেশ,রাজশাহী বিভাগ,local_admin,boundaries,['marketplace'],[],Bangladesh,Rajshahi,Pabna,Bera,Jatsakhni,9d016aaffb5c9990d2d03b448bd8afde
1150,5149365140,893cf1d1c03ffff,23.9597567,89.6024828,Mridha Super Market মৃধা সুপার মার্কেট,"Mridha Super Market, Sujanagar, Pabna District, Rajshahi Division, Bangladesh","মৃধা সুপার মার্কেট, পাবনা জেলা, রাজশাহী বিভাগ, বাংলাদেশ",,,,Sujanagar,বাংলাদেশ,রাজশাহী বিভাগ,local_admin,boundaries,['marketplace'],[],Bangladesh,Rajshahi,Pabna,Santhia,Kashinathpur,c8684e9d9780f92e270bad7d77ca5f66
1231,5078731331,893cf57aeb3ffff,24.2616945,89.3506427,,"Chatmohar, Pabna District, Rajshahi Division, Bangladesh","পাবনা জেলা, রাজশাহী বিভাগ, বাংলাদেশ",,,['Limon Shoshur Bari'],Chatmohar,বাংলাদেশ,রাজশাহী বিভাগ,local_admin,boundaries,['artwork'],[],Bangladesh,Rajshahi,Pabna,Chatmohar,Nimaichara,22d424edf2d3a55f28d35f975e4355a7
1309,1472122432,893cf548d53ffff,24.1302365,89.0627406,ঈশ্বরদী জংশন,"Iswardi, Pabna District, Rajshahi Division, Bangladesh","ঈশ্বরদী জংশন, পাবনা জেলা, রাজশাহী বিভাগ, বাংলাদেশ",,"ঈশ্বরদী জংশন, ",['Ishwardi Junction'],Iswardi,বাংলাদেশ,রাজশাহী বিভাগ,local_admin,boundaries,['railway_station'],[],Bangladesh,Rajshahi,Pabna,Ishwardi,IshwardiPaurashava,37bb3c3966833860e900836c7ac4a750
1339,2344447494,893cf548d73ffff,24.1273814,89.0715238,Ishwardi Upazila Health Complex,"Ishwardi Upazila Health Complex, Iswardi, Pabna District, Rajshahi Division, Bangladesh","পাবনা জেলা, রাজশাহী বিভাগ, বাংলাদেশ","Ishwardi Upazila Health Complex, ",,,Iswardi,বাংলাদেশ,রাজশাহী বিভাগ,local_admin,boundaries,['hospital'],[],Bangladesh,Rajshahi,Pabna,Ishwardi,IshwardiPaurashava,37bb3c3966833860e900836c7ac4a750
1438,3219870277,893cf5499d7ffff,24.070877,89.0406856,পাকশী,"Iswardi, Pabna District, Rajshahi Division, Bangladesh","পাকশী, পাবনা জেলা, রাজশাহী বিভাগ, বাংলাদেশ",,"পাকশী, ","['পাকশী', 'Pakshi']",Iswardi,বাংলাদেশ,রাজশাহী বিভাগ,local_admin,boundaries,['railway_station'],[],Bangladesh,Rajshahi,Pabna,Ishwardi,Pakshi,f3250eb5f2401af65568934e50d36c20
1484,4693152635,893cf5488b7ffff,24.1214454,89.0677233,Ishurdi Post Office,"Ishurdi Post Office, Iswardi, Pabna District, Rajshahi Division, Bangladesh","পাবনা জেলা, রাজশাহী বিভাগ, বাংলাদেশ","Ishurdi Post Office, ",,['ঈশ্বরদী পোস্ট অফিস'],Iswardi,বাংলাদেশ,রাজশাহী বিভাগ,local_admin,boundaries,['post_office'],[],Bangladesh,Rajshahi,Pabna,Ishwardi,IshwardiPaurashava,37bb3c3966833860e900836c7ac4a750
1492,4693152636,893cf5488b7ffff,24.1212014,89.0679815,BTCL Telephone Office,"BTCL Telephone Office, Iswardi, Pabna District, Rajshahi Division, Bangladesh","পাবনা জেলা, রাজশাহী বিভাগ, বাংলাদেশ","BTCL Telephone Office, ",,,Iswardi,বাংলাদেশ,রাজশাহী বিভাগ,local_admin,boundaries,['telecommunication'],[],Bangladesh,Rajshahi,Pabna,Ishwardi,IshwardiPaurashava,37bb3c3966833860e900836c7ac4a750
1494,4693157303,893cf5488bbffff,24.1195086,89.0662755,ঈশ্বরদী পশু হাসপাতাল,"Iswardi, Pabna District, Rajshahi Division, Bangladesh","ঈশ্বরদী পশু হাসপাতাল, পাবনা জেলা, রাজশাহী বিভাগ, বাংলাদেশ",,"ঈশ্বরদী পশু হাসপাতাল, ",,Iswardi,বাংলাদেশ,রাজশাহী বিভাগ,local_admin,boundaries,['veterinary'],[],Bangladesh,Rajshahi,Pabna,Ishwardi,IshwardiPaurashava,37bb3c3966833860e900836c7ac4a750
1498,4693157304,893cf5488a3ffff,24.1197405,89.0664909,Govt. South Primary School,"Govt. South Primary School, Iswardi, Pabna District, Rajshahi Division, Bangladesh","পাবনা জেলা, রাজশাহী বিভাগ, বাংলাদেশ","Govt. South Primary School, ",,['সাউথ সরকারী প্রাথমিক বিদ্যালয়'],Iswardi,বাংলাদেশ,রাজশাহী বিভাগ,local_admin,boundaries,['kindergarten'],[],Bangladesh,Rajshahi,Pabna,Ishwardi,IshwardiPaurashava,37bb3c3966833860e900836c7ac4a750
1501,4693178334,893cf548847ffff,24.1066197,89.061722,উত্তর বাঘইল জামে মসজিদ,"Iswardi, Pabna District, Rajshahi Division, Bangladesh","উত্তর বাঘইল জামে মসজিদ, পাবনা জেলা, রাজশাহী বিভাগ, বাংলাদেশ",,"উত্তর বাঘইল জামে মসজিদ, ",['Uttar Baghoil Jame Masjid'],Iswardi,বাংলাদেশ,রাজশাহী বিভাগ,local_admin,boundaries,['place_of_worship_muslim'],[],Bangladesh,Rajshahi,Pabna,Ishwardi,Pakshi,f3250eb5f2401af65568934e50d36c20
1506,4693178335,893cf548847ffff,24.1071291,89.061675,বাঘইল ১নং সরকারি প্রাথমিক বিদ্যালয়,"Iswardi, Pabna District, Rajshahi Division, Bangladesh","বাঘইল ১নং সরকারি প্রাথমিক বিদ্যালয়, পাবনা জেলা, রাজশাহী বিভাগ, বাংলাদেশ",,"বাঘইল ১নং সরকারি প্রাথমিক বিদ্যালয়, ",['Baghoil Govt. Primary School No. 01'],Iswardi,বাংলাদেশ,রাজশাহী বিভাগ,local_admin,boundaries,['school'],[],Bangladesh,Rajshahi,Pabna,Ishwardi,Pakshi,f3250eb5f2401af65568934e50d36c20
1512,4693178344,893cf54887bffff,24.1027044,89.0625477,Ummat's Tea Stall উম্মতের চায়ের দোকান,"Ummat's Tea Stall, Iswardi, Pabna District, Rajshahi Division, Bangladesh","উম্মতের চায়ের দোকান, পাবনা জেলা, রাজশাহী বিভাগ, বাংলাদেশ",,,,Iswardi,বাংলাদেশ,রাজশাহী বিভাগ,local_admin,boundaries,['cafe'],[],Bangladesh,Rajshahi,Pabna,Ishwardi,Pakshi,f3250eb5f2401af65568934e50d36c20
1515,4693178345,893cf54887bffff,24.1027118,89.0631968,Ali Store,"Ali Store, Iswardi, Pabna District, Rajshahi Division, Bangladesh","পাবনা জেলা, রাজশাহী বিভাগ, বাংলাদেশ","Ali Store, ",,,Iswardi,বাংলাদেশ,রাজশাহী বিভাগ,local_admin,boundaries,['marketplace'],[],Bangladesh,Rajshahi,Pabna,Ishwardi,Pakshi,f3250eb5f2401af65568934e50d36c20
1517,4693178346,893cf54887bffff,24.1023053,89.0632853,আবূল হোসেন উচ্চ বিদ্যালয়,"Iswardi, Pabna District, Rajshahi Division, Bangladesh","আবূল হোসেন উচ্চ বিদ্যালয়, পাবনা জেলা, রাজশাহী বিভাগ, বাংলাদেশ",,"আবূল হোসেন উচ্চ বিদ্যালয়, ",,Iswardi,বাংলাদেশ,রাজশাহী বিভাগ,local_admin,boundaries,['school'],[],Bangladesh,Rajshahi,Pabna,Ishwardi,Pakshi,f3250eb5f2401af65568934e50d36c20
1523,4693178347,893cf54887bffff,24.1030594,89.0629446,,"Iswardi, Pabna District, Rajshahi Division, Bangladesh","পাবনা জেলা, রাজশাহী বিভাগ, বাংলাদেশ",,,,Iswardi,বাংলাদেশ,রাজশাহী বিভাগ,local_admin,boundaries,['hardware'],[],Bangladesh,Rajshahi,Pabna,Ishwardi,Pakshi,f3250eb5f2401af65568934e50d36c20
1526,4693178348,893cf54887bffff,24.1029395,89.0631351,ইস্তা সাঁকো জামে মসজিদ,"Iswardi, Pabna District, Rajshahi Division, Bangladesh","ইস্তা সাঁকো জামে মসজিদ, পাবনা জেলা, রাজশাহী বিভাগ, বাংলাদেশ",,"ইস্তা সাঁকো জামে মসজিদ, ",,Iswardi,বাংলাদেশ,রাজশাহী বিভাগ,local_admin,boundaries,['place_of_worship_muslim'],[],Bangladesh,Rajshahi,Pabna,Ishwardi,Pakshi,f3250eb5f2401af65568934e50d36c20
1533,4716323591,893cf549d2fffff,24.0819817,89.045255,,"Iswardi, Pabna District, Rajshahi Division, Bangladesh","পাবনা জেলা, রাজশাহী বিভাগ, বাংলাদেশ",,,,Iswardi,বাংলাদেশ,রাজশাহী বিভাগ,local_admin,boundaries,['picnic_site'],[],Bangladesh,Rajshahi,Pabna,Ishwardi,Pakshi,f3250eb5f2401af65568934e50d36c20
1630,5149464444,893cf0b4b77ffff,24.0347444,89.3833412,গঙ্গারামপুর বাজার,"Pabna, Pabna District, Rajshahi Division, Bangladesh","গঙ্গারামপুর বাজার, পাবনা জেলা, রাজশাহী বিভাগ, বাংলাদেশ",,"গঙ্গারামপুর বাজার, ",,Pabna,বাংলাদেশ,রাজশাহী বিভাগ,local_admin,boundaries,['marketplace'],[],Bangladesh,Rajshahi,Pabna,PabnaSadar,Ataikola,81c26bc468baeef6fee85b72328cde15
1635,5149469928,893cf0b4b77ffff,24.0349835,89.3819068,আতাইকুলা ইউনিয়ন ডিজিটাল সেন্টার,"Pabna, Pabna District, Rajshahi Division, Bangladesh","আতাইকুলা ইউনিয়ন ডিজিটাল সেন্টার, পাবনা জেলা, রাজশাহী বিভাগ, বাংলাদেশ",,"আতাইকুলা ইউনিয়ন ডিজিটাল সেন্টার, ",,Pabna,বাংলাদেশ,রাজশাহী বিভাগ,local_admin,boundaries,['cafe'],[],Bangladesh,Rajshahi,Pabna,PabnaSadar,Ataikola,81c26bc468baeef6fee85b72328cde15
1652,5149473425,893cf0b4bcbffff,24.0366009,89.3674583,Kuchia Mora Bus Stop,"Kuchia Mora Bus Stop, Pabna, Pabna District, Rajshahi Division, Bangladesh","পাবনা জেলা, রাজশাহী বিভাগ, বাংলাদেশ",Kuchia Mora Bus Stop,,,Pabna,বাংলাদেশ,রাজশাহী বিভাগ,street,boundaries,['bus_stop'],[],Bangladesh,Rajshahi,Pabna,PabnaSadar,Ataikola,81c26bc468baeef6fee85b72328cde15
1658,5149476345,893cf0b5da3ffff,24.0338722,89.3356844,PushpaPara Market,"PushpaPara Market, Pabna, Pabna District, Rajshahi Division, Bangladesh","পাবনা জেলা, রাজশাহী বিভাগ, বাংলাদেশ","PushpaPara Market, ",,,Pabna,বাংলাদেশ,রাজশাহী বিভাগ,local_admin,boundaries,['marketplace'],[],Bangladesh,Rajshahi,Pabna,PabnaSadar,Ataikola,81c26bc468baeef6fee85b72328cde15
1893,5154729667,893cf548b6bffff,24.0860676,89.0851653,SK Varieties Store এস কে বৈচিত্র্যের স্টোর,"SK Varieties Store, Iswardi, Pabna District, Rajshahi Division, Bangladesh","এস কে বৈচিত্র্যের স্টোর, পাবনা জেলা, রাজশাহী বিভাগ, বাংলাদেশ",,,,Iswardi,বাংলাদেশ,রাজশাহী বিভাগ,local_admin,boundaries,['variety_store'],[],Bangladesh,Rajshahi,Pabna,Ishwardi,Silimpur,7d71b0f5de9ede75bb5fcea9be20b4c4
1898,5154733357,893cf549917ffff,24.0720161,89.0527103,Hot n Fresh Restaurant,"Hot n Fresh Restaurant, Iswardi, Pabna District, Rajshahi Division, Bangladesh","পাবনা জেলা, রাজশাহী বিভাগ, বাংলাদেশ","Hot n Fresh Restaurant, ",,,Iswardi,বাংলাদেশ,রাজশাহী বিভাগ,local_admin,boundaries,['restaurant'],[],Bangladesh,Rajshahi,Pabna,Ishwardi,Pakshi,f3250eb5f2401af65568934e50d36c20
1902,5154734044,893cf0b24c7ffff,24.0752274,89.0706323,Notun Hat Gol Chottor,"Notun Hat Gol Chottor, Iswardi, Pabna District, Rajshahi Division, Bangladesh","পাবনা জেলা, রাজশাহী বিভাগ, বাংলাদেশ",Notun Hat Gol Chottor,,,Iswardi,বাংলাদেশ,রাজশাহী বিভাগ,street,boundaries,['bus_stop'],[],Bangladesh,Rajshahi,Pabna,Ishwardi,Sahapur,f4a16057faf88d5822db31ed194c2ba4
1908,5154735128,893cf549917ffff,24.071485,89.0512096,Paksey Bus Station,"Paksey Bus Station, Iswardi, Pabna District, Rajshahi Division, Bangladesh","পাবনা জেলা, রাজশাহী বিভাগ, বাংলাদেশ",Paksey Bus Station,,,Iswardi,বাংলাদেশ,রাজশাহী বিভাগ,street,boundaries,['bus_stop'],[],Bangladesh,Rajshahi,Pabna,Ishwardi,Pakshi,f3250eb5f2401af65568934e50d36c20
1986,1736168488,893cf0b56b7ffff,24.0081986,89.2375255,শহর,"Pabna, Pabna District, Rajshahi Division, Bangladesh","শহর, পাবনা জেলা, রাজশাহী বিভাগ, বাংলাদেশ",,শহর,,Pabna,বাংলাদেশ,রাজশাহী বিভাগ,street,boundaries,['bus_stop'],[],Bangladesh,Rajshahi,Pabna,PabnaSadar,PabnaPaurashava,d0c366c89802ae607abc497eea7e0e06
2011,5172729431,893cf578c47ffff,24.2162643,89.381952,বড়াল সেতু গবাদি পশু বাজার (সাপ্তাহিক),"Bhangura, Pabna District, Rajshahi Division, Bangladesh","বড়াল সেতু গবাদি পশু বাজার সাপ্তাহিক, পাবনা জেলা, রাজশাহী বিভাগ, বাংলাদেশ",,"বড়াল সেতু গবাদি পশু বাজার সাপ্তাহিক, ",['Boral Bridge Cattle Market (Weekly)'],Bhangura,বাংলাদেশ,রাজশাহী বিভাগ,local_admin,boundaries,['marketplace'],[],Bangladesh,Rajshahi,Pabna,Bhangura,BhanguraPaurashava,37b836593fa0e0450ba02b40588a67e0
2207,5160530739,893cf54a8cbffff,24.1601428,89.0228071,মেসার্স সালাম স্টোর,"Iswardi, Pabna District, Rajshahi Division, Bangladesh","মেসার্স সালাম স্টোর, পাবনা জেলা, রাজশাহী বিভাগ, বাংলাদেশ",,"মেসার্স সালাম স্টোর, ",,Iswardi,বাংলাদেশ,রাজশাহী বিভাগ,local_admin,boundaries,['marketplace'],[],Bangladesh,Rajshahi,Pabna,Ishwardi,Sara,871c285382873cc9f3e05c36547e89e8
2220,5160533781,893cf548dc3ffff,24.1332133,89.0596406,kholil tea stall খলিল চায়ের দোকান,"kholil tea stall, Iswardi, Pabna District, Rajshahi Division, Bangladesh","খলিল চায়ের দোকান, পাবনা জেলা, রাজশাহী বিভাগ, বাংলাদেশ",,,,Iswardi,বাংলাদেশ,রাজশাহী বিভাগ,local_admin,boundaries,['tea'],[],Bangladesh,Rajshahi,Pabna,Ishwardi,IshwardiPaurashava,37bb3c3966833860e900836c7ac4a750
2225,5160537781,893cf548dcfffff,24.1326211,89.0613089,লিটন টি স্টল,"Iswardi, Pabna District, Rajshahi Division, Bangladesh","লিটন টি স্টল, পাবনা জেলা, রাজশাহী বিভাগ, বাংলাদেশ",,"লিটন টি স্টল, ",['Liton Tea Stall'],Iswardi,বাংলাদেশ,রাজশাহী বিভাগ,local_admin,boundaries,['tea'],[],Bangladesh,Rajshahi,Pabna,Ishwardi,IshwardiPaurashava,37bb3c3966833860e900836c7ac4a750
2231,5160581372,893cf548e07ffff,24.106914,89.0431689,তালতলা,"Iswardi, Pabna District, Rajshahi Division, Bangladesh","তালতলা, পাবনা জেলা, রাজশাহী বিভাগ, বাংলাদেশ",,"তালতলা, ","['তালতলা', 'Taltola']",Iswardi,বাংলাদেশ,রাজশাহী বিভাগ,local_admin,boundaries,['bus_station'],[],Bangladesh,Rajshahi,Pabna,Ishwardi,Pakshi,f3250eb5f2401af65568934e50d36c20
2236,5160586066,893cf548acbffff,24.0880807,89.0475024,Dilu Tea Store,"Dilu Tea Store, Iswardi, Pabna District, Rajshahi Division, Bangladesh","পাবনা জেলা, রাজশাহী বিভাগ, বাংলাদেশ","Dilu Tea Store, ",,,Iswardi,বাংলাদেশ,রাজশাহী বিভাগ,local_admin,boundaries,['tea'],[],Bangladesh,Rajshahi,Pabna,Ishwardi,Pakshi,f3250eb5f2401af65568934e50d36c20
2241,5160589230,893cf548a0fffff,24.0878145,89.0602858,অগ্রণী ব্যাংক লিমিটেড,"Iswardi, Pabna District, Rajshahi Division, Bangladesh","অগ্রণী ব্যাংক লিমিটেড, পাবনা জেলা, রাজশাহী বিভাগ, বাংলাদেশ",,"অগ্রণী ব্যাংক লিমিটেড, ",['Agrani Bank Limited'],Iswardi,বাংলাদেশ,রাজশাহী বিভাগ,local_admin,boundaries,['bank'],[],Bangladesh,Rajshahi,Pabna,Ishwardi,Pakshi,f3250eb5f2401af65568934e50d36c20
2244,5160592864,893cf548acbffff,24.0864166,89.0481658,Cafe De Al-baik,"Cafe De Al-baik, Iswardi, Pabna District, Rajshahi Division, Bangladesh","পাবনা জেলা, রাজশাহী বিভাগ, বাংলাদেশ","Cafe De Al-baik, ",,,Iswardi,বাংলাদেশ,রাজশাহী বিভাগ,local_admin,boundaries,['restaurant'],[],Bangladesh,Rajshahi,Pabna,Ishwardi,Pakshi,f3250eb5f2401af65568934e50d36c20
2279,2344452476,893cf57b523ffff,24.2329754,89.2868106,Chatmohar Upazila Health Complex,"Chatmohar Upazila Health Complex, Chatmohar, Pabna District, Rajshahi Division, Bangladesh","পাবনা জেলা, রাজশাহী বিভাগ, বাংলাদেশ","Chatmohar Upazila Health Complex, ",,,Chatmohar,বাংলাদেশ,রাজশাহী বিভাগ,local_admin,boundaries,['hospital'],[],Bangladesh,Rajshahi,Pabna,Chatmohar,ChatmoharPaurashava,df5ec403a1d11d772a3b8827eedefaac
2297,2352381519,893cf0b50c3ffff,24.0061311,89.2475577,Eidgah,"Eidgah, Pabna, Pabna District, Rajshahi Division, Bangladesh","পাবনা জেলা, রাজশাহী বিভাগ, বাংলাদেশ","Eidgah, ",,,Pabna,বাংলাদেশ,রাজশাহী বিভাগ,local_admin,boundaries,['place_of_worship_muslim'],[],Bangladesh,Rajshahi,Pabna,PabnaSadar,PabnaPaurashava,d0c366c89802ae607abc497eea7e0e06
2300,2352382625,893cf0b50d7ffff,24.0062286,89.2484632,Shahid Fazlur Haque High School,"Shahid Fazlur Haque High School, Pabna, Pabna District, Rajshahi Division, Bangladesh","পাবনা জেলা, রাজশাহী বিভাগ, বাংলাদেশ","Shahid Fazlur Haque High School, ",,,Pabna,বাংলাদেশ,রাজশাহী বিভাগ,local_admin,boundaries,['school'],[],Bangladesh,Rajshahi,Pabna,PabnaSadar,PabnaPaurashava,d0c366c89802ae607abc497eea7e0e06
2306,2352383428,893cf0b56b7ffff,24.0088832,89.2399393,Pabna Sadar Police Station,"Pabna Sadar Police Station, Pabna, Pabna District, Rajshahi Division, Bangladesh","পাবনা জেলা, রাজশাহী বিভাগ, বাংলাদেশ","Pabna Sadar Police Station, ",,,Pabna,বাংলাদেশ,রাজশাহী বিভাগ,local_admin,boundaries,['police'],[],Bangladesh,Rajshahi,Pabna,PabnaSadar,PabnaPaurashava,d0c366c89802ae607abc497eea7e0e06
2310,2352385382,893cf0b547bffff,24.0103573,89.2393601,RM Academy High School,"RM Academy High School, Pabna, Pabna District, Rajshahi Division, Bangladesh","পাবনা জেলা, রাজশাহী বিভাগ, বাংলাদেশ","RM Academy High School, ",,,Pabna,বাংলাদেশ,রাজশাহী বিভাগ,local_admin,boundaries,['school'],[],Bangladesh,Rajshahi,Pabna,PabnaSadar,PabnaPaurashava,d0c366c89802ae607abc497eea7e0e06
2372,2352385860,893cf0b547bffff,24.0122726,89.2395872,Pabna Covt. Edward College,"Pabna Covt. Edward College, ",,"Pabna Covt. Edward College, ",,['Government Edward College'],Pabna,বাংলাদেশ,রাজশাহী বিভাগ,housenumber,contains,['college'],[],Bangladesh,Rajshahi,Pabna,PabnaSadar,PabnaPaurashava,d0c366c89802ae607abc497eea7e0e06
2394,2571279693,893cf57b227ffff,24.1887526,89.2755732,চাটমোহর,"Chatmohar, Pabna District, Rajshahi Division, Bangladesh","চাটমোহর, পাবনা জেলা, রাজশাহী বিভাগ, বাংলাদেশ",,"চাটমোহর, ",['Chatmohar'],Chatmohar,বাংলাদেশ,রাজশাহী বিভাগ,local_admin,boundaries,['railway_station'],[],Bangladesh,Rajshahi,Pabna,Chatmohar,Mulgram,e6345c55b0683d8279f92a830220d826
2485,7066413724,893cf56960fffff,24.0430498,89.4052788,,"Pabna, Pabna District, Rajshahi Division, Bangladesh","পাবনা জেলা, রাজশাহী বিভাগ, বাংলাদেশ",,,,Pabna,বাংলাদেশ,রাজশাহী বিভাগ,local_admin,boundaries,['ford'],[],Bangladesh,Rajshahi,Pabna,Atgharia,Lakshmipur,070429d54417276c9569a34750223533
2527,5221600646,893cf548807ffff,24.1124921,89.0652125,Umirpur mosque,"Umirpur mosque, Iswardi, Pabna District, Rajshahi Division, Bangladesh","পাবনা জেলা, রাজশাহী বিভাগ, বাংলাদেশ","Umirpur mosque, ",,,Iswardi,বাংলাদেশ,রাজশাহী বিভাগ,local_admin,boundaries,['place_of_worship_muslim'],[],Bangladesh,Rajshahi,Pabna,Ishwardi,IshwardiPaurashava,37bb3c3966833860e900836c7ac4a750
2533,5221600654,893cf548d77ffff,24.1282827,89.0735819,Ishwardi Govt. College,"Ishwardi Govt. College, Iswardi, Pabna District, Rajshahi Division, Bangladesh","পাবনা জেলা, রাজশাহী বিভাগ, বাংলাদেশ","Ishwardi Govt. College, ",,,Iswardi,বাংলাদেশ,রাজশাহী বিভাগ,local_admin,boundaries,['educational_institution'],[],Bangladesh,Rajshahi,Pabna,Ishwardi,IshwardiPaurashava,37bb3c3966833860e900836c7ac4a750
2536,5221706475,893cf548897ffff,24.1230741,89.0597001,ঈশ্বরদী উপজেলা পরিষদ,"Iswardi, Pabna District, Rajshahi Division, Bangladesh","ঈশ্বরদী উপজেলা পরিষদ, পাবনা জেলা, রাজশাহী বিভাগ, বাংলাদেশ",,"ঈশ্বরদী উপজেলা পরিষদ, ",['Ishwardi Upozilla Complex'],Iswardi,বাংলাদেশ,রাজশাহী বিভাগ,local_admin,boundaries,['administrative'],[],Bangladesh,Rajshahi,Pabna,Ishwardi,IshwardiPaurashava,37bb3c3966833860e900836c7ac4a750
2541,5221726423,893cf548d57ffff,24.1307745,89.0643274,Ishwardi Bazar,"Ishwardi Bazar, Iswardi, Pabna District, Rajshahi Division, Bangladesh","পাবনা জেলা, রাজশাহী বিভাগ, বাংলাদেশ","Ishwardi Bazar, ",,['ইশ্বরদী বাজার'],Iswardi,বাংলাদেশ,রাজশাহী বিভাগ,local_admin,boundaries,['marketplace'],[],Bangladesh,Rajshahi,Pabna,Ishwardi,IshwardiPaurashava,37bb3c3966833860e900836c7ac4a750
2546,5221864487,893cf54a8cbffff,24.1612262,89.0236782,আসনা মাঠ,"Iswardi, Pabna District, Rajshahi Division, Bangladesh","আসনা মাঠ, পাবনা জেলা, রাজশাহী বিভাগ, বাংলাদেশ",,"আসনা মাঠ, ",,Iswardi,বাংলাদেশ,রাজশাহী বিভাগ,local_admin,boundaries,['playground'],[],Bangladesh,Rajshahi,Pabna,Ishwardi,Sara,871c285382873cc9f3e05c36547e89e8
2549,5221864488,893cf54a8cbffff,24.161959799999998,89.0240151,Asna Eidgah,"Asna Eidgah, Iswardi, Pabna District, Rajshahi Division, Bangladesh","পাবনা জেলা, রাজশাহী বিভাগ, বাংলাদেশ","Asna Eidgah, ",,,Iswardi,বাংলাদেশ,রাজশাহী বিভাগ,local_admin,boundaries,['place_of_worship_muslim'],[],Bangladesh,Rajshahi,Pabna,Ishwardi,Sara,871c285382873cc9f3e05c36547e89e8
2574,7455967018,893cf0a4dd7ffff,23.9726258,89.4866567,সাঁথিয়া রাজাপুর,"Sujanagar, Pabna District, Rajshahi Division, Bangladesh","সাঁথিয়া রাজাপুর, পাবনা জেলা, রাজশাহী বিভাগ, বাংলাদেশ",,"সাঁথিয়া রাজাপুর, ",,Sujanagar,বাংলাদেশ,রাজশাহী বিভাগ,local_admin,boundaries,['railway_station'],[],Bangladesh,Rajshahi,Pabna,Santhia,KhatuPara,5a6c7974f8839d42ec4cfdf488e749af
2578,7455967019,893cf0a44b7ffff,23.9749506,89.4094574,তাঁতীবন্দ,"Pabna, Pabna District, Rajshahi Division, Bangladesh","তাঁতীবন্দ, পাবনা জেলা, রাজশাহী বিভাগ, বাংলাদেশ",,"তাঁতীবন্দ, ",,Pabna,বাংলাদেশ,রাজশাহী বিভাগ,local_admin,boundaries,['railway_station'],[],Bangladesh,Rajshahi,Pabna,Sujanagar,Tantibanda,fe4d2c26a8718273305492fd6fdd60a0
2589,7520900160,893cf578d47ffff,24.2225472,89.4067895,শরৎনগর,"Bhangura, Pabna District, Rajshahi Division, Bangladesh","শরৎনগর, পাবনা জেলা, রাজশাহী বিভাগ, বাংলাদেশ",,"শরৎনগর, ",,Bhangura,বাংলাদেশ,রাজশাহী বিভাগ,local_admin,boundaries,['railway_station'],[],Bangladesh,Rajshahi,Pabna,Bhangura,Bhangura,f7a36ecd9d1957bd09030adbd5b9c338
2595,7520900161,893cf5633cfffff,24.241649,89.4518435,দিলপাশার,"Ullapara, Sirajganj District, Rajshahi Division, Bangladesh","দিলপাশার, সিরাজগঞ্জ জেলা, রাজশাহী বিভাগ, বাংলাদেশ",,"দিলপাশার, ",,Ullapara,বাংলাদেশ,রাজশাহী বিভাগ,local_admin,boundaries,['railway_station'],[],Bangladesh,Rajshahi,Pabna,Bhangura,DilPasar,99c25b77fa58a66858e75f8fff35df5b
2633,5406488402,893cf578c57ffff,24.2192014,89.3813027,কামাল ডেন্টাল,"Bhangura, Pabna District, Rajshahi Division, Bangladesh","কামাল ডেন্টাল, পাবনা জেলা, রাজশাহী বিভাগ, বাংলাদেশ",,"কামাল ডেন্টাল, ",,Bhangura,বাংলাদেশ,রাজশাহী বিভাগ,local_admin,boundaries,['dentist'],[],Bangladesh,Rajshahi,Pabna,Bhangura,BhanguraPaurashava,37b836593fa0e0450ba02b40588a67e0
2644,5406495099,893cf578c57ffff,24.2175529,89.3810272,,"Bhangura, Pabna District, Rajshahi Division, Bangladesh","পাবনা জেলা, রাজশাহী বিভাগ, বাংলাদেশ",,,,Bhangura,বাংলাদেশ,রাজশাহী বিভাগ,local_admin,boundaries,['atm'],[],Bangladesh,Rajshahi,Pabna,Bhangura,BhanguraPaurashava,37b836593fa0e0450ba02b40588a67e0
2736,5680850751,893cf5489cbffff,24.1151616,89.0784721,,"Iswardi, Pabna District, Rajshahi Division, Bangladesh","পাবনা জেলা, রাজশাহী বিভাগ, বাংলাদেশ",,,,Iswardi,বাংলাদেশ,রাজশাহী বিভাগ,local_admin,boundaries,['gate'],[],Bangladesh,Rajshahi,Pabna,Ishwardi,IshwardiPaurashava,37bb3c3966833860e900836c7ac4a750
2739,5680850753,893cf5489cfffff,24.1159017,89.080997,,"Iswardi, Pabna District, Rajshahi Division, Bangladesh","পাবনা জেলা, রাজশাহী বিভাগ, বাংলাদেশ",,,,Iswardi,বাংলাদেশ,রাজশাহী বিভাগ,local_admin,boundaries,['gate'],[],Bangladesh,Rajshahi,Pabna,Ishwardi,IshwardiPaurashava,37bb3c3966833860e900836c7ac4a750
2743,5680885450,893cf5489cbffff,24.1148335,89.0780159,,"Iswardi, Pabna District, Rajshahi Division, Bangladesh","পাবনা জেলা, রাজশাহী বিভাগ, বাংলাদেশ",,,,Iswardi,বাংলাদেশ,রাজশাহী বিভাগ,local_admin,boundaries,['gate'],[],Bangladesh,Rajshahi,Pabna,Ishwardi,IshwardiPaurashava,37bb3c3966833860e900836c7ac4a750
2747,5680885451,893cf548953ffff,24.1148373,89.0783586,,"Iswardi, Pabna District, Rajshahi Division, Bangladesh","পাবনা জেলা, রাজশাহী বিভাগ, বাংলাদেশ",,,,Iswardi,বাংলাদেশ,রাজশাহী বিভাগ,local_admin,boundaries,['gate'],[],Bangladesh,Rajshahi,Pabna,Ishwardi,IshwardiPaurashava,37bb3c3966833860e900836c7ac4a750
2751,5680885452,893cf548947ffff,24.1121374,89.086579,,"Iswardi, Pabna District, Rajshahi Division, Bangladesh","পাবনা জেলা, রাজশাহী বিভাগ, বাংলাদেশ",,,,Iswardi,বাংলাদেশ,রাজশাহী বিভাগ,local_admin,boundaries,['gate'],[],Bangladesh,Rajshahi,Pabna,Ishwardi,IshwardiPaurashava,37bb3c3966833860e900836c7ac4a750
2754,3390010377,893cf0b542fffff,24.0172407,89.2505589,Talbagan Jame Masjid,"Talbagan Jame Masjid, Pabna, Pabna District, Rajshahi Division, Bangladesh","পাবনা জেলা, রাজশাহী বিভাগ, বাংলাদেশ","Talbagan Jame Masjid, ",,,Pabna,বাংলাদেশ,রাজশাহী বিভাগ,local_admin,boundaries,['place_of_worship_muslim'],[],Bangladesh,Rajshahi,Pabna,PabnaSadar,PabnaPaurashava,d0c366c89802ae607abc497eea7e0e06
2755,5719238164,893cf5489cbffff,24.1168985,89.0760407,,"Iswardi, Pabna District, Rajshahi Division, Bangladesh","পাবনা জেলা, রাজশাহী বিভাগ, বাংলাদেশ",,,,Iswardi,বাংলাদেশ,রাজশাহী বিভাগ,local_admin,boundaries,['gate'],[],Bangladesh,Rajshahi,Pabna,Ishwardi,IshwardiPaurashava,37bb3c3966833860e900836c7ac4a750
2760,5719631091,893cf5489c3ffff,24.1191695,89.0766066,,"Iswardi, Pabna District, Rajshahi Division, Bangladesh","পাবনা জেলা, রাজশাহী বিভাগ, বাংলাদেশ",,,,Iswardi,বাংলাদেশ,রাজশাহী বিভাগ,local_admin,boundaries,['helipad'],[],Bangladesh,Rajshahi,Pabna,Ishwardi,IshwardiPaurashava,37bb3c3966833860e900836c7ac4a750
2765,5719892572,893cf548907ffff,24.1186518,89.0904397,,"Iswardi, Pabna District, Rajshahi Division, Bangladesh","পাবনা জেলা, রাজশাহী বিভাগ, বাংলাদেশ",,,,Iswardi,বাংলাদেশ,রাজশাহী বিভাগ,local_admin,boundaries,['gate'],[],Bangladesh,Rajshahi,Pabna,Ishwardi,Muladuli,4cdfec87dbdfba0322cb081daa08a3fe
2773,5719892573,893cf54890fffff,24.1184446,89.08938,,"Iswardi, Pabna District, Rajshahi Division, Bangladesh","পাবনা জেলা, রাজশাহী বিভাগ, বাংলাদেশ",,,,Iswardi,বাংলাদেশ,রাজশাহী বিভাগ,local_admin,boundaries,['gate'],[],Bangladesh,Rajshahi,Pabna,Ishwardi,Muladuli,4cdfec87dbdfba0322cb081daa08a3fe
2778,5719933190,893cf5489cfffff,24.1165341,89.0819476,,"Iswardi, Pabna District, Rajshahi Division, Bangladesh","পাবনা জেলা, রাজশাহী বিভাগ, বাংলাদেশ",,,,Iswardi,বাংলাদেশ,রাজশাহী বিভাগ,local_admin,boundaries,['gate'],[],Bangladesh,Rajshahi,Pabna,Ishwardi,IshwardiPaurashava,37bb3c3966833860e900836c7ac4a750
2779,5719985849,893cf5489cfffff,24.1152134,89.0808767,,"Iswardi, Pabna District, Rajshahi Division, Bangladesh","পাবনা জেলা, রাজশাহী বিভাগ, বাংলাদেশ",,,,Iswardi,বাংলাদেশ,রাজশাহী বিভাগ,local_admin,boundaries,['bank'],[],Bangladesh,Rajshahi,Pabna,Ishwardi,IshwardiPaurashava,37bb3c3966833860e900836c7ac4a750
2780,3687334689,893cf0b7403ffff,24.0715846,89.2078476,"Tebunia, Pabna","Tebunia Pabna, Pabna, Pabna District, Rajshahi Division, Bangladesh","পাবনা জেলা, রাজশাহী বিভাগ, বাংলাদেশ",Tebunia Pabna,,,Pabna,বাংলাদেশ,রাজশাহী বিভাগ,street,boundaries,['bus_stop'],[],Bangladesh,Rajshahi,Pabna,PabnaSadar,Maligachha,d610de28093686b458eb8d45ff536fb5
2786,5719985850,893cf548953ffff,24.1151473,89.0807962,,"Iswardi, Pabna District, Rajshahi Division, Bangladesh","পাবনা জেলা, রাজশাহী বিভাগ, বাংলাদেশ",,,,Iswardi,বাংলাদেশ,রাজশাহী বিভাগ,local_admin,boundaries,['doctors'],[],Bangladesh,Rajshahi,Pabna,Ishwardi,IshwardiPaurashava,37bb3c3966833860e900836c7ac4a750
2788,5720919709,893cf548903ffff,24.1178048,89.0868611,,"Iswardi, Pabna District, Rajshahi Division, Bangladesh","পাবনা জেলা, রাজশাহী বিভাগ, বাংলাদেশ",,,,Iswardi,বাংলাদেশ,রাজশাহী বিভাগ,local_admin,boundaries,['gate'],[],Bangladesh,Rajshahi,Pabna,Ishwardi,IshwardiPaurashava,37bb3c3966833860e900836c7ac4a750
2942,4123891142,893cf0b547bffff,24.0117263,89.2383519,College Gate,"College Gate, Pabna, Pabna District, Rajshahi Division, Bangladesh","পাবনা জেলা, রাজশাহী বিভাগ, বাংলাদেশ",College Gate,,,Pabna,বাংলাদেশ,রাজশাহী বিভাগ,street,boundaries,['bus_stop'],[],Bangladesh,Rajshahi,Pabna,PabnaSadar,PabnaPaurashava,d0c366c89802ae607abc497eea7e0e06
2946,4123891215,893cf0b5457ffff,24.016278,89.234637,মক্তব মোড়,"Pabna, Pabna District, Rajshahi Division, Bangladesh","মক্তব মোড়, পাবনা জেলা, রাজশাহী বিভাগ, বাংলাদেশ",,মক্তব মোড়,,Pabna,বাংলাদেশ,রাজশাহী বিভাগ,street,boundaries,['bus_stop'],[],Bangladesh,Rajshahi,Pabna,PabnaSadar,PabnaPaurashava,d0c366c89802ae607abc497eea7e0e06
2956,4123891247,893cf0b541bffff,24.0183087,89.2351984,হাজির মোড়,"Pabna, Pabna District, Rajshahi Division, Bangladesh","হাজির মোড়, পাবনা জেলা, রাজশাহী বিভাগ, বাংলাদেশ",,হাজির মোড়,,Pabna,বাংলাদেশ,রাজশাহী বিভাগ,street,boundaries,['bus_stop'],[],Bangladesh,Rajshahi,Pabna,PabnaSadar,PabnaPaurashava,d0c366c89802ae607abc497eea7e0e06
2965,4123906916,893cf0b54afffff,24.0252958,89.246664,সিংগা,"Pabna, Pabna District, Rajshahi Division, Bangladesh","সিংগা, পাবনা জেলা, রাজশাহী বিভাগ, বাংলাদেশ",,সিংগা,,Pabna,বাংলাদেশ,রাজশাহী বিভাগ,street,boundaries,['bus_stop'],[],Bangladesh,Rajshahi,Pabna,PabnaSadar,Malanchi,f25ac42171f7f861ff8af6b8b6e401d1
3012,4370144273,893cf0b5427ffff,24.0193736,89.2519145,Assort CNG Refueling Station,"Assort CNG Refueling Station, Pabna, Pabna District, Rajshahi Division, Bangladesh","পাবনা জেলা, রাজশাহী বিভাগ, বাংলাদেশ","Assort CNG Refueling Station, ",,,Pabna,বাংলাদেশ,রাজশাহী বিভাগ,local_admin,boundaries,['fuel'],[],Bangladesh,Rajshahi,Pabna,PabnaSadar,PabnaPaurashava,d0c366c89802ae607abc497eea7e0e06
3024,4384864026,893cf0b56a3ffff,24.0050276,89.2372113,KFC,"KFC, Pabna, Pabna District, Rajshahi Division, Bangladesh","পাবনা জেলা, রাজশাহী বিভাগ, বাংলাদেশ","KFC, ",,,Pabna,বাংলাদেশ,রাজশাহী বিভাগ,local_admin,boundaries,['fast_food'],[],Bangladesh,Rajshahi,Pabna,PabnaSadar,PabnaPaurashava,d0c366c89802ae607abc497eea7e0e06
3029,7210985485,893cf548d4bffff,24.1234858,89.0647675,,"Iswardi, Pabna District, Rajshahi Division, Bangladesh","পাবনা জেলা, রাজশাহী বিভাগ, বাংলাদেশ",,,['Food Garden'],Iswardi,বাংলাদেশ,রাজশাহী বিভাগ,local_admin,boundaries,['internet_cafe'],[],Bangladesh,Rajshahi,Pabna,Ishwardi,IshwardiPaurashava,37bb3c3966833860e900836c7ac4a750
3032,4384867539,893cf0b56bbffff,24.004029,89.2355569,Masraanga Television,"Masraanga Television, Pabna, Pabna District, Rajshahi Division, Bangladesh","পাবনা জেলা, রাজশাহী বিভাগ, বাংলাদেশ","Masraanga Television, ",,,Pabna,বাংলাদেশ,রাজশাহী বিভাগ,local_admin,boundaries,['studio'],[],Bangladesh,Rajshahi,Pabna,PabnaSadar,PabnaPaurashava,d0c366c89802ae607abc497eea7e0e06
3074,7328867755,893cf56d343ffff,24.0762039,89.6096288,Bera C&B Bus stop,"Bera C&B Bus stop, Santhia, Pabna District, Rajshahi Division, Bangladesh","পাবনা জেলা, রাজশাহী বিভাগ, বাংলাদেশ",Bera C&B Bus stop,,,Santhia,বাংলাদেশ,রাজশাহী বিভাগ,street,boundaries,['bus_stop'],[],Bangladesh,Rajshahi,Pabna,Bera,BeraPaurashava,5a3313b78a62849bf2656f5c8a21feee
3111,7418824195,893cf1d2d87ffff,24.0781943,89.632771,Kawsar Teaching House,"Kawsar Teaching House, Shomvupur, Bera, Pabna District, Rajshahi Division, Bangladesh","পাবনা জেলা, রাজশাহী বিভাগ, বাংলাদেশ","Kawsar Teaching House, ",,,Bera,বাংলাদেশ,রাজশাহী বিভাগ,locality,boundaries,['educational_institution'],[],Bangladesh,Rajshahi,Pabna,Bera,BeraPaurashava,5a3313b78a62849bf2656f5c8a21feee
3115,7419013095,893cf1d2db3ffff,24.0796808,89.6351706,সম্ভুপুর বায়তুল মা’মুর জামে মসজিদ,"Shomvupur, Bera, Pabna District, Rajshahi Division, Bangladesh","সম্ভুপুর বায়তুল মা’মুর জামে মসজিদ, পাবনা জেলা, রাজশাহী বিভাগ, বাংলাদেশ",,"সম্ভুপুর বায়তুল মা’মুর জামে মসজিদ, ",,Bera,বাংলাদেশ,রাজশাহী বিভাগ,locality,boundaries,['place_of_worship_muslim'],[],Bangladesh,Rajshahi,Pabna,Bera,BeraPaurashava,5a3313b78a62849bf2656f5c8a21feee
3120,7419095902,893cf1d2d97ffff,24.0802601,89.6288784,মাসজিদুল মুসআব ইবনে উমাইর (রাঃ),"Bera, Pabna District, Rajshahi Division, Bangladesh","মাসজিদুল মুসআব ইবনে উমাইর রাঃ, পাবনা জেলা, রাজশাহী বিভাগ, বাংলাদেশ",,"মাসজিদুল মুসআব ইবনে উমাইর রাঃ, ",,Bera,বাংলাদেশ,রাজশাহী বিভাগ,local_admin,boundaries,['place_of_worship_muslim'],[],Bangladesh,Rajshahi,Pabna,Bera,BeraPaurashava,5a3313b78a62849bf2656f5c8a21feee
3126,7419130067,893cf56de5bffff,24.0822032,89.6296968,বেড়া পশু হাসপাতাল,"Bera, Pabna District, Rajshahi Division, Bangladesh","বেড়া পশু হাসপাতাল, পাবনা জেলা, রাজশাহী বিভাগ, বাংলাদেশ",,"বেড়া পশু হাসপাতাল, ",,Bera,বাংলাদেশ,রাজশাহী বিভাগ,local_admin,boundaries,['veterinary'],[],Bangladesh,Rajshahi,Pabna,Bera,BeraPaurashava,5a3313b78a62849bf2656f5c8a21feee
3135,7419185407,893cf1d2d97ffff,24.0820494,89.6298713,থানা পাড়া জামে মসজিদ,"Bera, Pabna District, Rajshahi Division, Bangladesh","থানা পাড়া জামে মসজিদ, পাবনা জেলা, রাজশাহী বিভাগ, বাংলাদেশ",,"থানা পাড়া জামে মসজিদ, ",,Bera,বাংলাদেশ,রাজশাহী বিভাগ,local_admin,boundaries,['place_of_worship_muslim'],[],Bangladesh,Rajshahi,Pabna,Bera,BeraPaurashava,5a3313b78a62849bf2656f5c8a21feee
3139,7419659676,893cf1d2d93ffff,24.0803082,89.6258405,Bera Girls High School,"Bera Girls High School, Bera, Pabna District, Rajshahi Division, Bangladesh","পাবনা জেলা, রাজশাহী বিভাগ, বাংলাদেশ","Bera Girls High School, ",,,Bera,বাংলাদেশ,রাজশাহী বিভাগ,local_admin,boundaries,['educational_institution'],[],Bangladesh,Rajshahi,Pabna,Bera,BeraPaurashava,5a3313b78a62849bf2656f5c8a21feee
3148,9007681017,893cf0b2413ffff,24.0787119,89.0722305,,"Iswardi, Pabna District, Rajshahi Division, Bangladesh","পাবনা জেলা, রাজশাহী বিভাগ, বাংলাদেশ",,,,Iswardi,বাংলাদেশ,রাজশাহী বিভাগ,local_admin,boundaries,['pet'],[],Bangladesh,Rajshahi,Pabna,Ishwardi,Sahapur,f4a16057faf88d5822db31ed194c2ba4
3149,7444364883,893cf56d33bffff,24.0824024,89.6218704,Chowdhury Gift Corner,"Chowdhury Gift Corner, Bera, Pabna District, Rajshahi Division, Bangladesh","পাবনা জেলা, রাজশাহী বিভাগ, বাংলাদেশ","Chowdhury Gift Corner, ",,,Bera,বাংলাদেশ,রাজশাহী বিভাগ,local_admin,boundaries,['department_store'],[],Bangladesh,Rajshahi,Pabna,Bera,BeraPaurashava,5a3313b78a62849bf2656f5c8a21feee
3153,7444373550,893cf56d32bffff,24.0824052,89.622995,Chowdhury Bajaj Corner,"Chowdhury Bajaj Corner, Bera, Pabna District, Rajshahi Division, Bangladesh","পাবনা জেলা, রাজশাহী বিভাগ, বাংলাদেশ","Chowdhury Bajaj Corner, ",,,Bera,বাংলাদেশ,রাজশাহী বিভাগ,local_admin,boundaries,['motorcycle'],[],Bangladesh,Rajshahi,Pabna,Bera,BeraPaurashava,5a3313b78a62849bf2656f5c8a21feee
3157,7444393897,893cf56d32bffff,24.0824695,89.6229521,Islami Agent Bank Bangldesh Ltd.,"Islami Agent Bank Bangldesh Ltd., Bera, Pabna District, Rajshahi Division, Bangladesh","পাবনা জেলা, রাজশাহী বিভাগ, বাংলাদেশ","Islami Agent Bank Bangldesh Ltd., ",,,Bera,বাংলাদেশ,রাজশাহী বিভাগ,local_admin,boundaries,['bank'],[],Bangladesh,Rajshahi,Pabna,Bera,BeraPaurashava,5a3313b78a62849bf2656f5c8a21feee
3162,7444398181,893cf56d32bffff,24.0823508,89.6225846,Janata Bank Bangldesh Ltd.,"Janata Bank Bangldesh Ltd., Bera, Pabna District, Rajshahi Division, Bangladesh","পাবনা জেলা, রাজশাহী বিভাগ, বাংলাদেশ","Janata Bank Bangldesh Ltd., ",,,Bera,বাংলাদেশ,রাজশাহী বিভাগ,local_admin,boundaries,['bank'],[],Bangladesh,Rajshahi,Pabna,Bera,BeraPaurashava,5a3313b78a62849bf2656f5c8a21feee
3167,7444403353,893cf56d32bffff,24.0824748,89.6230853,আনসার ভিডিপি উন্নয়ন ব্যাংক,"Bera, Pabna District, Rajshahi Division, Bangladesh","আনসার ভিডিপি উন্নয়ন ব্যাংক, পাবনা জেলা, রাজশাহী বিভাগ, বাংলাদেশ",,"আনসার ভিডিপি উন্নয়ন ব্যাংক, ",,Bera,বাংলাদেশ,রাজশাহী বিভাগ,local_admin,boundaries,['bank'],[],Bangladesh,Rajshahi,Pabna,Bera,BeraPaurashava,5a3313b78a62849bf2656f5c8a21feee
3172,7444405921,893cf56d32bffff,24.0823202,89.622902,Regal Furniture,"Regal Furniture, Bera, Pabna District, Rajshahi Division, Bangladesh","পাবনা জেলা, রাজশাহী বিভাগ, বাংলাদেশ","Regal Furniture, ",,,Bera,বাংলাদেশ,রাজশাহী বিভাগ,local_admin,boundaries,['furniture'],[],Bangladesh,Rajshahi,Pabna,Bera,BeraPaurashava,5a3313b78a62849bf2656f5c8a21feee
3177,7444408187,893cf56d32bffff,24.0823042,89.6229382,Rupali Bank Bangladesh Ltd.,"Rupali Bank Bangladesh Ltd., Bera, Pabna District, Rajshahi Division, Bangladesh","পাবনা জেলা, রাজশাহী বিভাগ, বাংলাদেশ","Rupali Bank Bangladesh Ltd., ",,,Bera,বাংলাদেশ,রাজশাহী বিভাগ,local_admin,boundaries,['bank'],[],Bangladesh,Rajshahi,Pabna,Bera,BeraPaurashava,5a3313b78a62849bf2656f5c8a21feee
3179,9530720978,893cf548847ffff,24.1069606,89.0620465,উত্তর বাঘইল মডেল ঈদগাহ,"Iswardi, Pabna District, Rajshahi Division, Bangladesh","উত্তর বাঘইল মডেল ঈদগাহ, পাবনা জেলা, রাজশাহী বিভাগ, বাংলাদেশ",,"উত্তর বাঘইল মডেল ঈদগাহ, ",,Iswardi,বাংলাদেশ,রাজশাহী বিভাগ,local_admin,boundaries,['place_of_worship_muslim'],[],Bangladesh,Rajshahi,Pabna,Ishwardi,Pakshi,f3250eb5f2401af65568934e50d36c20
3182,7444428576,893cf56d32bffff,24.0823299,89.622833,Vigo Electronics,"Vigo Electronics, Bera, Pabna District, Rajshahi Division, Bangladesh","পাবনা জেলা, রাজশাহী বিভাগ, বাংলাদেশ","Vigo Electronics, ",,,Bera,বাংলাদেশ,রাজশাহী বিভাগ,local_admin,boundaries,['electronics'],[],Bangladesh,Rajshahi,Pabna,Bera,BeraPaurashava,5a3313b78a62849bf2656f5c8a21feee
3187,7444500336,893cf56d32fffff,24.0820874,89.62676,Bera Town Club,"Bera Town Club, Bera, Pabna District, Rajshahi Division, Bangladesh","পাবনা জেলা, রাজশাহী বিভাগ, বাংলাদেশ","Bera Town Club, ",,,Bera,বাংলাদেশ,রাজশাহী বিভাগ,local_admin,boundaries,['club_sport'],[],Bangladesh,Rajshahi,Pabna,Bera,BeraPaurashava,5a3313b78a62849bf2656f5c8a21feee
3191,7444507865,893cf56d32fffff,24.0815525,89.6287351,Bera High Government Primary School,"Bera High Government Primary School, Bera, Pabna District, Rajshahi Division, Bangladesh","পাবনা জেলা, রাজশাহী বিভাগ, বাংলাদেশ","Bera High Government Primary School, ",,,Bera,বাংলাদেশ,রাজশাহী বিভাগ,local_admin,boundaries,['educational_institution'],[],Bangladesh,Rajshahi,Pabna,Bera,BeraPaurashava,5a3313b78a62849bf2656f5c8a21feee
3195,7444529053,893cf56de5bffff,24.0819393,89.6312751,Bera Thana Mosque,"Bera Thana Mosque, Bera, Pabna District, Rajshahi Division, Bangladesh","পাবনা জেলা, রাজশাহী বিভাগ, বাংলাদেশ","Bera Thana Mosque, ",,,Bera,বাংলাদেশ,রাজশাহী বিভাগ,local_admin,boundaries,['place_of_worship_muslim'],[],Bangladesh,Rajshahi,Pabna,Bera,BeraPaurashava,5a3313b78a62849bf2656f5c8a21feee
3196,872033254,893cf0b1193ffff,23.97428309,89.10546666,Residence Inn,"Residence Inn, Iswardi, Pabna District, Rajshahi Division, Bangladesh","পাবনা জেলা, রাজশাহী বিভাগ, বাংলাদেশ","Residence Inn, ",,,Iswardi,বাংলাদেশ,রাজশাহী বিভাগ,local_admin,boundaries,['hotel'],[],Bangladesh,Rajshahi,Pabna,Ishwardi,Lakshmikundi,6de4a62b3646d0575b8ff505e7afe7d5
3199,7444540826,893cf1d2d97ffff,24.0803613,89.6318042,Anis Pharmacy,"Anis Pharmacy, Bera, Pabna District, Rajshahi Division, Bangladesh","পাবনা জেলা, রাজশাহী বিভাগ, বাংলাদেশ","Anis Pharmacy, ",,,Bera,বাংলাদেশ,রাজশাহী বিভাগ,local_admin,boundaries,['pharmacy'],[],Bangladesh,Rajshahi,Pabna,Bera,BeraPaurashava,5a3313b78a62849bf2656f5c8a21feee
3203,7452380229,893cf56d363ffff,24.0777325,89.6189847,Fakir Plaza,"Fakir Plaza, Bera, Pabna District, Rajshahi Division, Bangladesh","পাবনা জেলা, রাজশাহী বিভাগ, বাংলাদেশ","Fakir Plaza, ",,,Bera,বাংলাদেশ,রাজশাহী বিভাগ,local_admin,boundaries,['supermarket'],[],Bangladesh,Rajshahi,Pabna,Bera,BeraPaurashava,5a3313b78a62849bf2656f5c8a21feee
3212,7452449356,893cf1d2d83ffff,24.077574,89.6306557,নতুনপাড়া পূর্বপাড়া জামে মসজিদ,"Bera, Pabna District, Rajshahi Division, Bangladesh","নতুনপাড়া পূর্বপাড়া জামে মসজিদ, পাবনা জেলা, রাজশাহী বিভাগ, বাংলাদেশ",,"নতুনপাড়া পূর্বপাড়া জামে মসজিদ, ",,Bera,বাংলাদেশ,রাজশাহী বিভাগ,local_admin,boundaries,['place_of_worship_muslim'],[],Bangladesh,Rajshahi,Pabna,Bera,BeraPaurashava,5a3313b78a62849bf2656f5c8a21feee
3219,7452482650,893cf1d2d93ffff,24.0787002,89.6276687,নতুনপাড়া পশ্চিমপাড়া জামে মসজিদ,"Bera, Pabna District, Rajshahi Division, Bangladesh","নতুনপাড়া পশ্চিমপাড়া জামে মসজিদ, পাবনা জেলা, রাজশাহী বিভাগ, বাংলাদেশ",,"নতুনপাড়া পশ্চিমপাড়া জামে মসজিদ, ",,Bera,বাংলাদেশ,রাজশাহী বিভাগ,local_admin,boundaries,['place_of_worship_muslim'],[],Bangladesh,Rajshahi,Pabna,Bera,BeraPaurashava,5a3313b78a62849bf2656f5c8a21feee
3224,7452500685,893cf1d2d87ffff,24.0779283,89.6325706,পিন্টু আহমেদ কেজি স্কুল,"Bera, Pabna District, Rajshahi Division, Bangladesh","পিন্টু আহমেদ কেজি স্কুল, পাবনা জেলা, রাজশাহী বিভাগ, বাংলাদেশ",,"পিন্টু আহমেদ কেজি স্কুল, ",,Bera,বাংলাদেশ,রাজশাহী বিভাগ,local_admin,boundaries,['educational_institution'],[],Bangladesh,Rajshahi,Pabna,Bera,BeraPaurashava,5a3313b78a62849bf2656f5c8a21feee
3235,7452500686,893cf1d2d87ffff,24.0783373,89.6325732,Ibrahim Store,"Ibrahim Store, Shomvupur, Bera, Pabna District, Rajshahi Division, Bangladesh","পাবনা জেলা, রাজশাহী বিভাগ, বাংলাদেশ","Ibrahim Store, ",,,Bera,বাংলাদেশ,রাজশাহী বিভাগ,locality,boundaries,['supermarket'],[],Bangladesh,Rajshahi,Pabna,Bera,BeraPaurashava,5a3313b78a62849bf2656f5c8a21feee
3243,7452504895,893cf1d2d87ffff,24.0787193,89.6325394,Abdul Momin Store,"Abdul Momin Store, Shomvupur, Bera, Pabna District, Rajshahi Division, Bangladesh","পাবনা জেলা, রাজশাহী বিভাগ, বাংলাদেশ","Abdul Momin Store, ",,,Bera,বাংলাদেশ,রাজশাহী বিভাগ,locality,boundaries,['supermarket'],[],Bangladesh,Rajshahi,Pabna,Bera,BeraPaurashava,5a3313b78a62849bf2656f5c8a21feee
3244,928265217,893cf0b2d23ffff,24.08036518,89.17386929,Islam Ganti High School,"Islam Ganti High School, Pabna, Pabna District, Rajshahi Division, Bangladesh","পাবনা জেলা, রাজশাহী বিভাগ, বাংলাদেশ","Islam Ganti High School, ",,,Pabna,বাংলাদেশ,রাজশাহী বিভাগ,local_admin,boundaries,['educational_institution'],[],Bangladesh,Rajshahi,Pabna,PabnaSadar,Dapunia,4d34919d579fe5a9f742515c3004db55
3250,7452517497,893cf56de4bffff,24.0803718,89.6324578,Shahin Store,"Shahin Store, Bera, Pabna District, Rajshahi Division, Bangladesh","পাবনা জেলা, রাজশাহী বিভাগ, বাংলাদেশ","Shahin Store, ",,,Bera,বাংলাদেশ,রাজশাহী বিভাগ,local_admin,boundaries,['supermarket'],[],Bangladesh,Rajshahi,Pabna,Bera,BeraPaurashava,5a3313b78a62849bf2656f5c8a21feee
3254,7452518302,893cf56de4bffff,24.0803571,89.6323478,Tasin Hosiery,"Tasin Hosiery, Bera, Pabna District, Rajshahi Division, Bangladesh","পাবনা জেলা, রাজশাহী বিভাগ, বাংলাদেশ","Tasin Hosiery, ",,,Bera,বাংলাদেশ,রাজশাহী বিভাগ,local_admin,boundaries,['clothes'],[],Bangladesh,Rajshahi,Pabna,Bera,BeraPaurashava,5a3313b78a62849bf2656f5c8a21feee
3263,7452548371,893cf56de4bffff,24.080362,89.6327207,Bismillah Pharmacy,"Bismillah Pharmacy, Bera, Pabna District, Rajshahi Division, Bangladesh","পাবনা জেলা, রাজশাহী বিভাগ, বাংলাদেশ","Bismillah Pharmacy, ",,,Bera,বাংলাদেশ,রাজশাহী বিভাগ,local_admin,boundaries,['pharmacy'],[],Bangladesh,Rajshahi,Pabna,Bera,BeraPaurashava,5a3313b78a62849bf2656f5c8a21feee
3269,7452645390,893cf56de4bffff,24.080364,89.6329829,Dr. Abdul Baki,"Dr. Abdul Baki, Bera, Pabna District, Rajshahi Division, Bangladesh","পাবনা জেলা, রাজশাহী বিভাগ, বাংলাদেশ","Dr. Abdul Baki, ",,,Bera,বাংলাদেশ,রাজশাহী বিভাগ,local_admin,boundaries,['doctors'],[],Bangladesh,Rajshahi,Pabna,Bera,BeraPaurashava,5a3313b78a62849bf2656f5c8a21feee
3275,7452702438,893cf56de4bffff,24.0801938,89.6334284,"সাব রেজিস্ট্রার অফিস, বেড়া","Shomvupur, Bera, Pabna District, Rajshahi Division, Bangladesh","সাব রেজিস্ট্রার অফিস বেড়া, পাবনা জেলা, রাজশাহী বিভাগ, বাংলাদেশ",,"সাব রেজিস্ট্রার অফিস বেড়া, ",,Bera,বাংলাদেশ,রাজশাহী বিভাগ,locality,boundaries,['government'],[],Bangladesh,Rajshahi,Pabna,Bera,BeraPaurashava,5a3313b78a62849bf2656f5c8a21feee
3286,7455967013,893cf1c10cbffff,23.8348143,89.6712619,ঢালারচর,"Bera, Pabna District, Rajshahi Division, Bangladesh","ঢালারচর, পাবনা জেলা, রাজশাহী বিভাগ, বাংলাদেশ",,"ঢালারচর, ",,Bera,বাংলাদেশ,রাজশাহী বিভাগ,local_admin,boundaries,['railway_station'],[],Bangladesh,Rajshahi,Pabna,Bera,DhalarChar,cd63d924fd163f7142aaf6bddbf008e8
3295,7455967015,893cf1c346bffff,23.8974413,89.6368003,বাঁধেরহাট,"Bera, Pabna District, Rajshahi Division, Bangladesh","বাঁধেরহাট, পাবনা জেলা, রাজশাহী বিভাগ, বাংলাদেশ",,"বাঁধেরহাট, ",,Bera,বাংলাদেশ,রাজশাহী বিভাগ,local_admin,boundaries,['railway_station'],[],Bangladesh,Rajshahi,Pabna,Bera,Ruppur,2c20f89780386b27db1350f47667d785
3300,7462517623,893cf1d2db3ffff,24.0801184,89.6347029,Al Amin Store,"Al Amin Store, Bera, Pabna District, Rajshahi Division, Bangladesh","পাবনা জেলা, রাজশাহী বিভাগ, বাংলাদেশ","Al Amin Store, ",,,Bera,বাংলাদেশ,রাজশাহী বিভাগ,local_admin,boundaries,['mobile_phone'],[],Bangladesh,Rajshahi,Pabna,Bera,BeraPaurashava,5a3313b78a62849bf2656f5c8a21feee
3324,7462537455,893cf56de4bffff,24.0803707,89.6330569,বেড়া দলীল লেখক সমিতি,"Bera, Pabna District, Rajshahi Division, Bangladesh","বেড়া দলীল লেখক সমিতি, পাবনা জেলা, রাজশাহী বিভাগ, বাংলাদেশ",,"বেড়া দলীল লেখক সমিতি, ",,Bera,বাংলাদেশ,রাজশাহী বিভাগ,local_admin,boundaries,['government'],[],Bangladesh,Rajshahi,Pabna,Bera,BeraPaurashava,5a3313b78a62849bf2656f5c8a21feee
3326,7462573830,893cf56de4bffff,24.080143,89.6337803,ঝাউবন সুইটস এন্ড রেস্টুরেন্ট,"Shomvupur, Bera, Pabna District, Rajshahi Division, Bangladesh","ঝাউবন সুইটস এন্ড রেস্টুরেন্ট, পাবনা জেলা, রাজশাহী বিভাগ, বাংলাদেশ",,"ঝাউবন সুইটস এন্ড রেস্টুরেন্ট, ",,Bera,বাংলাদেশ,রাজশাহী বিভাগ,locality,boundaries,['restaurant'],[],Bangladesh,Rajshahi,Pabna,Bera,BeraPaurashava,5a3313b78a62849bf2656f5c8a21feee
3338,7462583831,893cf56de4bffff,24.0801221,89.633846,Murad Store,"Murad Store, Shomvupur, Bera, Pabna District, Rajshahi Division, Bangladesh","পাবনা জেলা, রাজশাহী বিভাগ, বাংলাদেশ","Murad Store, ",,,Bera,বাংলাদেশ,রাজশাহী বিভাগ,locality,boundaries,['cosmetics'],[],Bangladesh,Rajshahi,Pabna,Bera,BeraPaurashava,5a3313b78a62849bf2656f5c8a21feee
3345,7462593543,893cf56de5bffff,24.0820357,89.6303297,Bera Circle Office,"Bera Circle Office, Bera, Pabna District, Rajshahi Division, Bangladesh","পাবনা জেলা, রাজশাহী বিভাগ, বাংলাদেশ","Bera Circle Office, ",,['বেড়া সার্কেল অফিস'],Bera,বাংলাদেশ,রাজশাহী বিভাগ,local_admin,boundaries,['police'],[],Bangladesh,Rajshahi,Pabna,Bera,BeraPaurashava,5a3313b78a62849bf2656f5c8a21feee
3354,7462663302,893cf56d33bffff,24.0824807,89.6215832,বাগানবাড়ি সুইটস এন্ড রেস্টুরেন্ট,"Bera, Pabna District, Rajshahi Division, Bangladesh","বাগানবাড়ি সুইটস এন্ড রেস্টুরেন্ট, পাবনা জেলা, রাজশাহী বিভাগ, বাংলাদেশ",,"বাগানবাড়ি সুইটস এন্ড রেস্টুরেন্ট, ",,Bera,বাংলাদেশ,রাজশাহী বিভাগ,local_admin,boundaries,['restaurant'],[],Bangladesh,Rajshahi,Pabna,Bera,BeraPaurashava,5a3313b78a62849bf2656f5c8a21feee
3360,7462690644,893cf56d33bffff,24.0825539,89.6207068,Bera Post Office,"Bera Post Office, Bera, Pabna District, Rajshahi Division, Bangladesh","পাবনা জেলা, রাজশাহী বিভাগ, বাংলাদেশ","Bera Post Office, ",,,Bera,বাংলাদেশ,রাজশাহী বিভাগ,local_admin,boundaries,['post_office'],[],Bangladesh,Rajshahi,Pabna,Bera,BeraPaurashava,5a3313b78a62849bf2656f5c8a21feee
3364,7462691329,893cf56d30fffff,24.0833454,89.6190184,বেড়া পৌর কেন্দ্রীয় জামে মসজিদ,"Bera, Pabna District, Rajshahi Division, Bangladesh","বেড়া পৌর কেন্দ্রীয় জামে মসজিদ, পাবনা জেলা, রাজশাহী বিভাগ, বাংলাদেশ",,"বেড়া পৌর কেন্দ্রীয় জামে মসজিদ, ",,Bera,বাংলাদেশ,রাজশাহী বিভাগ,local_admin,boundaries,['place_of_worship_muslim'],[],Bangladesh,Rajshahi,Pabna,Bera,BeraPaurashava,5a3313b78a62849bf2656f5c8a21feee
3367,1056214555,893cf0b290bffff,24.06142349,89.18349571,Shahid Rafiz Uddin High School,"Shahid Rafiz Uddin High School, Pabna, Pabna District, Rajshahi Division, Bangladesh","পাবনা জেলা, রাজশাহী বিভাগ, বাংলাদেশ","Shahid Rafiz Uddin High School, ",,,Pabna,বাংলাদেশ,রাজশাহী বিভাগ,local_admin,boundaries,"['educational_institution', 'school']",[],Bangladesh,Rajshahi,Pabna,PabnaSadar,Dapunia,4d34919d579fe5a9f742515c3004db55
3368,7462693366,893cf56d33bffff,24.0828022,89.6199884,Sonali Bank Bangladesh Ltd.,"Sonali Bank Bangladesh Ltd., Bera, Pabna District, Rajshahi Division, Bangladesh","পাবনা জেলা, রাজশাহী বিভাগ, বাংলাদেশ","Sonali Bank Bangladesh Ltd., ",,,Bera,বাংলাদেশ,রাজশাহী বিভাগ,local_admin,boundaries,['bank'],[],Bangladesh,Rajshahi,Pabna,Bera,BeraPaurashava,5a3313b78a62849bf2656f5c8a21feee
3374,7462721075,893cf56d30fffff,24.0826994,89.6197867,Bera Bazar,"Bera Bazar, Bera, Pabna District, Rajshahi Division, Bangladesh","পাবনা জেলা, রাজশাহী বিভাগ, বাংলাদেশ","Bera Bazar, ",,,Bera,বাংলাদেশ,রাজশাহী বিভাগ,local_admin,boundaries,['marketplace'],[],Bangladesh,Rajshahi,Pabna,Bera,BeraPaurashava,5a3313b78a62849bf2656f5c8a21feee
3379,7462734818,893cf56d33bffff,24.0831001,89.6198379,Agrani Bank Bangldesh Ltd.,"Agrani Bank Bangldesh Ltd., Bera, Pabna District, Rajshahi Division, Bangladesh","পাবনা জেলা, রাজশাহী বিভাগ, বাংলাদেশ","Agrani Bank Bangldesh Ltd., ",,,Bera,বাংলাদেশ,রাজশাহী বিভাগ,local_admin,boundaries,['bank'],[],Bangladesh,Rajshahi,Pabna,Bera,BeraPaurashava,5a3313b78a62849bf2656f5c8a21feee
3382,7462767923,893cf56d30fffff,24.0839669,89.6183213,Bera Government B. B. Primary School,"Bera Government B. B. Primary School, Bera, Pabna District, Rajshahi Division, Bangladesh","পাবনা জেলা, রাজশাহী বিভাগ, বাংলাদেশ","Bera Government B. B. Primary School, ",,,Bera,বাংলাদেশ,রাজশাহী বিভাগ,local_admin,boundaries,['educational_institution'],[],Bangladesh,Rajshahi,Pabna,Bera,BeraPaurashava,5a3313b78a62849bf2656f5c8a21feee
3386,7462795056,893cf56d363ffff,24.0778307,89.6189499,,"Bera, Pabna District, Rajshahi Division, Bangladesh","পাবনা জেলা, রাজশাহী বিভাগ, বাংলাদেশ",,,,Bera,বাংলাদেশ,রাজশাহী বিভাগ,local_admin,boundaries,['atm'],[],Bangladesh,Rajshahi,Pabna,Bera,BeraPaurashava,5a3313b78a62849bf2656f5c8a21feee
3390,7462843886,893cf56d363ffff,24.077761,89.618928,Neoron Computer,"Neoron Computer, Bera, Pabna District, Rajshahi Division, Bangladesh","পাবনা জেলা, রাজশাহী বিভাগ, বাংলাদেশ","Neoron Computer, ",,,Bera,বাংলাদেশ,রাজশাহী বিভাগ,local_admin,boundaries,['computer'],[],Bangladesh,Rajshahi,Pabna,Bera,BeraPaurashava,5a3313b78a62849bf2656f5c8a21feee
3393,7465708636,893cf56d37bffff,24.0774652,89.6175507,Chowdhury Clinic,"Chowdhury Clinic, Bera, Pabna District, Rajshahi Division, Bangladesh","পাবনা জেলা, রাজশাহী বিভাগ, বাংলাদেশ","Chowdhury Clinic, ",,,Bera,বাংলাদেশ,রাজশাহী বিভাগ,local_admin,boundaries,['clinic'],[],Bangladesh,Rajshahi,Pabna,Bera,BeraPaurashava,5a3313b78a62849bf2656f5c8a21feee
3399,7465717513,893cf56d37bffff,24.0758947,89.6153469,Al Arabi General Hospital,"Al Arabi General Hospital, Bera, Pabna District, Rajshahi Division, Bangladesh","পাবনা জেলা, রাজশাহী বিভাগ, বাংলাদেশ","Al Arabi General Hospital, ",,,Bera,বাংলাদেশ,রাজশাহী বিভাগ,local_admin,boundaries,['clinic'],[],Bangladesh,Rajshahi,Pabna,Bera,BeraPaurashava,5a3313b78a62849bf2656f5c8a21feee
3405,7466205414,893cf56d363ffff,24.0783777,89.6199494,Fakir Palace,"Fakir Palace, Bera, Pabna District, Rajshahi Division, Bangladesh","পাবনা জেলা, রাজশাহী বিভাগ, বাংলাদেশ","Fakir Palace, ",,,Bera,বাংলাদেশ,রাজশাহী বিভাগ,local_admin,boundaries,['castle'],[],Bangladesh,Rajshahi,Pabna,Bera,BeraPaurashava,5a3313b78a62849bf2656f5c8a21feee
3408,7466229397,893cf56d31bffff,24.0838097,89.6124781,Bonogram Baitul Mamur Mosque,"Bonogram Baitul Mamur Mosque, Santhia, Pabna District, Rajshahi Division, Bangladesh","পাবনা জেলা, রাজশাহী বিভাগ, বাংলাদেশ","Bonogram Baitul Mamur Mosque, ",,,Santhia,বাংলাদেশ,রাজশাহী বিভাগ,local_admin,boundaries,['place_of_worship_muslim'],[],Bangladesh,Rajshahi,Pabna,Bera,BeraPaurashava,5a3313b78a62849bf2656f5c8a21feee
3416,7466248929,893cf56d37bffff,24.0755295,89.6153093,Mridula Clinic,"Mridula Clinic, Bera, Pabna District, Rajshahi Division, Bangladesh","পাবনা জেলা, রাজশাহী বিভাগ, বাংলাদেশ","Mridula Clinic, ",,,Bera,বাংলাদেশ,রাজশাহী বিভাগ,local_admin,boundaries,['clinic'],[],Bangladesh,Rajshahi,Pabna,Bera,BeraPaurashava,5a3313b78a62849bf2656f5c8a21feee
3424,7466283448,893cf56d37bffff,24.0774824,89.6165461,The Popular Diagonostic center and clinic,"The Popular Diagonostic center and clinic, Bera, Pabna District, Rajshahi Division, Bangladesh","পাবনা জেলা, রাজশাহী বিভাগ, বাংলাদেশ","The Popular Diagonostic center and clinic, ",,,Bera,বাংলাদেশ,রাজশাহী বিভাগ,local_admin,boundaries,['clinic'],[],Bangladesh,Rajshahi,Pabna,Bera,BeraPaurashava,5a3313b78a62849bf2656f5c8a21feee
3433,7466298492,893cf56d34bffff,24.0750985,89.6101082,Nurunnahar Diogonostic Center,"Nurunnahar Diogonostic Center, Santhia, Pabna District, Rajshahi Division, Bangladesh","পাবনা জেলা, রাজশাহী বিভাগ, বাংলাদেশ","Nurunnahar Diogonostic Center, ",,,Santhia,বাংলাদেশ,রাজশাহী বিভাগ,local_admin,boundaries,['clinic'],[],Bangladesh,Rajshahi,Pabna,Bera,BeraPaurashava,5a3313b78a62849bf2656f5c8a21feee
3434,7466314985,893cf1d2cb3ffff,24.0732925,89.6115879,Bera Fire Service & Civil Defence,"Bera Fire Service & Civil Defence, Bera, Pabna District, Rajshahi Division, Bangladesh","পাবনা জেলা, রাজশাহী বিভাগ, বাংলাদেশ","Bera Fire Service & Civil Defence, ",,,Bera,বাংলাদেশ,রাজশাহী বিভাগ,local_admin,boundaries,['fire_station'],[],Bangladesh,Rajshahi,Pabna,Bera,BeraPaurashava,5a3313b78a62849bf2656f5c8a21feee
3440,7466322275,893cf56d343ffff,24.076221,89.609357,Godhuli Sweets & Restaurant,"Godhuli Sweets & Restaurant, Santhia, Pabna District, Rajshahi Division, Bangladesh","পাবনা জেলা, রাজশাহী বিভাগ, বাংলাদেশ","Godhuli Sweets & Restaurant, ",,,Santhia,বাংলাদেশ,রাজশাহী বিভাগ,local_admin,boundaries,['restaurant'],[],Bangladesh,Rajshahi,Pabna,Bera,BeraPaurashava,5a3313b78a62849bf2656f5c8a21feee
3448,7466373458,893cf56d34fffff,24.0765009,89.6137156,Millennium Star School,"Millennium Star School, Bera, Pabna District, Rajshahi Division, Bangladesh","পাবনা জেলা, রাজশাহী বিভাগ, বাংলাদেশ","Millennium Star School, ",,,Bera,বাংলাদেশ,রাজশাহী বিভাগ,local_admin,boundaries,['educational_institution'],[],Bangladesh,Rajshahi,Pabna,Bera,BeraPaurashava,5a3313b78a62849bf2656f5c8a21feee
3455,7466384895,893cf56d363ffff,24.0789085,89.6194667,Talent Kinder Garden & High School,"Talent Kinder Garden & High School, Bera, Pabna District, Rajshahi Division, Bangladesh","পাবনা জেলা, রাজশাহী বিভাগ, বাংলাদেশ","Talent Kinder Garden & High School, ",,,Bera,বাংলাদেশ,রাজশাহী বিভাগ,local_admin,boundaries,['educational_institution'],[],Bangladesh,Rajshahi,Pabna,Bera,BeraPaurashava,5a3313b78a62849bf2656f5c8a21feee
3463,7466426117,893cf56d343ffff,24.0770382,89.6091525,রাজশাহী কৃষি উন্নয়ন ব্যাংক,"Santhia, Pabna District, Rajshahi Division, Bangladesh","রাজশাহী কৃষি উন্নয়ন ব্যাংক, পাবনা জেলা, রাজশাহী বিভাগ, বাংলাদেশ",,"রাজশাহী কৃষি উন্নয়ন ব্যাংক, ",,Santhia,বাংলাদেশ,রাজশাহী বিভাগ,local_admin,boundaries,['bank'],[],Bangladesh,Rajshahi,Pabna,Bera,BeraPaurashava,5a3313b78a62849bf2656f5c8a21feee
3474,7466594358,893cf56d37bffff,24.076987,89.6147749,Bera Hospital Mosque,"Bera Hospital Mosque, Bera, Pabna District, Rajshahi Division, Bangladesh","পাবনা জেলা, রাজশাহী বিভাগ, বাংলাদেশ","Bera Hospital Mosque, ",,,Bera,বাংলাদেশ,রাজশাহী বিভাগ,local_admin,boundaries,['place_of_worship_muslim'],[],Bangladesh,Rajshahi,Pabna,Bera,BeraPaurashava,5a3313b78a62849bf2656f5c8a21feee
3484,7466604743,893cf56d363ffff,24.0789,89.6187931,Sannalpara jame mosjid,"Sannalpara jame mosjid, Bera, Pabna District, Rajshahi Division, Bangladesh","পাবনা জেলা, রাজশাহী বিভাগ, বাংলাদেশ","Sannalpara jame mosjid, ",,,Bera,বাংলাদেশ,রাজশাহী বিভাগ,local_admin,boundaries,['place_of_worship_muslim'],[],Bangladesh,Rajshahi,Pabna,Bera,BeraPaurashava,5a3313b78a62849bf2656f5c8a21feee
3491,7466609106,893cf1d2cb7ffff,24.0745715,89.6155037,Al Hera Academy Mosque,"Al Hera Academy Mosque, Bera, Pabna District, Rajshahi Division, Bangladesh","পাবনা জেলা, রাজশাহী বিভাগ, বাংলাদেশ","Al Hera Academy Mosque, ",,,Bera,বাংলাদেশ,রাজশাহী বিভাগ,local_admin,boundaries,['place_of_worship_muslim'],[],Bangladesh,Rajshahi,Pabna,Bera,BeraPaurashava,5a3313b78a62849bf2656f5c8a21feee
3500,7466618241,893cf1d2dd7ffff,24.0737427,89.624104,Bera Upazila Mosque,"Bera Upazila Mosque, Bera, Pabna District, Rajshahi Division, Bangladesh","পাবনা জেলা, রাজশাহী বিভাগ, বাংলাদেশ","Bera Upazila Mosque, ",,,Bera,বাংলাদেশ,রাজশাহী বিভাগ,local_admin,boundaries,['place_of_worship_muslim'],[],Bangladesh,Rajshahi,Pabna,Bera,BeraPaurashava,5a3313b78a62849bf2656f5c8a21feee
3506,7466674133,893cf1d2d9bffff,24.0745198,89.6262492,Hatigara Jame Mosjid,"Hatigara Jame Mosjid, Bera, Pabna District, Rajshahi Division, Bangladesh","পাবনা জেলা, রাজশাহী বিভাগ, বাংলাদেশ","Hatigara Jame Mosjid, ",,,Bera,বাংলাদেশ,রাজশাহী বিভাগ,local_admin,boundaries,['place_of_worship_muslim'],[],Bangladesh,Rajshahi,Pabna,Bera,BeraPaurashava,5a3313b78a62849bf2656f5c8a21feee
3510,7466718513,893cf1d2d9bffff,24.0754198,89.6263071,Bou Bazar,"Bou Bazar, Bera, Pabna District, Rajshahi Division, Bangladesh","পাবনা জেলা, রাজশাহী বিভাগ, বাংলাদেশ","Bou Bazar, ",,,Bera,বাংলাদেশ,রাজশাহী বিভাগ,local_admin,boundaries,['marketplace'],[],Bangladesh,Rajshahi,Pabna,Bera,BeraPaurashava,5a3313b78a62849bf2656f5c8a21feee
3517,7466741511,893cf1d2d83ffff,24.0765242,89.6275755,Hatigara ZKM Madrasah,"Hatigara ZKM Madrasah, Bera, Pabna District, Rajshahi Division, Bangladesh","পাবনা জেলা, রাজশাহী বিভাগ, বাংলাদেশ","Hatigara ZKM Madrasah, ",,,Bera,বাংলাদেশ,রাজশাহী বিভাগ,local_admin,boundaries,['educational_institution'],[],Bangladesh,Rajshahi,Pabna,Bera,BeraPaurashava,5a3313b78a62849bf2656f5c8a21feee
3519,7466827296,893cf56d33bffff,24.0824162,89.621749,Uzzal Studio,"Uzzal Studio, Bera, Pabna District, Rajshahi Division, Bangladesh","পাবনা জেলা, রাজশাহী বিভাগ, বাংলাদেশ","Uzzal Studio, ",,,Bera,বাংলাদেশ,রাজশাহী বিভাগ,local_admin,boundaries,['photographic_laboratory'],[],Bangladesh,Rajshahi,Pabna,Bera,BeraPaurashava,5a3313b78a62849bf2656f5c8a21feee
3526,7466839835,893cf56d32bffff,24.0807647,89.6241512,Daxin Para Jame Mosjid,"Daxin Para Jame Mosjid, Bera, Pabna District, Rajshahi Division, Bangladesh","পাবনা জেলা, রাজশাহী বিভাগ, বাংলাদেশ","Daxin Para Jame Mosjid, ",,,Bera,বাংলাদেশ,রাজশাহী বিভাগ,local_admin,boundaries,['place_of_worship_muslim'],[],Bangladesh,Rajshahi,Pabna,Bera,BeraPaurashava,5a3313b78a62849bf2656f5c8a21feee
3533,7466854856,893cf56d32fffff,24.0812575,89.6270393,Bera Hafizia Madrasah,"Bera Hafizia Madrasah, Bera, Pabna District, Rajshahi Division, Bangladesh","পাবনা জেলা, রাজশাহী বিভাগ, বাংলাদেশ","Bera Hafizia Madrasah, ",,,Bera,বাংলাদেশ,রাজশাহী বিভাগ,local_admin,boundaries,['educational_institution'],[],Bangladesh,Rajshahi,Pabna,Bera,BeraPaurashava,5a3313b78a62849bf2656f5c8a21feee
3543,7466859657,893cf56d32fffff,24.0814629,89.6269961,Shah Para Jame Mosjid,"Shah Para Jame Mosjid, Bera, Pabna District, Rajshahi Division, Bangladesh","পাবনা জেলা, রাজশাহী বিভাগ, বাংলাদেশ","Shah Para Jame Mosjid, ",,,Bera,বাংলাদেশ,রাজশাহী বিভাগ,local_admin,boundaries,['place_of_worship_muslim'],[],Bangladesh,Rajshahi,Pabna,Bera,BeraPaurashava,5a3313b78a62849bf2656f5c8a21feee
3547,7467261215,893cf56d333ffff,24.0855063,89.6212531,Brishalika Jame Mosjid,"Brishalika Jame Mosjid, Bera, Pabna District, Rajshahi Division, Bangladesh","পাবনা জেলা, রাজশাহী বিভাগ, বাংলাদেশ","Brishalika Jame Mosjid, ",,,Bera,বাংলাদেশ,রাজশাহী বিভাগ,local_admin,boundaries,['place_of_worship_muslim'],[],Bangladesh,Rajshahi,Pabna,Bera,BeraPaurashava,5a3313b78a62849bf2656f5c8a21feee
3560,9705295957,893cf0a4663ffff,23.9346434,89.4014284,41 No. Char Bhawanipur Govt. Primary School,"41 No. Char Bhawanipur Govt. Primary School, Sujanagar, Pabna District, Rajshahi Division, Bangladesh","পাবনা জেলা, রাজশাহী বিভাগ, বাংলাদেশ","41 No. Char Bhawanipur Govt. Primary School, ",,,Sujanagar,বাংলাদেশ,রাজশাহী বিভাগ,local_admin,boundaries,"['educational_institution', 'school']",[],Bangladesh,Rajshahi,Pabna,Sujanagar,SujanagarPaurashava,30f97e37c00e2f24c3251eba3a33d321
3562,7467264657,893cf56d343ffff,24.076424,89.6088768,GrameenPhone Customer Care Service,"GrameenPhone Customer Care Service, Santhia, Pabna District, Rajshahi Division, Bangladesh","পাবনা জেলা, রাজশাহী বিভাগ, বাংলাদেশ","GrameenPhone Customer Care Service, ",,,Santhia,বাংলাদেশ,রাজশাহী বিভাগ,local_admin,boundaries,['company'],[],Bangladesh,Rajshahi,Pabna,Bera,BeraPaurashava,5a3313b78a62849bf2656f5c8a21feee
3568,7467297876,893cf56d3bbffff,24.0905553,89.6160694,Bera Sluice Gate,"Bera Sluice Gate, Bera, Pabna District, Rajshahi Division, Bangladesh","পাবনা জেলা, রাজশাহী বিভাগ, বাংলাদেশ","Bera Sluice Gate, ",,,Bera,বাংলাদেশ,রাজশাহী বিভাগ,local_admin,boundaries,['city_gate'],[],Bangladesh,Rajshahi,Pabna,Bera,BeraPaurashava,5a3313b78a62849bf2656f5c8a21feee
3572,9705295958,893cf0a4623ffff,23.9418358,89.4078495,Shahid Dulal Pilot Girls High School,"Shahid Dulal Pilot Girls High School, Sujanagar, Pabna District, Rajshahi Division, Bangladesh","পাবনা জেলা, রাজশাহী বিভাগ, বাংলাদেশ","Shahid Dulal Pilot Girls High School, ",,,Sujanagar,বাংলাদেশ,রাজশাহী বিভাগ,local_admin,boundaries,"['educational_institution', 'school']",[],Bangladesh,Rajshahi,Pabna,Sujanagar,SujanagarPaurashava,30f97e37c00e2f24c3251eba3a33d321
3573,7467331926,893cf56d343ffff,24.0762411,89.6105269,Fareast Life Insurance Company Ltd.,"Fareast Life Insurance Company Ltd., Santhia, Pabna District, Rajshahi Division, Bangladesh","পাবনা জেলা, রাজশাহী বিভাগ, বাংলাদেশ","Fareast Life Insurance Company Ltd., ",,,Santhia,বাংলাদেশ,রাজশাহী বিভাগ,local_admin,boundaries,['insurance'],[],Bangladesh,Rajshahi,Pabna,Bera,BeraPaurashava,5a3313b78a62849bf2656f5c8a21feee
3578,9705295959,893cf0a4063ffff,23.9413782,89.4244052,Mathura Pur High School,"Mathura Pur High School, Sujanagar, Pabna District, Rajshahi Division, Bangladesh","পাবনা জেলা, রাজশাহী বিভাগ, বাংলাদেশ","Mathura Pur High School, ",,,Sujanagar,বাংলাদেশ,রাজশাহী বিভাগ,local_admin,boundaries,"['educational_institution', 'school']",[],Bangladesh,Rajshahi,Pabna,Sujanagar,Sujanagar,5d863fef13edb02c1c47a6eb46c05448
3590,9705295960,893cf0a4157ffff,23.9512143,89.43981,Hazi Wazel Ali High School,"Hazi Wazel Ali High School, Sujanagar, Pabna District, Rajshahi Division, Bangladesh","পাবনা জেলা, রাজশাহী বিভাগ, বাংলাদেশ","Hazi Wazel Ali High School, ",,,Sujanagar,বাংলাদেশ,রাজশাহী বিভাগ,local_admin,boundaries,"['educational_institution', 'school']",[],Bangladesh,Rajshahi,Pabna,Sujanagar,Tantibanda,fe4d2c26a8718273305492fd6fdd60a0
3594,9705295961,893cf0a4c03ffff,23.96159,89.4692181,Jahanara Kanchon Smrity High School,"Jahanara Kanchon Smrity High School, Sujanagar, Pabna District, Rajshahi Division, Bangladesh","পাবনা জেলা, রাজশাহী বিভাগ, বাংলাদেশ","Jahanara Kanchon Smrity High School, ",,,Sujanagar,বাংলাদেশ,রাজশাহী বিভাগ,local_admin,boundaries,"['educational_institution', 'school']",[],Bangladesh,Rajshahi,Pabna,Sujanagar,Tantibanda,fe4d2c26a8718273305492fd6fdd60a0
3603,9705295962,893cf0a4c33ffff,23.9641174,89.4753498,Hoyzor Santipur Sobed Ali Mozior Udden Junior High School,"Hoyzor Santipur Sobed Ali Mozior Udden Junior High School, Sujanagar, Pabna District, Rajshahi Division, Bangladesh","পাবনা জেলা, রাজশাহী বিভাগ, বাংলাদেশ","Hoyzor Santipur Sobed Ali Mozior Udden Junior High School, ",,,Sujanagar,বাংলাদেশ,রাজশাহী বিভাগ,local_admin,boundaries,"['educational_institution', 'school']",[],Bangladesh,Rajshahi,Pabna,Santhia,KhatuPara,5a6c7974f8839d42ec4cfdf488e749af
3610,9705354300,893cf1db55bffff,23.8578162,89.4790992,Malifa Habibar Rahman Multilateral High School,"Malifa Habibar Rahman Multilateral High School, Sujanagar, Pabna District, Rajshahi Division, Bangladesh","পাবনা জেলা, রাজশাহী বিভাগ, বাংলাদেশ","Malifa Habibar Rahman Multilateral High School, ",,,Sujanagar,বাংলাদেশ,রাজশাহী বিভাগ,local_admin,boundaries,"['educational_institution', 'school']",[],Bangladesh,Rajshahi,Pabna,Sujanagar,Manikhat,954ae2c8746b0acb07ae605b800e20ff
3617,9705354301,893cf1db4a7ffff,23.8666361,89.472565,Raipur Girls High School,"Raipur Girls High School, Sujanagar, Pabna District, Rajshahi Division, Bangladesh","পাবনা জেলা, রাজশাহী বিভাগ, বাংলাদেশ","Raipur Girls High School, ",,,Sujanagar,বাংলাদেশ,রাজশাহী বিভাগ,local_admin,boundaries,"['educational_institution', 'school']",[],Bangladesh,Rajshahi,Pabna,Sujanagar,Manikhat,954ae2c8746b0acb07ae605b800e20ff
3619,1067844351,893cf0b2d63ffff,24.07242371,89.17071093,Borodikshail Primary School,"Borodikshail Primary School, Borodikshail, Pabna, Pabna District, Rajshahi Division, Bangladesh","পাবনা জেলা, রাজশাহী বিভাগ, বাংলাদেশ","Borodikshail Primary School, ",,,Pabna,বাংলাদেশ,রাজশাহী বিভাগ,locality,boundaries,['educational_institution'],[],Bangladesh,Rajshahi,Pabna,PabnaSadar,Dapunia,4d34919d579fe5a9f742515c3004db55
3623,1067844970,893cf0b2d63ffff,24.07231301,89.17109862,Borodikshail Eidga,"Borodikshail Eidga, Borodikshail, Pabna, Pabna District, Rajshahi Division, Bangladesh","পাবনা জেলা, রাজশাহী বিভাগ, বাংলাদেশ","Borodikshail Eidga, ",,,Pabna,বাংলাদেশ,রাজশাহী বিভাগ,locality,boundaries,['place_of_worship_muslim'],[],Bangladesh,Rajshahi,Pabna,PabnaSadar,Dapunia,4d34919d579fe5a9f742515c3004db55
3630,9705354302,893cf0a5e2fffff,23.8868428,89.4402572,Satbaria High School,"Satbaria High School, Sujanagar, Pabna District, Rajshahi Division, Bangladesh","পাবনা জেলা, রাজশাহী বিভাগ, বাংলাদেশ","Satbaria High School, ",,,Sujanagar,বাংলাদেশ,রাজশাহী বিভাগ,local_admin,boundaries,"['educational_institution', 'school']",[],Bangladesh,Rajshahi,Pabna,Sujanagar,Satbaria,b36f2b72c55918eb3e9e5e5881c0db4f
3636,9705354303,893cf0a5a97ffff,23.8861626,89.4414368,Satbaria High School,"Satbaria High School, Sujanagar, Pabna District, Rajshahi Division, Bangladesh","পাবনা জেলা, রাজশাহী বিভাগ, বাংলাদেশ","Satbaria High School, ",,,Sujanagar,বাংলাদেশ,রাজশাহী বিভাগ,local_admin,boundaries,"['educational_institution', 'school']",[],Bangladesh,Rajshahi,Pabna,Sujanagar,Satbaria,b36f2b72c55918eb3e9e5e5881c0db4f
3648,9705354305,893cf0a580fffff,23.8941325,89.4531674,Kadoa Junior High School,"Kadoa Junior High School, Sujanagar, Pabna District, Rajshahi Division, Bangladesh","পাবনা জেলা, রাজশাহী বিভাগ, বাংলাদেশ","Kadoa Junior High School, ",,,Sujanagar,বাংলাদেশ,রাজশাহী বিভাগ,local_admin,boundaries,"['educational_institution', 'school']",[],Bangladesh,Rajshahi,Pabna,Sujanagar,Satbaria,b36f2b72c55918eb3e9e5e5881c0db4f
3654,9705442592,893cf0a5c13ffff,23.9133257,89.4313061,Gopalpur Azgor Ali High School,"Gopalpur Azgor Ali High School, Sujanagar, Pabna District, Rajshahi Division, Bangladesh","পাবনা জেলা, রাজশাহী বিভাগ, বাংলাদেশ","Gopalpur Azgor Ali High School, ",,,Sujanagar,বাংলাদেশ,রাজশাহী বিভাগ,local_admin,boundaries,"['educational_institution', 'school']",[],Bangladesh,Rajshahi,Pabna,Sujanagar,Sujanagar,5d863fef13edb02c1c47a6eb46c05448
