,osm_id,h3level9,lat,lon,name,name_en,name_bn,need_translate_en2bn,need_translate_bn2en,alt_names,local_admin_name,admin0_name,admin2_name,addr_level,poi_addr_match,poi_class,poi_keywords,country,division,district,thana,union,region_hash
4102,2332856867,893ce37250fffff,25.0854567,91.7554136,Companygonj Upazila Health Complex,"Companygonj Upazila Health Complex, Companiganj Sylhet, Sylhet District, Sylhet Division, Bangladesh","সিলেট জেলা, সিলেট বিভাগ, বাংলাদেশ","Companygonj Upazila Health Complex, ",,,Companiganj (Sylhet),বাংলাদেশ,সিলেট বিভাগ,local_admin,boundaries,['hospital'],[],Bangladesh,Sylhet,Sylhet,Companiganj,IslampurPaschim,591449b9d04028c1fa84f845b118cd9e
4105,2332872329,893ce378203ffff,24.8405595,91.7257035,বিশ্বনাথ উপজেলা স্বাস্থ্য কমপ্লেক্স,"Biswanath, Sylhet District, Sylhet Division, Bangladesh","বিশ্বনাথ উপজেলা স্বাস্থ্য কমপ্লেক্স, সিলেট জেলা, সিলেট বিভাগ, বাংলাদেশ",,"বিশ্বনাথ উপজেলা স্বাস্থ্য কমপ্লেক্স, ",['বিশ্বনাথ উপজেলা স্বাস্থ্য কমপ্লেক্স'],Biswanath,বাংলাদেশ,সিলেট বিভাগ,local_admin,boundaries,['hospital'],[],Bangladesh,Sylhet,Sylhet,Bishwanath,Rampasha,b8beb2d3c588466c857ec1cdd28463df
4559,4818701027,893ce37a16bffff,24.9098067,91.7314632,Lamakaji bus stop,"Lamakaji bus stop, Biswanath, Sylhet District, Sylhet Division, Bangladesh","সিলেট জেলা, সিলেট বিভাগ, বাংলাদেশ",Lamakaji bus stop,,,Biswanath,বাংলাদেশ,সিলেট বিভাগ,street,boundaries,['bus_stop'],[],Bangladesh,Sylhet,Sylhet,Bishwanath,LamaKazi,e1badf065ba4bd1ea64abd49b2eec233
94,5162589909,893ce379937ffff,24.8190117,91.7965109,Alinogar & Shabsen Mosque,"Alinogar & Shabsen Mosque, Biswanath, Sylhet District, Sylhet Division, Bangladesh","সিলেট জেলা, সিলেট বিভাগ, বাংলাদেশ","Alinogar & Shabsen Mosque, ",,,Biswanath,বাংলাদেশ,সিলেট বিভাগ,local_admin,boundaries,['place_of_worship_muslim'],[],Bangladesh,Sylhet,Sylhet,DakshinSurma,LalaBazar,c0671d00bdec2492af4ea36a95c9473c
95,5162592008,893ce379923ffff,24.8160327,91.7957078,Taj Mohrom pur Masjid,"Taj Mohrom pur Masjid, Biswanath, Sylhet District, Sylhet Division, Bangladesh","সিলেট জেলা, সিলেট বিভাগ, বাংলাদেশ","Taj Mohrom pur Masjid, ",,,Biswanath,বাংলাদেশ,সিলেট বিভাগ,local_admin,boundaries,['place_of_worship_muslim'],[],Bangladesh,Sylhet,Sylhet,DakshinSurma,LalaBazar,c0671d00bdec2492af4ea36a95c9473c
97,5162600085,893ce379977ffff,24.811346,91.7920933,Roshidpur pharmacy,"Roshidpur pharmacy, Biswanath, Sylhet District, Sylhet Division, Bangladesh","সিলেট জেলা, সিলেট বিভাগ, বাংলাদেশ","Roshidpur pharmacy, ",,,Biswanath,বাংলাদেশ,সিলেট বিভাগ,local_admin,boundaries,['pharmacy'],[],Bangladesh,Sylhet,Sylhet,DakshinSurma,LalaBazar,c0671d00bdec2492af4ea36a95c9473c
98,5162601463,893ce379977ffff,24.8105932,91.7919912,Roshidpur Bus Stop,"Roshidpur Bus Stop, Biswanath, Sylhet District, Sylhet Division, Bangladesh","সিলেট জেলা, সিলেট বিভাগ, বাংলাদেশ","Roshidpur Bus Stop, ",,,Biswanath,বাংলাদেশ,সিলেট বিভাগ,local_admin,boundaries,['bus_station'],[],Bangladesh,Sylhet,Sylhet,DakshinSurma,LalaBazar,c0671d00bdec2492af4ea36a95c9473c
100,5162641459,893ce379bafffff,24.7992629,91.7898126,Jony Resturant and Sweetmeat,"Jony Resturant and Sweetmeat, Biswanath, Sylhet District, Sylhet Division, Bangladesh","সিলেট জেলা, সিলেট বিভাগ, বাংলাদেশ","Jony Resturant and Sweetmeat, ",,,Biswanath,বাংলাদেশ,সিলেট বিভাগ,local_admin,boundaries,['restaurant'],[],Bangladesh,Sylhet,Sylhet,DakshinSurma,LalaBazar,c0671d00bdec2492af4ea36a95c9473c
101,5162643290,893ce379bafffff,24.7991565,91.7898512,Shahed Departmental Store,"Shahed Departmental Store, Biswanath, Sylhet District, Sylhet Division, Bangladesh","সিলেট জেলা, সিলেট বিভাগ, বাংলাদেশ","Shahed Departmental Store, ",,,Biswanath,বাংলাদেশ,সিলেট বিভাগ,local_admin,boundaries,['department_store'],[],Bangladesh,Sylhet,Sylhet,DakshinSurma,LalaBazar,c0671d00bdec2492af4ea36a95c9473c
103,5162645095,893ce379bafffff,24.7990091,91.7898502,Rajmahal Sweets and Fire Foods,"Rajmahal Sweets and Fire Foods, Biswanath, Sylhet District, Sylhet Division, Bangladesh","সিলেট জেলা, সিলেট বিভাগ, বাংলাদেশ","Rajmahal Sweets and Fire Foods, ",,,Biswanath,বাংলাদেশ,সিলেট বিভাগ,local_admin,boundaries,['restaurant'],[],Bangladesh,Sylhet,Sylhet,DakshinSurma,LalaBazar,c0671d00bdec2492af4ea36a95c9473c
104,5162653622,893ce379bafffff,24.798748,91.789713,Shapla Drug House,"Shapla Drug House, Biswanath, Sylhet District, Sylhet Division, Bangladesh","সিলেট জেলা, সিলেট বিভাগ, বাংলাদেশ","Shapla Drug House, ",,,Biswanath,বাংলাদেশ,সিলেট বিভাগ,local_admin,boundaries,['pharmacy'],[],Bangladesh,Sylhet,Sylhet,DakshinSurma,LalaBazar,c0671d00bdec2492af4ea36a95c9473c
106,5162654127,893ce379bafffff,24.7988829,91.7895652,Nazir Bazar,"Nazir Bazar, Biswanath, Sylhet District, Sylhet Division, Bangladesh","সিলেট জেলা, সিলেট বিভাগ, বাংলাদেশ","Nazir Bazar, ",,,Biswanath,বাংলাদেশ,সিলেট বিভাগ,local_admin,boundaries,['marketplace'],[],Bangladesh,Sylhet,Sylhet,DakshinSurma,LalaBazar,c0671d00bdec2492af4ea36a95c9473c
107,5162656492,893ce379bafffff,24.7984421,91.7897731,Directions Fazal Ali Complex,"Directions Fazal Ali Complex, Biswanath, Sylhet District, Sylhet Division, Bangladesh","সিলেট জেলা, সিলেট বিভাগ, বাংলাদেশ","Directions Fazal Ali Complex, ",,,Biswanath,বাংলাদেশ,সিলেট বিভাগ,local_admin,boundaries,['mall'],[],Bangladesh,Sylhet,Sylhet,DakshinSurma,LalaBazar,c0671d00bdec2492af4ea36a95c9473c
109,5162658891,893ce379bafffff,24.7978761,91.7895628,Maya Complex,"Maya Complex, Biswanath, Sylhet District, Sylhet Division, Bangladesh","সিলেট জেলা, সিলেট বিভাগ, বাংলাদেশ","Maya Complex, ",,,Biswanath,বাংলাদেশ,সিলেট বিভাগ,local_admin,boundaries,['mall'],[],Bangladesh,Sylhet,Sylhet,DakshinSurma,LalaBazar,c0671d00bdec2492af4ea36a95c9473c
110,5162661078,893ce379b23ffff,24.7939523,91.7896864,Petrol Pump,"Petrol Pump, Balaganj, Sylhet District, Sylhet Division, Bangladesh","সিলেট জেলা, সিলেট বিভাগ, বাংলাদেশ","Petrol Pump, ",,,Balaganj,বাংলাদেশ,সিলেট বিভাগ,local_admin,boundaries,['fuel'],[],Bangladesh,Sylhet,Sylhet,Balaganj,Dayamir,60e75fc0a00eb391e47e3e95670e7542
112,5162665034,893ce379b63ffff,24.7870656,91.7854374,Kurua Uttorpara Jame Masjid,"Kurua Uttorpara Jame Masjid, Biswanath, Sylhet District, Sylhet Division, Bangladesh","সিলেট জেলা, সিলেট বিভাগ, বাংলাদেশ","Kurua Uttorpara Jame Masjid, ",,,Biswanath,বাংলাদেশ,সিলেট বিভাগ,local_admin,boundaries,['place_of_worship_muslim'],[],Bangladesh,Sylhet,Sylhet,Balaganj,Dayamir,60e75fc0a00eb391e47e3e95670e7542
113,5162677184,893ce36b4a7ffff,24.7807173,91.7845876,Islam Filling Station,"Islam Filling Station, Balaganj, Sylhet District, Sylhet Division, Bangladesh","সিলেট জেলা, সিলেট বিভাগ, বাংলাদেশ","Islam Filling Station, ",,,Balaganj,বাংলাদেশ,সিলেট বিভাগ,local_admin,boundaries,['fuel'],[],Bangladesh,Sylhet,Sylhet,Balaganj,Dayamir,60e75fc0a00eb391e47e3e95670e7542
115,5162681297,893ce36b4afffff,24.7776396,91.7835993,কুরুয়া বাজার,"Balaganj, Sylhet District, Sylhet Division, Bangladesh","কুরুয়া বাজার, সিলেট জেলা, সিলেট বিভাগ, বাংলাদেশ",,"কুরুয়া বাজার, ",['Kurua Bazar'],Balaganj,বাংলাদেশ,সিলেট বিভাগ,local_admin,boundaries,['marketplace'],[],Bangladesh,Sylhet,Sylhet,Balaganj,Dayamir,60e75fc0a00eb391e47e3e95670e7542
116,5162696698,893ce36b4afffff,24.7774682,91.7840701,"Rupali Bank Limited, Kurua Bazar Branch","Rupali Bank Limited Kurua Bazar Branch, Balaganj, Sylhet District, Sylhet Division, Bangladesh","সিলেট জেলা, সিলেট বিভাগ, বাংলাদেশ","Rupali Bank Limited Kurua Bazar Branch, ",,,Balaganj,বাংলাদেশ,সিলেট বিভাগ,local_admin,boundaries,['bank'],[],Bangladesh,Sylhet,Sylhet,Balaganj,Dayamir,60e75fc0a00eb391e47e3e95670e7542
118,5162696711,893ce36b4afffff,24.777365,91.7841301,গ্রামীণ ব্যাংক,"Balaganj, Sylhet District, Sylhet Division, Bangladesh","গ্রামীণ ব্যাংক, সিলেট জেলা, সিলেট বিভাগ, বাংলাদেশ",,"গ্রামীণ ব্যাংক, ",['Grameen Bank'],Balaganj,বাংলাদেশ,সিলেট বিভাগ,local_admin,boundaries,['bank'],[],Bangladesh,Sylhet,Sylhet,Balaganj,Dayamir,60e75fc0a00eb391e47e3e95670e7542
119,5162862373,893ce36b0cbffff,24.7536582,91.7818072,Rupali Bank Limited,"Rupali Bank Limited, Balaganj, Sylhet District, Sylhet Division, Bangladesh","সিলেট জেলা, সিলেট বিভাগ, বাংলাদেশ","Rupali Bank Limited, ",,,Balaganj,বাংলাদেশ,সিলেট বিভাগ,local_admin,boundaries,['bank'],[],Bangladesh,Sylhet,Sylhet,Balaganj,Dayamir,60e75fc0a00eb391e47e3e95670e7542
121,5166874744,893ce36b627ffff,24.7520646,91.7815089,Fiza & Co.,"Fiza & Co., Balaganj, Sylhet District, Sylhet Division, Bangladesh","সিলেট জেলা, সিলেট বিভাগ, বাংলাদেশ","Fiza & Co., ",,,Balaganj,বাংলাদেশ,সিলেট বিভাগ,local_admin,boundaries,['seafood'],[],Bangladesh,Sylhet,Sylhet,Balaganj,Dayamir,60e75fc0a00eb391e47e3e95670e7542
123,5166876716,893ce36b0cbffff,24.7527554,91.7810984,Doyamir Bazar দয়ামীর বাজার,"Doyamir Bazar, Balaganj, Sylhet District, Sylhet Division, Bangladesh","দয়ামীর বাজার, সিলেট জেলা, সিলেট বিভাগ, বাংলাদেশ",,,,Balaganj,বাংলাদেশ,সিলেট বিভাগ,local_admin,boundaries,['marketplace'],[],Bangladesh,Sylhet,Sylhet,Balaganj,Dayamir,60e75fc0a00eb391e47e3e95670e7542
125,5166880621,893ce36b0cbffff,24.7524895,91.7817074,,"Balaganj, Sylhet District, Sylhet Division, Bangladesh","সিলেট জেলা, সিলেট বিভাগ, বাংলাদেশ",,,,Balaganj,বাংলাদেশ,সিলেট বিভাগ,local_admin,boundaries,['atm'],[],Bangladesh,Sylhet,Sylhet,Balaganj,Dayamir,60e75fc0a00eb391e47e3e95670e7542
127,5166880689,893ce36b627ffff,24.7504981,91.7805136,Attaullah Jame Mosjid,"Attaullah Jame Mosjid, Balaganj, Sylhet District, Sylhet Division, Bangladesh","সিলেট জেলা, সিলেট বিভাগ, বাংলাদেশ","Attaullah Jame Mosjid, ",,,Balaganj,বাংলাদেশ,সিলেট বিভাগ,local_admin,boundaries,['place_of_worship_muslim'],[],Bangladesh,Sylhet,Sylhet,Balaganj,Dayamir,60e75fc0a00eb391e47e3e95670e7542
130,5166881194,893ce36b0cbffff,24.7522579,91.7820929,,"Balaganj, Sylhet District, Sylhet Division, Bangladesh","সিলেট জেলা, সিলেট বিভাগ, বাংলাদেশ",,,,Balaganj,বাংলাদেশ,সিলেট বিভাগ,local_admin,boundaries,['post_office'],[],Bangladesh,Sylhet,Sylhet,Balaganj,Dayamir,60e75fc0a00eb391e47e3e95670e7542
131,5166885219,893ce36b627ffff,24.7496427,91.7801481,Hazi Market,"Hazi Market, Balaganj, Sylhet District, Sylhet Division, Bangladesh","সিলেট জেলা, সিলেট বিভাগ, বাংলাদেশ","Hazi Market, ",,,Balaganj,বাংলাদেশ,সিলেট বিভাগ,local_admin,boundaries,['supermarket'],[],Bangladesh,Sylhet,Sylhet,Balaganj,Dayamir,60e75fc0a00eb391e47e3e95670e7542
134,5166886984,893ce36b62bffff,24.7469656,91.7788014,Petrol Pump,"Petrol Pump, Balaganj, Sylhet District, Sylhet Division, Bangladesh","সিলেট জেলা, সিলেট বিভাগ, বাংলাদেশ","Petrol Pump, ",,,Balaganj,বাংলাদেশ,সিলেট বিভাগ,local_admin,boundaries,['fuel'],[],Bangladesh,Sylhet,Sylhet,Balaganj,Dayamir,60e75fc0a00eb391e47e3e95670e7542
137,5166897980,893ce36b66fffff,24.7414685,91.7767082,,"Balaganj, Sylhet District, Sylhet Division, Bangladesh","সিলেট জেলা, সিলেট বিভাগ, বাংলাদেশ",,,,Balaganj,বাংলাদেশ,সিলেট বিভাগ,local_admin,boundaries,['post_office'],[],Bangladesh,Sylhet,Sylhet,Balaganj,Osmanpur,3acb9db73179b45c0d6e7202dca5ec68
140,5166902090,893cc4b4dafffff,24.7339972,91.7694104,Khasikapon Bazar,"Khasikapon Bazar, Balaganj, Sylhet District, Sylhet Division, Bangladesh","সিলেট জেলা, সিলেট বিভাগ, বাংলাদেশ","Khasikapon Bazar, ",,,Balaganj,বাংলাদেশ,সিলেট বিভাগ,local_admin,boundaries,['marketplace'],[],Bangladesh,Sylhet,Sylhet,Balaganj,Osmanpur,3acb9db73179b45c0d6e7202dca5ec68
143,5166904730,893cc4b4d1bffff,24.7267654,91.7576618,MAYA VIEW,"MAYA VIEW, Balaganj, Sylhet District, Sylhet Division, Bangladesh","সিলেট জেলা, সিলেট বিভাগ, বাংলাদেশ","MAYA VIEW, ",,,Balaganj,বাংলাদেশ,সিলেট বিভাগ,local_admin,boundaries,['mall'],[],Bangladesh,Sylhet,Sylhet,Balaganj,Tajpur,7efd0b1ddf05c9957a8ac553dd1a6bad
146,5166906353,893cc4b4d1bffff,24.7267243,91.7585346,Tajpur Food Warehouse,"Tajpur Food Warehouse, Balaganj, Sylhet District, Sylhet Division, Bangladesh","সিলেট জেলা, সিলেট বিভাগ, বাংলাদেশ","Tajpur Food Warehouse, ",,,Balaganj,বাংলাদেশ,সিলেট বিভাগ,local_admin,boundaries,['social_facility'],[],Bangladesh,Sylhet,Sylhet,Balaganj,Tajpur,7efd0b1ddf05c9957a8ac553dd1a6bad
149,5166908729,893cc4b4d1bffff,24.7269532,91.7580279,Prime Bank Limited,"Prime Bank Limited, Balaganj, Sylhet District, Sylhet Division, Bangladesh","সিলেট জেলা, সিলেট বিভাগ, বাংলাদেশ","Prime Bank Limited, ",,,Balaganj,বাংলাদেশ,সিলেট বিভাগ,local_admin,boundaries,['bank'],[],Bangladesh,Sylhet,Sylhet,Balaganj,Tajpur,7efd0b1ddf05c9957a8ac553dd1a6bad
152,5166911171,893cc4b4d1bffff,24.7262835,91.7570172,,"Balaganj, Sylhet District, Sylhet Division, Bangladesh","সিলেট জেলা, সিলেট বিভাগ, বাংলাদেশ",,,,Balaganj,বাংলাদেশ,সিলেট বিভাগ,local_admin,boundaries,['atm'],[],Bangladesh,Sylhet,Sylhet,Balaganj,Tajpur,7efd0b1ddf05c9957a8ac553dd1a6bad
154,5166916805,893cc4b4dcfffff,24.7259008,91.7562379,Sonali Bank Limited,"Sonali Bank Limited, Balaganj, Sylhet District, Sylhet Division, Bangladesh","সিলেট জেলা, সিলেট বিভাগ, বাংলাদেশ","Sonali Bank Limited, ",,,Balaganj,বাংলাদেশ,সিলেট বিভাগ,local_admin,boundaries,['bank'],[],Bangladesh,Sylhet,Sylhet,Balaganj,Tajpur,7efd0b1ddf05c9957a8ac553dd1a6bad
157,5166917507,893cc4b4dcfffff,24.7259274,91.7568582,"AB BANK, TAJPUR BRANCH, SYLHET","AB BANK TAJPUR BRANCH SYLHET, Balaganj, Sylhet District, Sylhet Division, Bangladesh","সিলেট জেলা, সিলেট বিভাগ, বাংলাদেশ","AB BANK TAJPUR BRANCH SYLHET, ",,,Balaganj,বাংলাদেশ,সিলেট বিভাগ,local_admin,boundaries,['bank'],[],Bangladesh,Sylhet,Sylhet,Balaganj,Tajpur,7efd0b1ddf05c9957a8ac553dd1a6bad
160,5166918039,893cc4b4d57ffff,24.7256998,91.75707009999999,Kadamtala Bazar,"Kadamtala Bazar, Balaganj, Sylhet District, Sylhet Division, Bangladesh","সিলেট জেলা, সিলেট বিভাগ, বাংলাদেশ","Kadamtala Bazar, ",,,Balaganj,বাংলাদেশ,সিলেট বিভাগ,local_admin,boundaries,['marketplace'],[],Bangladesh,Sylhet,Sylhet,Balaganj,Tajpur,7efd0b1ddf05c9957a8ac553dd1a6bad
162,5166918121,893cc4b4d1bffff,24.7259857,91.7571161,,"Balaganj, Sylhet District, Sylhet Division, Bangladesh","সিলেট জেলা, সিলেট বিভাগ, বাংলাদেশ",,,,Balaganj,বাংলাদেশ,সিলেট বিভাগ,local_admin,boundaries,['atm'],[],Bangladesh,Sylhet,Sylhet,Balaganj,Tajpur,7efd0b1ddf05c9957a8ac553dd1a6bad
163,5166919838,893cc4b4dcfffff,24.7250492,91.7550936,Money Market,"Money Market, Balaganj, Sylhet District, Sylhet Division, Bangladesh","সিলেট জেলা, সিলেট বিভাগ, বাংলাদেশ","Money Market, ",,,Balaganj,বাংলাদেশ,সিলেট বিভাগ,local_admin,boundaries,['mall'],[],Bangladesh,Sylhet,Sylhet,Balaganj,Tajpur,7efd0b1ddf05c9957a8ac553dd1a6bad
165,5166919974,893cc4b4dcfffff,24.7256262,91.7558625,,"Balaganj, Sylhet District, Sylhet Division, Bangladesh","সিলেট জেলা, সিলেট বিভাগ, বাংলাদেশ",,,,Balaganj,বাংলাদেশ,সিলেট বিভাগ,local_admin,boundaries,['atm'],[],Bangladesh,Sylhet,Sylhet,Balaganj,Tajpur,7efd0b1ddf05c9957a8ac553dd1a6bad
167,5166921034,893cc4b4dcfffff,24.7257473,91.7559768,"Pubali Bank Limited, Tajpur Branch","Pubali Bank Limited Tajpur Branch, Balaganj, Sylhet District, Sylhet Division, Bangladesh","সিলেট জেলা, সিলেট বিভাগ, বাংলাদেশ","Pubali Bank Limited Tajpur Branch, ",,,Balaganj,বাংলাদেশ,সিলেট বিভাগ,local_admin,boundaries,['bank'],[],Bangladesh,Sylhet,Sylhet,Balaganj,Tajpur,7efd0b1ddf05c9957a8ac553dd1a6bad
169,5166922235,893cc4b4d53ffff,24.7240666,91.754221,,"Balaganj, Sylhet District, Sylhet Division, Bangladesh","সিলেট জেলা, সিলেট বিভাগ, বাংলাদেশ",,,,Balaganj,বাংলাদেশ,সিলেট বিভাগ,local_admin,boundaries,['atm'],[],Bangladesh,Sylhet,Sylhet,Balaganj,Tajpur,7efd0b1ddf05c9957a8ac553dd1a6bad
171,5166924088,893cc4b4d53ffff,24.7241466,91.7542637,Southeast Bank Limited,"Southeast Bank Limited, Balaganj, Sylhet District, Sylhet Division, Bangladesh","সিলেট জেলা, সিলেট বিভাগ, বাংলাদেশ","Southeast Bank Limited, ",,,Balaganj,বাংলাদেশ,সিলেট বিভাগ,local_admin,boundaries,['bank'],[],Bangladesh,Sylhet,Sylhet,Balaganj,Tajpur,7efd0b1ddf05c9957a8ac553dd1a6bad
173,5166924146,893cc4b4d53ffff,24.7240524,91.7541721,,"Balaganj, Sylhet District, Sylhet Division, Bangladesh","সিলেট জেলা, সিলেট বিভাগ, বাংলাদেশ",,,,Balaganj,বাংলাদেশ,সিলেট বিভাগ,local_admin,boundaries,['atm'],[],Bangladesh,Sylhet,Sylhet,Balaganj,Tajpur,7efd0b1ddf05c9957a8ac553dd1a6bad
175,5166924147,893cc4b4d53ffff,24.7239788,91.7541221,Ma Jewellary Shop,"Ma Jewellary Shop, Balaganj, Sylhet District, Sylhet Division, Bangladesh","সিলেট জেলা, সিলেট বিভাগ, বাংলাদেশ","Ma Jewellary Shop, ",,,Balaganj,বাংলাদেশ,সিলেট বিভাগ,local_admin,boundaries,['jewelry'],[],Bangladesh,Sylhet,Sylhet,Balaganj,Tajpur,7efd0b1ddf05c9957a8ac553dd1a6bad
177,5166925619,893cc4b4d53ffff,24.7241313,91.7542234,Western Union Money Transfer,"Western Union Money Transfer, Balaganj, Sylhet District, Sylhet Division, Bangladesh","সিলেট জেলা, সিলেট বিভাগ, বাংলাদেশ","Western Union Money Transfer, ",,,Balaganj,বাংলাদেশ,সিলেট বিভাগ,local_admin,boundaries,['currencyexchange'],[],Bangladesh,Sylhet,Sylhet,Balaganj,Tajpur,7efd0b1ddf05c9957a8ac553dd1a6bad
179,5166959614,893cc4b4d53ffff,24.7239349,91.7545039,Darus Shifa Homeo Pharmacy,"Darus Shifa Homeo Pharmacy, Balaganj, Sylhet District, Sylhet Division, Bangladesh","সিলেট জেলা, সিলেট বিভাগ, বাংলাদেশ","Darus Shifa Homeo Pharmacy, ",,,Balaganj,বাংলাদেশ,সিলেট বিভাগ,local_admin,boundaries,['pharmacy'],[],Bangladesh,Sylhet,Sylhet,Balaganj,Tajpur,7efd0b1ddf05c9957a8ac553dd1a6bad
181,5166960053,893cc4b4d53ffff,24.7237453,91.7535052,Tajpur Mosque,"Tajpur Mosque, Balaganj, Sylhet District, Sylhet Division, Bangladesh","সিলেট জেলা, সিলেট বিভাগ, বাংলাদেশ","Tajpur Mosque, ",,,Balaganj,বাংলাদেশ,সিলেট বিভাগ,local_admin,boundaries,['place_of_worship_muslim'],[],Bangladesh,Sylhet,Sylhet,Balaganj,Tajpur,7efd0b1ddf05c9957a8ac553dd1a6bad
183,5166960321,893cc4b4d53ffff,24.7237121,91.7541966,Alal Mohammad Plaza,"Alal Mohammad Plaza, Balaganj, Sylhet District, Sylhet Division, Bangladesh","সিলেট জেলা, সিলেট বিভাগ, বাংলাদেশ","Alal Mohammad Plaza, ",,,Balaganj,বাংলাদেশ,সিলেট বিভাগ,local_admin,boundaries,['mall'],[],Bangladesh,Sylhet,Sylhet,Balaganj,Tajpur,7efd0b1ddf05c9957a8ac553dd1a6bad
185,5166960841,893cc4b4d53ffff,24.7233961,91.7541614,Tajpur Bazar,"Tajpur Bazar, Balaganj, Sylhet District, Sylhet Division, Bangladesh","সিলেট জেলা, সিলেট বিভাগ, বাংলাদেশ","Tajpur Bazar, ",,,Balaganj,বাংলাদেশ,সিলেট বিভাগ,local_admin,boundaries,['marketplace'],[],Bangladesh,Sylhet,Sylhet,Balaganj,Tajpur,7efd0b1ddf05c9957a8ac553dd1a6bad
187,5166961257,893cc4b4d53ffff,24.722983,91.7531307,Tajpur Bus Stop,"Tajpur Bus Stop, Balaganj, Sylhet District, Sylhet Division, Bangladesh","সিলেট জেলা, সিলেট বিভাগ, বাংলাদেশ","Tajpur Bus Stop, ",,,Balaganj,বাংলাদেশ,সিলেট বিভাগ,local_admin,boundaries,['bus_station'],[],Bangladesh,Sylhet,Sylhet,Balaganj,Tajpur,7efd0b1ddf05c9957a8ac553dd1a6bad
189,5166961922,893cc4b4d53ffff,24.7231322,91.7532246,Bengal Foods,"Bengal Foods, Balaganj, Sylhet District, Sylhet Division, Bangladesh","সিলেট জেলা, সিলেট বিভাগ, বাংলাদেশ","Bengal Foods, ",,,Balaganj,বাংলাদেশ,সিলেট বিভাগ,local_admin,boundaries,['cafe'],[],Bangladesh,Sylhet,Sylhet,Balaganj,Tajpur,7efd0b1ddf05c9957a8ac553dd1a6bad
191,5166963832,893cc4b4d53ffff,24.7234378,91.7539429,Bonoful and Co,"Bonoful and Co, Balaganj, Sylhet District, Sylhet Division, Bangladesh","সিলেট জেলা, সিলেট বিভাগ, বাংলাদেশ","Bonoful and Co, ",,,Balaganj,বাংলাদেশ,সিলেট বিভাগ,local_admin,boundaries,['bakery'],[],Bangladesh,Sylhet,Sylhet,Balaganj,Tajpur,7efd0b1ddf05c9957a8ac553dd1a6bad
193,5166963928,893cc4b4d53ffff,24.7227126,91.7536931,National Bank Limited,"National Bank Limited, Balaganj, Sylhet District, Sylhet Division, Bangladesh","সিলেট জেলা, সিলেট বিভাগ, বাংলাদেশ","National Bank Limited, ",,,Balaganj,বাংলাদেশ,সিলেট বিভাগ,local_admin,boundaries,['bank'],[],Bangladesh,Sylhet,Sylhet,Balaganj,Tajpur,7efd0b1ddf05c9957a8ac553dd1a6bad
195,5166965806,893cc4b4d53ffff,24.7224832,91.7532065,Janata Bank Limited,"Janata Bank Limited, Balaganj, Sylhet District, Sylhet Division, Bangladesh","সিলেট জেলা, সিলেট বিভাগ, বাংলাদেশ","Janata Bank Limited, ",,,Balaganj,বাংলাদেশ,সিলেট বিভাগ,local_admin,boundaries,['bank'],[],Bangladesh,Sylhet,Sylhet,Balaganj,Tajpur,7efd0b1ddf05c9957a8ac553dd1a6bad
197,5166969488,893cc4b4c27ffff,24.7206658,91.7511771,Osmani Nogor Fire Station,"Osmani Nogor Fire Station, Balaganj, Sylhet District, Sylhet Division, Bangladesh","সিলেট জেলা, সিলেট বিভাগ, বাংলাদেশ","Osmani Nogor Fire Station, ",,,Balaganj,বাংলাদেশ,সিলেট বিভাগ,local_admin,boundaries,['fire_station'],[],Bangladesh,Sylhet,Sylhet,Balaganj,Tajpur,7efd0b1ddf05c9957a8ac553dd1a6bad
199,5166975439,893cc4b4c6bffff,24.7119261,91.7419206,Elashpur Jame Masjid,"Elashpur Jame Masjid, Balaganj, Sylhet District, Sylhet Division, Bangladesh","সিলেট জেলা, সিলেট বিভাগ, বাংলাদেশ","Elashpur Jame Masjid, ",,,Balaganj,বাংলাদেশ,সিলেট বিভাগ,local_admin,boundaries,['place_of_worship_muslim'],[],Bangladesh,Sylhet,Sylhet,Balaganj,GoulaBazar,70b5f8b6a1652000a1159696ca3ae320
201,5166976353,893cc4b4c6bffff,24.7107861,91.7393773,CNG/Petrol Station,"CNG/Petrol Station, Balaganj, Sylhet District, Sylhet Division, Bangladesh","সিলেট জেলা, সিলেট বিভাগ, বাংলাদেশ","CNG/Petrol Station, ",,,Balaganj,বাংলাদেশ,সিলেট বিভাগ,local_admin,boundaries,['fuel'],[],Bangladesh,Sylhet,Sylhet,Balaganj,GoulaBazar,70b5f8b6a1652000a1159696ca3ae320
203,5166989396,893cc4b4eb7ffff,24.7092982,91.73769,Two Star Furniture Gallery,"Two Star Furniture Gallery, Balaganj, Sylhet District, Sylhet Division, Bangladesh","সিলেট জেলা, সিলেট বিভাগ, বাংলাদেশ","Two Star Furniture Gallery, ",,,Balaganj,বাংলাদেশ,সিলেট বিভাগ,local_admin,boundaries,['furniture'],[],Bangladesh,Sylhet,Sylhet,Balaganj,GoulaBazar,70b5f8b6a1652000a1159696ca3ae320
205,5166992318,893cc4b4ea3ffff,24.7084903,91.7364616,Sony Rangs,"Sony Rangs, Balaganj, Sylhet District, Sylhet Division, Bangladesh","সিলেট জেলা, সিলেট বিভাগ, বাংলাদেশ","Sony Rangs, ",,,Balaganj,বাংলাদেশ,সিলেট বিভাগ,local_admin,boundaries,['electronics'],[],Bangladesh,Sylhet,Sylhet,Balaganj,GoulaBazar,70b5f8b6a1652000a1159696ca3ae320
207,5166997221,893cc4b4eb7ffff,24.7088165,91.7358998,,"Balaganj, Sylhet District, Sylhet Division, Bangladesh","সিলেট জেলা, সিলেট বিভাগ, বাংলাদেশ",,,,Balaganj,বাংলাদেশ,সিলেট বিভাগ,local_admin,boundaries,['atm'],[],Bangladesh,Sylhet,Sylhet,Balaganj,GoulaBazar,70b5f8b6a1652000a1159696ca3ae320
209,5167082521,893cc4b4ea3ffff,24.7082531,91.7358706,Sahi SS & Thi Aluminium,"Sahi SS & Thi Aluminium, Balaganj, Sylhet District, Sylhet Division, Bangladesh","সিলেট জেলা, সিলেট বিভাগ, বাংলাদেশ","Sahi SS & Thi Aluminium, ",,,Balaganj,বাংলাদেশ,সিলেট বিভাগ,local_admin,boundaries,['furniture'],[],Bangladesh,Sylhet,Sylhet,Balaganj,GoulaBazar,70b5f8b6a1652000a1159696ca3ae320
211,5167083096,893cc4b4ea3ffff,24.7080298,91.735378,,"Balaganj, Sylhet District, Sylhet Division, Bangladesh","সিলেট জেলা, সিলেট বিভাগ, বাংলাদেশ",,,,Balaganj,বাংলাদেশ,সিলেট বিভাগ,local_admin,boundaries,['atm'],[],Bangladesh,Sylhet,Sylhet,Balaganj,GoulaBazar,70b5f8b6a1652000a1159696ca3ae320
214,5167083216,893cc4b4ea3ffff,24.7080886,91.7355119,BRAC Bank Limited,"BRAC Bank Limited, Balaganj, Sylhet District, Sylhet Division, Bangladesh","সিলেট জেলা, সিলেট বিভাগ, বাংলাদেশ","BRAC Bank Limited, ",,,Balaganj,বাংলাদেশ,সিলেট বিভাগ,local_admin,boundaries,['bank'],[],Bangladesh,Sylhet,Sylhet,Balaganj,GoulaBazar,70b5f8b6a1652000a1159696ca3ae320
216,5167084855,893cc4b4eb3ffff,24.70818,91.7351114,National Iron & Woods Mfg.,"National Iron & Woods Mfg., Balaganj, Sylhet District, Sylhet Division, Bangladesh","সিলেট জেলা, সিলেট বিভাগ, বাংলাদেশ","National Iron & Woods Mfg., ",,,Balaganj,বাংলাদেশ,সিলেট বিভাগ,local_admin,boundaries,['furniture'],[],Bangladesh,Sylhet,Sylhet,Balaganj,GoulaBazar,70b5f8b6a1652000a1159696ca3ae320
218,5167086724,893cc4b4eb3ffff,24.7080194,91.7348602,The Farmers Bank Limited,"The Farmers Bank Limited, Balaganj, Sylhet District, Sylhet Division, Bangladesh","সিলেট জেলা, সিলেট বিভাগ, বাংলাদেশ","The Farmers Bank Limited, ",,,Balaganj,বাংলাদেশ,সিলেট বিভাগ,local_admin,boundaries,['bank'],[],Bangladesh,Sylhet,Sylhet,Balaganj,GoulaBazar,70b5f8b6a1652000a1159696ca3ae320
220,5167087399,893cc4b4ea3ffff,24.7075237,91.7347021,Shahjalal Islami Bank Limited,"Shahjalal Islami Bank Limited, Balaganj, Sylhet District, Sylhet Division, Bangladesh","সিলেট জেলা, সিলেট বিভাগ, বাংলাদেশ","Shahjalal Islami Bank Limited, ",,,Balaganj,বাংলাদেশ,সিলেট বিভাগ,local_admin,boundaries,['bank'],[],Bangladesh,Sylhet,Sylhet,Balaganj,GoulaBazar,70b5f8b6a1652000a1159696ca3ae320
222,5167087723,893cc4b4ea3ffff,24.7078462,91.7351466,Bishokorma Hardware Store,"Bishokorma Hardware Store, Balaganj, Sylhet District, Sylhet Division, Bangladesh","সিলেট জেলা, সিলেট বিভাগ, বাংলাদেশ","Bishokorma Hardware Store, ",,,Balaganj,বাংলাদেশ,সিলেট বিভাগ,local_admin,boundaries,['hardware'],[],Bangladesh,Sylhet,Sylhet,Balaganj,GoulaBazar,70b5f8b6a1652000a1159696ca3ae320
224,5167087725,893cc4b4ea3ffff,24.7076437,91.7348598,Shikdar Trading Center (শিকদার ট্রেডিং সেন্টার),"Shikdar Trading Center, Balaganj, Sylhet District, Sylhet Division, Bangladesh","শিকদার ট্রেডিং সেন্টার, সিলেট জেলা, সিলেট বিভাগ, বাংলাদেশ",,,,Balaganj,বাংলাদেশ,সিলেট বিভাগ,local_admin,boundaries,['hardware'],[],Bangladesh,Sylhet,Sylhet,Balaganj,GoulaBazar,70b5f8b6a1652000a1159696ca3ae320
226,5167088374,893cc4b4ebbffff,24.707282,91.7339911,Islami Bank Bangladesh Limited,"Islami Bank Bangladesh Limited, Balaganj, Sylhet District, Sylhet Division, Bangladesh","সিলেট জেলা, সিলেট বিভাগ, বাংলাদেশ","Islami Bank Bangladesh Limited, ",,,Balaganj,বাংলাদেশ,সিলেট বিভাগ,local_admin,boundaries,['bank'],[],Bangladesh,Sylhet,Sylhet,Balaganj,GoulaBazar,70b5f8b6a1652000a1159696ca3ae320
227,5167088528,893cc4b4ea3ffff,24.7077704,91.7350094,Shahjalal Islami Bank Limited,"Shahjalal Islami Bank Limited, Balaganj, Sylhet District, Sylhet Division, Bangladesh","সিলেট জেলা, সিলেট বিভাগ, বাংলাদেশ","Shahjalal Islami Bank Limited, ",,,Balaganj,বাংলাদেশ,সিলেট বিভাগ,local_admin,boundaries,['bank'],[],Bangladesh,Sylhet,Sylhet,Balaganj,GoulaBazar,70b5f8b6a1652000a1159696ca3ae320
229,5167088566,893cc4b4ebbffff,24.7072176,91.7338722,United Commercial Bank Limited,"United Commercial Bank Limited, Balaganj, Sylhet District, Sylhet Division, Bangladesh","সিলেট জেলা, সিলেট বিভাগ, বাংলাদেশ","United Commercial Bank Limited, ",,,Balaganj,বাংলাদেশ,সিলেট বিভাগ,local_admin,boundaries,['bank'],[],Bangladesh,Sylhet,Sylhet,Balaganj,GoulaBazar,70b5f8b6a1652000a1159696ca3ae320
231,5167088586,893cc4b4ea3ffff,24.7072983,91.7345536,Masum Telezone,"Masum Telezone, Balaganj, Sylhet District, Sylhet Division, Bangladesh","সিলেট জেলা, সিলেট বিভাগ, বাংলাদেশ","Masum Telezone, ",,,Balaganj,বাংলাদেশ,সিলেট বিভাগ,local_admin,boundaries,['electronics'],[],Bangladesh,Sylhet,Sylhet,Balaganj,GoulaBazar,70b5f8b6a1652000a1159696ca3ae320
233,5167089505,893cc4b4ebbffff,24.7073842,91.7340561,NRB Bank Limited,"NRB Bank Limited, Balaganj, Sylhet District, Sylhet Division, Bangladesh","সিলেট জেলা, সিলেট বিভাগ, বাংলাদেশ","NRB Bank Limited, ",,,Balaganj,বাংলাদেশ,সিলেট বিভাগ,local_admin,boundaries,['bank'],[],Bangladesh,Sylhet,Sylhet,Balaganj,GoulaBazar,70b5f8b6a1652000a1159696ca3ae320
235,5167092854,893cc4b4ebbffff,24.7074611,91.7341179,,"Balaganj, Sylhet District, Sylhet Division, Bangladesh","সিলেট জেলা, সিলেট বিভাগ, বাংলাদেশ",,,,Balaganj,বাংলাদেশ,সিলেট বিভাগ,local_admin,boundaries,['atm'],[],Bangladesh,Sylhet,Sylhet,Balaganj,GoulaBazar,70b5f8b6a1652000a1159696ca3ae320
237,5167097208,893cc4b4ebbffff,24.707046,91.7342482,Goala Bazar Post Office,"Goala Bazar Post Office, Balaganj, Sylhet District, Sylhet Division, Bangladesh","সিলেট জেলা, সিলেট বিভাগ, বাংলাদেশ","Goala Bazar Post Office, ",,,Balaganj,বাংলাদেশ,সিলেট বিভাগ,local_admin,boundaries,['post_office'],[],Bangladesh,Sylhet,Sylhet,Balaganj,GoulaBazar,70b5f8b6a1652000a1159696ca3ae320
238,5167098729,893cc4b4ebbffff,24.7068996,91.7339518,Maya Store,"Maya Store, Balaganj, Sylhet District, Sylhet Division, Bangladesh","সিলেট জেলা, সিলেট বিভাগ, বাংলাদেশ","Maya Store, ",,,Balaganj,বাংলাদেশ,সিলেট বিভাগ,local_admin,boundaries,['department_store'],[],Bangladesh,Sylhet,Sylhet,Balaganj,GoulaBazar,70b5f8b6a1652000a1159696ca3ae320
241,5167104973,893cc4b4ebbffff,24.7070779,91.7337861,,"Balaganj, Sylhet District, Sylhet Division, Bangladesh","সিলেট জেলা, সিলেট বিভাগ, বাংলাদেশ",,,,Balaganj,বাংলাদেশ,সিলেট বিভাগ,local_admin,boundaries,['atm'],[],Bangladesh,Sylhet,Sylhet,Balaganj,GoulaBazar,70b5f8b6a1652000a1159696ca3ae320
243,5167109662,893cc4b4ebbffff,24.7069723,91.7336967,Standard Bank Limited,"Standard Bank Limited, Balaganj, Sylhet District, Sylhet Division, Bangladesh","সিলেট জেলা, সিলেট বিভাগ, বাংলাদেশ","Standard Bank Limited, ",,,Balaganj,বাংলাদেশ,সিলেট বিভাগ,local_admin,boundaries,['bank'],[],Bangladesh,Sylhet,Sylhet,Balaganj,GoulaBazar,70b5f8b6a1652000a1159696ca3ae320
245,5167109765,893cc4b4ebbffff,24.7068515,91.7335838,Jannani Paint & Hardware,"Jannani Paint & Hardware, Balaganj, Sylhet District, Sylhet Division, Bangladesh","সিলেট জেলা, সিলেট বিভাগ, বাংলাদেশ","Jannani Paint & Hardware, ",,,Balaganj,বাংলাদেশ,সিলেট বিভাগ,local_admin,boundaries,['hardware'],[],Bangladesh,Sylhet,Sylhet,Balaganj,GoulaBazar,70b5f8b6a1652000a1159696ca3ae320
246,5167109821,893cc4b4ebbffff,24.707032,91.7337329,Jamuna Bank Limited,"Jamuna Bank Limited, Balaganj, Sylhet District, Sylhet Division, Bangladesh","সিলেট জেলা, সিলেট বিভাগ, বাংলাদেশ","Jamuna Bank Limited, ",,,Balaganj,বাংলাদেশ,সিলেট বিভাগ,local_admin,boundaries,['bank'],[],Bangladesh,Sylhet,Sylhet,Balaganj,GoulaBazar,70b5f8b6a1652000a1159696ca3ae320
248,5167110385,893cc4b4ebbffff,24.7069357,91.7336371,Saju Restaurant,"Saju Restaurant, Balaganj, Sylhet District, Sylhet Division, Bangladesh","সিলেট জেলা, সিলেট বিভাগ, বাংলাদেশ","Saju Restaurant, ",,,Balaganj,বাংলাদেশ,সিলেট বিভাগ,local_admin,boundaries,['restaurant'],[],Bangladesh,Sylhet,Sylhet,Balaganj,GoulaBazar,70b5f8b6a1652000a1159696ca3ae320
251,5167112429,893cc4b4ebbffff,24.7067847,91.7338767,Sagotoo Buticks,"Sagotoo Buticks, Balaganj, Sylhet District, Sylhet Division, Bangladesh","সিলেট জেলা, সিলেট বিভাগ, বাংলাদেশ","Sagotoo Buticks, ",,,Balaganj,বাংলাদেশ,সিলেট বিভাগ,local_admin,boundaries,['clothes'],[],Bangladesh,Sylhet,Sylhet,Balaganj,GoulaBazar,70b5f8b6a1652000a1159696ca3ae320
253,5167113239,893cc4b4ebbffff,24.7067142,91.7340878,iStudio,"iStudio, Balaganj, Sylhet District, Sylhet Division, Bangladesh","সিলেট জেলা, সিলেট বিভাগ, বাংলাদেশ","iStudio, ",,,Balaganj,বাংলাদেশ,সিলেট বিভাগ,local_admin,boundaries,['photographic_laboratory'],[],Bangladesh,Sylhet,Sylhet,Balaganj,GoulaBazar,70b5f8b6a1652000a1159696ca3ae320
256,5167115821,893cc4b4ebbffff,24.7065981,91.7340452,পূবালী ব্যাংক,"Balaganj, Sylhet District, Sylhet Division, Bangladesh","পূবালী ব্যাংক, সিলেট জেলা, সিলেট বিভাগ, বাংলাদেশ",,"পূবালী ব্যাংক, ",['Pubali Bank'],Balaganj,বাংলাদেশ,সিলেট বিভাগ,local_admin,boundaries,['bank'],[],Bangladesh,Sylhet,Sylhet,Balaganj,GoulaBazar,70b5f8b6a1652000a1159696ca3ae320
258,5167170796,893cc4b4ebbffff,24.7065005,91.733558,Bibiana Medicine Center,"Bibiana Medicine Center, Balaganj, Sylhet District, Sylhet Division, Bangladesh","সিলেট জেলা, সিলেট বিভাগ, বাংলাদেশ","Bibiana Medicine Center, ",,,Balaganj,বাংলাদেশ,সিলেট বিভাগ,local_admin,boundaries,['pharmacy'],[],Bangladesh,Sylhet,Sylhet,Balaganj,GoulaBazar,70b5f8b6a1652000a1159696ca3ae320
261,5167175755,893cc4b4ebbffff,24.7066719,91.7333508,Juhi Phermacy,"Juhi Phermacy, Balaganj, Sylhet District, Sylhet Division, Bangladesh","সিলেট জেলা, সিলেট বিভাগ, বাংলাদেশ","Juhi Phermacy, ",,,Balaganj,বাংলাদেশ,সিলেট বিভাগ,local_admin,boundaries,['pharmacy'],[],Bangladesh,Sylhet,Sylhet,Balaganj,GoulaBazar,70b5f8b6a1652000a1159696ca3ae320
264,5168357517,893cc4b4ebbffff,24.7066706,91.7332039,New Janata Restaurant,"New Janata Restaurant, Balaganj, Sylhet District, Sylhet Division, Bangladesh","সিলেট জেলা, সিলেট বিভাগ, বাংলাদেশ","New Janata Restaurant, ",,,Balaganj,বাংলাদেশ,সিলেট বিভাগ,local_admin,boundaries,['restaurant'],[],Bangladesh,Sylhet,Sylhet,Balaganj,GoulaBazar,70b5f8b6a1652000a1159696ca3ae320
266,5168360386,893cc4b4ebbffff,24.7065185,91.733198,Life Style,"Life Style, Balaganj, Sylhet District, Sylhet Division, Bangladesh","সিলেট জেলা, সিলেট বিভাগ, বাংলাদেশ","Life Style, ",,,Balaganj,বাংলাদেশ,সিলেট বিভাগ,local_admin,boundaries,['clothes'],[],Bangladesh,Sylhet,Sylhet,Balaganj,GoulaBazar,70b5f8b6a1652000a1159696ca3ae320
267,5168360433,893cc4b4ebbffff,24.7065722,91.7332464,Baby Fashion,"Baby Fashion, Balaganj, Sylhet District, Sylhet Division, Bangladesh","সিলেট জেলা, সিলেট বিভাগ, বাংলাদেশ","Baby Fashion, ",,,Balaganj,বাংলাদেশ,সিলেট বিভাগ,local_admin,boundaries,['clothes'],[],Bangladesh,Sylhet,Sylhet,Balaganj,GoulaBazar,70b5f8b6a1652000a1159696ca3ae320
269,5168360797,893cc4b4ebbffff,24.7067058,91.7329532,গোয়ালাবাজার উত্তর জামে মসজিদ,"Balaganj, Sylhet District, Sylhet Division, Bangladesh","গোয়ালাবাজার উত্তর জামে মসজিদ, সিলেট জেলা, সিলেট বিভাগ, বাংলাদেশ",,"গোয়ালাবাজার উত্তর জামে মসজিদ, ",,Balaganj,বাংলাদেশ,সিলেট বিভাগ,local_admin,boundaries,['place_of_worship_muslim'],[],Bangladesh,Sylhet,Sylhet,Balaganj,GoulaBazar,70b5f8b6a1652000a1159696ca3ae320
272,5168362838,893cc4b4ebbffff,24.7063288,91.7333474,Sunkor Departmental Store,"Sunkor Departmental Store, Balaganj, Sylhet District, Sylhet Division, Bangladesh","সিলেট জেলা, সিলেট বিভাগ, বাংলাদেশ","Sunkor Departmental Store, ",,,Balaganj,বাংলাদেশ,সিলেট বিভাগ,local_admin,boundaries,['department_store'],[],Bangladesh,Sylhet,Sylhet,Balaganj,GoulaBazar,70b5f8b6a1652000a1159696ca3ae320
274,5168363114,893cc4b4ebbffff,24.7064301,91.7335844,Fashion Plus,"Fashion Plus, Balaganj, Sylhet District, Sylhet Division, Bangladesh","সিলেট জেলা, সিলেট বিভাগ, বাংলাদেশ","Fashion Plus, ",,,Balaganj,বাংলাদেশ,সিলেট বিভাগ,local_admin,boundaries,['clothes'],[],Bangladesh,Sylhet,Sylhet,Balaganj,GoulaBazar,70b5f8b6a1652000a1159696ca3ae320
275,5168364314,893cc4b4ebbffff,24.7064109,91.7329781,Trust Bank Limited,"Trust Bank Limited, Balaganj, Sylhet District, Sylhet Division, Bangladesh","সিলেট জেলা, সিলেট বিভাগ, বাংলাদেশ","Trust Bank Limited, ",,,Balaganj,বাংলাদেশ,সিলেট বিভাগ,local_admin,boundaries,['bank'],[],Bangladesh,Sylhet,Sylhet,Balaganj,GoulaBazar,70b5f8b6a1652000a1159696ca3ae320
277,5168365730,893cc4b4ebbffff,24.7064579,91.7330153,Family Bazar Super Store,"Family Bazar Super Store, Balaganj, Sylhet District, Sylhet Division, Bangladesh","সিলেট জেলা, সিলেট বিভাগ, বাংলাদেশ","Family Bazar Super Store, ",,,Balaganj,বাংলাদেশ,সিলেট বিভাগ,local_admin,boundaries,['supermarket'],[],Bangladesh,Sylhet,Sylhet,Balaganj,GoulaBazar,70b5f8b6a1652000a1159696ca3ae320
279,5168366207,893cc4b4ebbffff,24.7063759,91.7329349,IFIC Bank Limited,"IFIC Bank Limited, Balaganj, Sylhet District, Sylhet Division, Bangladesh","সিলেট জেলা, সিলেট বিভাগ, বাংলাদেশ","IFIC Bank Limited, ",,,Balaganj,বাংলাদেশ,সিলেট বিভাগ,local_admin,boundaries,['bank'],[],Bangladesh,Sylhet,Sylhet,Balaganj,GoulaBazar,70b5f8b6a1652000a1159696ca3ae320
283,5168366398,893cc4b4ebbffff,24.7054461,91.7320523,Goala Bazar Bus Stop,"Goala Bazar Bus Stop, Balaganj, Sylhet District, Sylhet Division, Bangladesh","সিলেট জেলা, সিলেট বিভাগ, বাংলাদেশ","Goala Bazar Bus Stop, ",,,Balaganj,বাংলাদেশ,সিলেট বিভাগ,local_admin,boundaries,['marketplace'],[],Bangladesh,Sylhet,Sylhet,Balaganj,GoulaBazar,70b5f8b6a1652000a1159696ca3ae320
286,5168366955,893cc4b4ebbffff,24.7062657,91.733298,N K Sari,"N K Sari, Balaganj, Sylhet District, Sylhet Division, Bangladesh","সিলেট জেলা, সিলেট বিভাগ, বাংলাদেশ","N K Sari, ",,,Balaganj,বাংলাদেশ,সিলেট বিভাগ,local_admin,boundaries,['clothes'],[],Bangladesh,Sylhet,Sylhet,Balaganj,GoulaBazar,70b5f8b6a1652000a1159696ca3ae320
288,5168371194,893cc4b4ebbffff,24.7061818,91.7332136,Pubali Bank Limited,"Pubali Bank Limited, Balaganj, Sylhet District, Sylhet Division, Bangladesh","সিলেট জেলা, সিলেট বিভাগ, বাংলাদেশ","Pubali Bank Limited, ",,,Balaganj,বাংলাদেশ,সিলেট বিভাগ,local_admin,boundaries,['bank'],[],Bangladesh,Sylhet,Sylhet,Balaganj,GoulaBazar,70b5f8b6a1652000a1159696ca3ae320
290,5168371905,893cc4b4ebbffff,24.7064423,91.7328805,Alishan Shoes (আলিশান সুজ),"Alishan Shoes, Balaganj, Sylhet District, Sylhet Division, Bangladesh","আলিশান সুজ, সিলেট জেলা, সিলেট বিভাগ, বাংলাদেশ",,,,Balaganj,বাংলাদেশ,সিলেট বিভাগ,local_admin,boundaries,['shoes'],[],Bangladesh,Sylhet,Sylhet,Balaganj,GoulaBazar,70b5f8b6a1652000a1159696ca3ae320
293,5168373280,893cc4b4ebbffff,24.7058358,91.7328319,Al Hasan Departmental Store,"Al Hasan Departmental Store, Balaganj, Sylhet District, Sylhet Division, Bangladesh","সিলেট জেলা, সিলেট বিভাগ, বাংলাদেশ","Al Hasan Departmental Store, ",,,Balaganj,বাংলাদেশ,সিলেট বিভাগ,local_admin,boundaries,['department_store'],[],Bangladesh,Sylhet,Sylhet,Balaganj,GoulaBazar,70b5f8b6a1652000a1159696ca3ae320
296,5168375848,893cc4b4ebbffff,24.7056967,91.7333384,Sodaipati (সদাইপাতি),"Sodaipati, Balaganj, Sylhet District, Sylhet Division, Bangladesh","সদাইপাতি, সিলেট জেলা, সিলেট বিভাগ, বাংলাদেশ",,,,Balaganj,বাংলাদেশ,সিলেট বিভাগ,local_admin,boundaries,['supermarket'],[],Bangladesh,Sylhet,Sylhet,Balaganj,GoulaBazar,70b5f8b6a1652000a1159696ca3ae320
298,5168377938,893cc4b4ebbffff,24.7058133,91.7324395,Green Fashion,"Green Fashion, Balaganj, Sylhet District, Sylhet Division, Bangladesh","সিলেট জেলা, সিলেট বিভাগ, বাংলাদেশ","Green Fashion, ",,,Balaganj,বাংলাদেশ,সিলেট বিভাগ,local_admin,boundaries,['clothes'],[],Bangladesh,Sylhet,Sylhet,Balaganj,GoulaBazar,70b5f8b6a1652000a1159696ca3ae320
301,5168378943,893cc4b4ebbffff,24.7059904,91.7324136,Shwapno Life -স্বপ্ন লাইফ,"Shwapno Life, Balaganj, Sylhet District, Sylhet Division, Bangladesh","-স্বপ্ন লাইফ, সিলেট জেলা, সিলেট বিভাগ, বাংলাদেশ",,,,Balaganj,বাংলাদেশ,সিলেট বিভাগ,local_admin,boundaries,['clothes'],[],Bangladesh,Sylhet,Sylhet,Balaganj,GoulaBazar,70b5f8b6a1652000a1159696ca3ae320
304,5168379221,893cc4b4ebbffff,24.705943,91.7325006,Mahin Department Store,"Mahin Department Store, Balaganj, Sylhet District, Sylhet Division, Bangladesh","সিলেট জেলা, সিলেট বিভাগ, বাংলাদেশ","Mahin Department Store, ",,,Balaganj,বাংলাদেশ,সিলেট বিভাগ,local_admin,boundaries,['department_store'],[],Bangladesh,Sylhet,Sylhet,Balaganj,GoulaBazar,70b5f8b6a1652000a1159696ca3ae320
306,5168379644,893cc4b4ebbffff,24.7057403,91.7323643,Ali Phermacy,"Ali Phermacy, Balaganj, Sylhet District, Sylhet Division, Bangladesh","সিলেট জেলা, সিলেট বিভাগ, বাংলাদেশ","Ali Phermacy, ",,,Balaganj,বাংলাদেশ,সিলেট বিভাগ,local_admin,boundaries,['pharmacy'],[],Bangladesh,Sylhet,Sylhet,Balaganj,GoulaBazar,70b5f8b6a1652000a1159696ca3ae320
309,5168380027,893cc4b4ebbffff,24.7055957,91.7322185,Bismillah Restaurant,"Bismillah Restaurant, Balaganj, Sylhet District, Sylhet Division, Bangladesh","সিলেট জেলা, সিলেট বিভাগ, বাংলাদেশ","Bismillah Restaurant, ",,,Balaganj,বাংলাদেশ,সিলেট বিভাগ,local_admin,boundaries,['restaurant'],[],Bangladesh,Sylhet,Sylhet,Balaganj,GoulaBazar,70b5f8b6a1652000a1159696ca3ae320
312,5168381575,893cc4b4ebbffff,24.7056206,91.7327256,Tahmid Departmental Store,"Tahmid Departmental Store, Balaganj, Sylhet District, Sylhet Division, Bangladesh","সিলেট জেলা, সিলেট বিভাগ, বাংলাদেশ","Tahmid Departmental Store, ",,,Balaganj,বাংলাদেশ,সিলেট বিভাগ,local_admin,boundaries,['department_store'],[],Bangladesh,Sylhet,Sylhet,Balaganj,GoulaBazar,70b5f8b6a1652000a1159696ca3ae320
315,5168382115,893cc4b4ebbffff,24.705532,91.7320805,Nuhan Hotel,"Nuhan Hotel, Balaganj, Sylhet District, Sylhet Division, Bangladesh","সিলেট জেলা, সিলেট বিভাগ, বাংলাদেশ","Nuhan Hotel, ",,,Balaganj,বাংলাদেশ,সিলেট বিভাগ,local_admin,boundaries,['hotel'],[],Bangladesh,Sylhet,Sylhet,Balaganj,GoulaBazar,70b5f8b6a1652000a1159696ca3ae320
317,5168382504,893cc4b4ebbffff,24.7055116,91.732193,MR sweet,"MR sweet, Balaganj, Sylhet District, Sylhet Division, Bangladesh","সিলেট জেলা, সিলেট বিভাগ, বাংলাদেশ","MR sweet, ",,,Balaganj,বাংলাদেশ,সিলেট বিভাগ,local_admin,boundaries,['fast_food'],[],Bangladesh,Sylhet,Sylhet,Balaganj,GoulaBazar,70b5f8b6a1652000a1159696ca3ae320
318,5168383975,893cc4b4ebbffff,24.7053446,91.7319896,Progoty Pharmacy,"Progoty Pharmacy, Balaganj, Sylhet District, Sylhet Division, Bangladesh","সিলেট জেলা, সিলেট বিভাগ, বাংলাদেশ","Progoty Pharmacy, ",,,Balaganj,বাংলাদেশ,সিলেট বিভাগ,local_admin,boundaries,['pharmacy'],[],Bangladesh,Sylhet,Sylhet,Balaganj,GoulaBazar,70b5f8b6a1652000a1159696ca3ae320
320,5168384594,893cc4b4ebbffff,24.7051282,91.7328878,Goala Bazar South Jame Masjid,"Goala Bazar South Jame Masjid, Balaganj, Sylhet District, Sylhet Division, Bangladesh","সিলেট জেলা, সিলেট বিভাগ, বাংলাদেশ","Goala Bazar South Jame Masjid, ",,,Balaganj,বাংলাদেশ,সিলেট বিভাগ,local_admin,boundaries,['place_of_worship_muslim'],[],Bangladesh,Sylhet,Sylhet,Balaganj,GoulaBazar,70b5f8b6a1652000a1159696ca3ae320
322,5168389725,893cc4b4ebbffff,24.7051169,91.731701,Rifath Departmental Shop,"Rifath Departmental Shop, Balaganj, Sylhet District, Sylhet Division, Bangladesh","সিলেট জেলা, সিলেট বিভাগ, বাংলাদেশ","Rifath Departmental Shop, ",,,Balaganj,বাংলাদেশ,সিলেট বিভাগ,local_admin,boundaries,['department_store'],[],Bangladesh,Sylhet,Sylhet,Balaganj,GoulaBazar,70b5f8b6a1652000a1159696ca3ae320
324,5168389733,893cc4b4ebbffff,24.7050587,91.7316252,Dhaka Motors,"Dhaka Motors, Balaganj, Sylhet District, Sylhet Division, Bangladesh","সিলেট জেলা, সিলেট বিভাগ, বাংলাদেশ","Dhaka Motors, ",,,Balaganj,বাংলাদেশ,সিলেট বিভাগ,local_admin,boundaries,['car_parts'],[],Bangladesh,Sylhet,Sylhet,Balaganj,GoulaBazar,70b5f8b6a1652000a1159696ca3ae320
325,5168392322,893cc4b4ebbffff,24.7049308,91.7318307,Nimay Sweets & Confectionery,"Nimay Sweets & Confectionery, Balaganj, Sylhet District, Sylhet Division, Bangladesh","সিলেট জেলা, সিলেট বিভাগ, বাংলাদেশ","Nimay Sweets & Confectionery, ",,,Balaganj,বাংলাদেশ,সিলেট বিভাগ,local_admin,boundaries,['bakery'],[],Bangladesh,Sylhet,Sylhet,Balaganj,GoulaBazar,70b5f8b6a1652000a1159696ca3ae320
326,5168393041,893cc4b4ebbffff,24.7049028,91.7317833,Khan Biriani House,"Khan Biriani House, Balaganj, Sylhet District, Sylhet Division, Bangladesh","সিলেট জেলা, সিলেট বিভাগ, বাংলাদেশ","Khan Biriani House, ",,,Balaganj,বাংলাদেশ,সিলেট বিভাগ,local_admin,boundaries,['restaurant'],[],Bangladesh,Sylhet,Sylhet,Balaganj,GoulaBazar,70b5f8b6a1652000a1159696ca3ae320
328,5168416782,893cc4b4ebbffff,24.7048507,91.7317728,Shapla Drug House,"Shapla Drug House, Balaganj, Sylhet District, Sylhet Division, Bangladesh","সিলেট জেলা, সিলেট বিভাগ, বাংলাদেশ","Shapla Drug House, ",,,Balaganj,বাংলাদেশ,সিলেট বিভাগ,local_admin,boundaries,['pharmacy'],[],Bangladesh,Sylhet,Sylhet,Balaganj,GoulaBazar,70b5f8b6a1652000a1159696ca3ae320
331,5168417546,893cc4b4ebbffff,24.7047824,91.7317135,Bilash Furniture,"Bilash Furniture, Balaganj, Sylhet District, Sylhet Division, Bangladesh","সিলেট জেলা, সিলেট বিভাগ, বাংলাদেশ","Bilash Furniture, ",,,Balaganj,বাংলাদেশ,সিলেট বিভাগ,local_admin,boundaries,['furniture'],[],Bangladesh,Sylhet,Sylhet,Balaganj,GoulaBazar,70b5f8b6a1652000a1159696ca3ae320
333,5168417551,893cc4b4e17ffff,24.7044804,91.7313635,Boss Furniture,"Boss Furniture, Balaganj, Sylhet District, Sylhet Division, Bangladesh","সিলেট জেলা, সিলেট বিভাগ, বাংলাদেশ","Boss Furniture, ",,,Balaganj,বাংলাদেশ,সিলেট বিভাগ,local_admin,boundaries,['furniture'],[],Bangladesh,Sylhet,Sylhet,Balaganj,GoulaBazar,70b5f8b6a1652000a1159696ca3ae320
334,5168420985,893cc4b4e17ffff,24.7035708,91.7303689,Goalabazar Agriculture Office,"Goalabazar Agriculture Office, Balaganj, Sylhet District, Sylhet Division, Bangladesh","সিলেট জেলা, সিলেট বিভাগ, বাংলাদেশ","Goalabazar Agriculture Office, ",,,Balaganj,বাংলাদেশ,সিলেট বিভাগ,local_admin,boundaries,['government'],[],Bangladesh,Sylhet,Sylhet,Balaganj,GoulaBazar,70b5f8b6a1652000a1159696ca3ae320
337,5168429316,893cc4b4e13ffff,24.7019955,91.729879,গ্রামীণ ব্যাংক,"Balaganj, Sylhet District, Sylhet Division, Bangladesh","গ্রামীণ ব্যাংক, সিলেট জেলা, সিলেট বিভাগ, বাংলাদেশ",,"গ্রামীণ ব্যাংক, ",['Grameen Bank'],Balaganj,বাংলাদেশ,সিলেট বিভাগ,local_admin,boundaries,['bank'],[],Bangladesh,Sylhet,Sylhet,Balaganj,GoulaBazar,70b5f8b6a1652000a1159696ca3ae320
338,5168430476,893cc4b4e13ffff,24.7026069,91.7276811,Goala Bazar Adarsha Mohila Degree College,"Goala Bazar Adarsha Mohila Degree College, Balaganj, Sylhet District, Sylhet Division, Bangladesh","সিলেট জেলা, সিলেট বিভাগ, বাংলাদেশ","Goala Bazar Adarsha Mohila Degree College, ",,,Balaganj,বাংলাদেশ,সিলেট বিভাগ,local_admin,boundaries,['college'],[],Bangladesh,Sylhet,Sylhet,Balaganj,GoulaBazar,70b5f8b6a1652000a1159696ca3ae320
340,5168432174,893cc4b4e17ffff,24.7018951,91.7326878,Goalabazar Government Primary School,"Goalabazar Government Primary School, Balaganj, Sylhet District, Sylhet Division, Bangladesh","সিলেট জেলা, সিলেট বিভাগ, বাংলাদেশ","Goalabazar Government Primary School, ",,,Balaganj,বাংলাদেশ,সিলেট বিভাগ,local_admin,boundaries,['school'],[],Bangladesh,Sylhet,Sylhet,Balaganj,GoulaBazar,70b5f8b6a1652000a1159696ca3ae320
341,5168432175,893cc4b4e57ffff,24.695181,91.7261408,Supreme Petrol Station,"Supreme Petrol Station, Balaganj, Sylhet District, Sylhet Division, Bangladesh","সিলেট জেলা, সিলেট বিভাগ, বাংলাদেশ","Supreme Petrol Station, ",,,Balaganj,বাংলাদেশ,সিলেট বিভাগ,local_admin,boundaries,['fuel'],[],Bangladesh,Sylhet,Sylhet,Balaganj,GoulaBazar,70b5f8b6a1652000a1159696ca3ae320
342,5168432418,893cc4b5d97ffff,24.6895931,91.7218642,এওলাতৈল মসজিদ,"Balaganj, Sylhet District, Sylhet Division, Bangladesh","এওলাতৈল মসজিদ, সিলেট জেলা, সিলেট বিভাগ, বাংলাদেশ",,"এওলাতৈল মসজিদ, ",,Balaganj,বাংলাদেশ,সিলেট বিভাগ,local_admin,boundaries,['place_of_worship_muslim'],[],Bangladesh,Sylhet,Sylhet,Balaganj,GoulaBazar,70b5f8b6a1652000a1159696ca3ae320
345,5168434201,893cc4b5d13ffff,24.6798123,91.7232311,Jame Mosjid,"Jame Mosjid, Balaganj, Sylhet District, Sylhet Division, Bangladesh","সিলেট জেলা, সিলেট বিভাগ, বাংলাদেশ","Jame Mosjid, ",,,Balaganj,বাংলাদেশ,সিলেট বিভাগ,local_admin,boundaries,['place_of_worship_muslim'],[],Bangladesh,Sylhet,Sylhet,Balaganj,Burunga,536354be2300ac97cf461c999372d17e
346,5168434201,893cc4b5d13ffff,24.6798123,91.7232311,Jame Mosjid,"Jame Mosjid, Balaganj, Sylhet District, Sylhet Division, Bangladesh","সিলেট জেলা, সিলেট বিভাগ, বাংলাদেশ","Jame Mosjid, ",,,Balaganj,বাংলাদেশ,সিলেট বিভাগ,local_admin,boundaries,['place_of_worship_muslim'],[],Bangladesh,Sylhet,Sylhet,Balaganj,GoulaBazar,70b5f8b6a1652000a1159696ca3ae320
348,5168435106,893cc4b5d8bffff,24.6813792,91.7207004,Soshar Khandi Jame Masjid,"Soshar Khandi Jame Masjid, Balaganj, Sylhet District, Sylhet Division, Bangladesh","সিলেট জেলা, সিলেট বিভাগ, বাংলাদেশ","Soshar Khandi Jame Masjid, ",,,Balaganj,বাংলাদেশ,সিলেট বিভাগ,local_admin,boundaries,['place_of_worship_muslim'],[],Bangladesh,Sylhet,Sylhet,Balaganj,GoulaBazar,70b5f8b6a1652000a1159696ca3ae320
349,5168435879,893cc4b5dcfffff,24.6755059,91.7173588,Kolarai Suruj Ali Primary School,"Kolarai Suruj Ali Primary School, Balaganj, Sylhet District, Sylhet Division, Bangladesh","সিলেট জেলা, সিলেট বিভাগ, বাংলাদেশ","Kolarai Suruj Ali Primary School, ",,,Balaganj,বাংলাদেশ,সিলেট বিভাগ,local_admin,boundaries,['school'],[],Bangladesh,Sylhet,Sylhet,Balaganj,GoulaBazar,70b5f8b6a1652000a1159696ca3ae320
351,5168436548,893cc4b5dcfffff,24.6746551,91.7185286,Al Aksa Shopping Complex,"Al Aksa Shopping Complex, Balaganj, Sylhet District, Sylhet Division, Bangladesh","সিলেট জেলা, সিলেট বিভাগ, বাংলাদেশ","Al Aksa Shopping Complex, ",,,Balaganj,বাংলাদেশ,সিলেট বিভাগ,local_admin,boundaries,['mall'],[],Bangladesh,Sylhet,Sylhet,Balaganj,GoulaBazar,70b5f8b6a1652000a1159696ca3ae320
353,5168437379,893cc4b5883ffff,24.6637857,91.7125244,Kagoj Pur Jame Masjid,"Kagoj Pur Jame Masjid, Balaganj, Sylhet District, Sylhet Division, Bangladesh","সিলেট জেলা, সিলেট বিভাগ, বাংলাদেশ","Kagoj Pur Jame Masjid, ",,,Balaganj,বাংলাদেশ,সিলেট বিভাগ,local_admin,boundaries,['place_of_worship_muslim'],[],Bangladesh,Sylhet,Sylhet,Balaganj,Sadipur,57f744cf3661901cbf69b9e515f33f04
355,5168440102,893cc4b58d7ffff,24.6594727,91.7094028,Gousul Azam Jame Masjid,"Gousul Azam Jame Masjid, Balaganj, Sylhet District, Sylhet Division, Bangladesh","সিলেট জেলা, সিলেট বিভাগ, বাংলাদেশ","Gousul Azam Jame Masjid, ",,,Balaganj,বাংলাদেশ,সিলেট বিভাগ,local_admin,boundaries,['place_of_worship_muslim'],[],Bangladesh,Sylhet,Sylhet,Balaganj,Sadipur,57f744cf3661901cbf69b9e515f33f04
356,5168440335,893cc4b58d7ffff,24.6607089,91.7100944,Abir Filling Station,"Abir Filling Station, Balaganj, Sylhet District, Sylhet Division, Bangladesh","সিলেট জেলা, সিলেট বিভাগ, বাংলাদেশ","Abir Filling Station, ",,,Balaganj,বাংলাদেশ,সিলেট বিভাগ,local_admin,boundaries,['fuel'],[],Bangladesh,Sylhet,Sylhet,Balaganj,Sadipur,57f744cf3661901cbf69b9e515f33f04
358,5168440757,893cc4b58d7ffff,24.6595686,91.7090492,Begumpur Jame Moshjid,"Begumpur Jame Moshjid, Balaganj, Sylhet District, Sylhet Division, Bangladesh","সিলেট জেলা, সিলেট বিভাগ, বাংলাদেশ","Begumpur Jame Moshjid, ",,,Balaganj,বাংলাদেশ,সিলেট বিভাগ,local_admin,boundaries,['place_of_worship_muslim'],[],Bangladesh,Sylhet,Sylhet,Balaganj,Sadipur,57f744cf3661901cbf69b9e515f33f04
360,5168441339,893cc4b58d7ffff,24.6587873,91.7087997,Begumpur Market,"Begumpur Market, Balaganj, Sylhet District, Sylhet Division, Bangladesh","সিলেট জেলা, সিলেট বিভাগ, বাংলাদেশ","Begumpur Market, ",,,Balaganj,বাংলাদেশ,সিলেট বিভাগ,local_admin,boundaries,['marketplace'],[],Bangladesh,Sylhet,Sylhet,Balaganj,Sadipur,57f744cf3661901cbf69b9e515f33f04
1582,9846228649,893ce37a017ffff,24.9165017,91.7025885,সৎপুর,"Biswanath, Sylhet District, Sylhet Division, Bangladesh","সৎপুর, সিলেট জেলা, সিলেট বিভাগ, বাংলাদেশ",,"সৎপুর, ","['সৎপুর', 'Satpur Halt']",Biswanath,বাংলাদেশ,সিলেট বিভাগ,local_admin,boundaries,['railway_station'],[],Bangladesh,Sylhet,Sylhet,Bishwanath,LamaKazi,e1badf065ba4bd1ea64abd49b2eec233
1585,9846228732,893ce378cd3ffff,24.8773009,91.7704135,খাজাঞ্চিগাঁও,"Biswanath, Sylhet District, Sylhet Division, Bangladesh","খাজাঞ্চিগাঁও, সিলেট জেলা, সিলেট বিভাগ, বাংলাদেশ",,"খাজাঞ্চিগাঁও, ","['খাজাঞ্চিগাঁও', 'Khazanchigaon']",Biswanath,বাংলাদেশ,সিলেট বিভাগ,local_admin,boundaries,['railway_station'],[],Bangladesh,Sylhet,Sylhet,Bishwanath,Khazanchigaon,e844809ba5d1e632b237faebb1be54f8
1732,9920242922,893ce378677ffff,24.8498482,91.7141516,,"Biswanath, Sylhet District, Sylhet Division, Bangladesh","সিলেট জেলা, সিলেট বিভাগ, বাংলাদেশ",,,,Biswanath,বাংলাদেশ,সিলেট বিভাগ,local_admin,boundaries,['bicycle_parking'],[],Bangladesh,Sylhet,Sylhet,Bishwanath,Rampasha,b8beb2d3c588466c857ec1cdd28463df
1734,9935121094,893ce37a907ffff,24.9205026,91.7981919,,"Sylhet, Sylhet District, Sylhet Division, Bangladesh","সিলেট জেলা, সিলেট বিভাগ, বাংলাদেশ",,,,Sylhet,বাংলাদেশ,সিলেট বিভাগ,local_admin,boundaries,['bank'],[],Bangladesh,Sylhet,Sylhet,SylhetSadar,Kandigaon,65904a899bb32943631b87838f4f1fc2
1749,9948073633,893ce378a57ffff,24.8342564,91.7883361,,"Biswanath, Sylhet District, Sylhet Division, Bangladesh","সিলেট জেলা, সিলেট বিভাগ, বাংলাদেশ",,,,Biswanath,বাংলাদেশ,সিলেট বিভাগ,local_admin,boundaries,['bicycle_parking'],[],Bangladesh,Sylhet,Sylhet,Bishwanath,Alankari,180584e25e2d1eb68b1d005cad610885
1753,9948089520,893ce378a57ffff,24.8334718,91.788225,,"Biswanath, Sylhet District, Sylhet Division, Bangladesh","সিলেট জেলা, সিলেট বিভাগ, বাংলাদেশ",,,,Biswanath,বাংলাদেশ,সিলেট বিভাগ,local_admin,boundaries,['bicycle_parking'],[],Bangladesh,Sylhet,Sylhet,Bishwanath,Alankari,180584e25e2d1eb68b1d005cad610885
1754,9966042293,893cc4a700fffff,24.6020152,91.752269,,"Rajnagar Upazila, Moulvibazar District, Sylhet Division, Bangladesh","রাজনগর উপজেলা, মৌলভিবাজার জেলা, সিলেট বিভাগ, বাংলাদেশ",,,,রাজনগর উপজেলা,বাংলাদেশ,সিলেট বিভাগ,local_admin,boundaries,['artwork'],[],Bangladesh,Sylhet,Sylhet,Balaganj,PurbaPailanpur,2f44b0eeb8e50f8d7537dd2e864c6ffb
1863,10109834047,893ce37a843ffff,24.9043274,91.7633431,,"Biswanath, Sylhet District, Sylhet Division, Bangladesh","সিলেট জেলা, সিলেট বিভাগ, বাংলাদেশ",,,,Biswanath,বাংলাদেশ,সিলেট বিভাগ,local_admin,boundaries,['ford'],[],Bangladesh,Sylhet,Sylhet,SylhetSadar,Mogalgaon,04d1a26c2c4fe52f6e822d54f192f850
1864,10118827570,893ce37a1b7ffff,24.9317139,91.7320139,,"Sylhet, Sylhet District, Sylhet Division, Bangladesh","সিলেট জেলা, সিলেট বিভাগ, বাংলাদেশ",,,,Sylhet,বাংলাদেশ,সিলেট বিভাগ,local_admin,boundaries,['ford'],[],Bangladesh,Sylhet,Sylhet,SylhetSadar,Mogalgaon,04d1a26c2c4fe52f6e822d54f192f850
1872,10118828524,893ce37a197ffff,24.9323324,91.7247249,,"Sylhet, Sylhet District, Sylhet Division, Bangladesh","সিলেট জেলা, সিলেট বিভাগ, বাংলাদেশ",,,,Sylhet,বাংলাদেশ,সিলেট বিভাগ,local_admin,boundaries,['ford'],[],Bangladesh,Sylhet,Sylhet,SylhetSadar,Mogalgaon,04d1a26c2c4fe52f6e822d54f192f850
1877,10141162742,893ce371647ffff,24.9513911,91.7145365,,"Sylhet, Sylhet District, Sylhet Division, Bangladesh","সিলেট জেলা, সিলেট বিভাগ, বাংলাদেশ",,,,Sylhet,বাংলাদেশ,সিলেট বিভাগ,local_admin,boundaries,['ford'],[],Bangladesh,Sylhet,Sylhet,SylhetSadar,Jalalabad,68af165807a790038a7402ff18900b18
4489,531909923,893ce379937ffff,24.81720894,91.79772405,M/S Haji Sheikh Hormuz Ali Filling Station,"M/S Haji Sheikh Hormuz Ali Filling Station, Sylhet, Sylhet District, Sylhet Division, Bangladesh","সিলেট জেলা, সিলেট বিভাগ, বাংলাদেশ","M/S Haji Sheikh Hormuz Ali Filling Station, ",,,Sylhet,বাংলাদেশ,সিলেট বিভাগ,local_admin,boundaries,['fuel'],[],Bangladesh,Sylhet,Sylhet,DakshinSurma,LalaBazar,c0671d00bdec2492af4ea36a95c9473c
4490,531911712,893ce379977ffff,24.81207798,91.79213993,Rahman Filling Station,"Rahman Filling Station, Biswanath, Sylhet District, Sylhet Division, Bangladesh","সিলেট জেলা, সিলেট বিভাগ, বাংলাদেশ","Rahman Filling Station, ",,,Biswanath,বাংলাদেশ,সিলেট বিভাগ,local_admin,boundaries,['fuel'],[],Bangladesh,Sylhet,Sylhet,DakshinSurma,LalaBazar,c0671d00bdec2492af4ea36a95c9473c
4491,531912158,893ce379963ffff,24.8086415,91.79144795,Rashidpur Jame Masjid,"Rashidpur Jame Masjid, Biswanath, Sylhet District, Sylhet Division, Bangladesh","সিলেট জেলা, সিলেট বিভাগ, বাংলাদেশ","Rashidpur Jame Masjid, ",,,Biswanath,বাংলাদেশ,সিলেট বিভাগ,local_admin,boundaries,['place_of_worship'],[],Bangladesh,Sylhet,Sylhet,DakshinSurma,LalaBazar,c0671d00bdec2492af4ea36a95c9473c
4493,531912707,893ce379ba7ffff,24.80079294,91.78988665,Ema Community Center,"Ema Community Center, Biswanath, Sylhet District, Sylhet Division, Bangladesh","সিলেট জেলা, সিলেট বিভাগ, বাংলাদেশ","Ema Community Center, ",,,Biswanath,বাংলাদেশ,সিলেট বিভাগ,local_admin,boundaries,['community_centre'],[],Bangladesh,Sylhet,Sylhet,DakshinSurma,LalaBazar,c0671d00bdec2492af4ea36a95c9473c
4494,531916959,893ce379bafffff,24.79932664,91.79024337,Uttara Bank Limited,"Uttara Bank Limited, Biswanath, Sylhet District, Sylhet Division, Bangladesh","সিলেট জেলা, সিলেট বিভাগ, বাংলাদেশ","Uttara Bank Limited, ",,,Biswanath,বাংলাদেশ,সিলেট বিভাগ,local_admin,boundaries,['bank'],[],Bangladesh,Sylhet,Sylhet,DakshinSurma,LalaBazar,c0671d00bdec2492af4ea36a95c9473c
4497,531918611,893ce379bafffff,24.79817321,91.79007462,Tota Mia Shopping Complex,"Tota Mia Shopping Complex, Biswanath, Sylhet District, Sylhet Division, Bangladesh","সিলেট জেলা, সিলেট বিভাগ, বাংলাদেশ","Tota Mia Shopping Complex, ",,,Biswanath,বাংলাদেশ,সিলেট বিভাগ,local_admin,boundaries,['mall'],[],Bangladesh,Sylhet,Sylhet,DakshinSurma,LalaBazar,c0671d00bdec2492af4ea36a95c9473c
4498,531924472,893ce36b467ffff,24.76670744,91.78280463,Soyargaon Jame Masjid,"Soyargaon Jame Masjid, Balaganj, Sylhet District, Sylhet Division, Bangladesh","সিলেট জেলা, সিলেট বিভাগ, বাংলাদেশ","Soyargaon Jame Masjid, ",,,Balaganj,বাংলাদেশ,সিলেট বিভাগ,local_admin,boundaries,['place_of_worship_muslim'],[],Bangladesh,Sylhet,Sylhet,Balaganj,Dayamir,60e75fc0a00eb391e47e3e95670e7542
4502,531932655,893ce36b0c3ffff,24.75617157,91.78264441,"Jamea Arabia Islamia Darul Quraan, Doyamir","Jamea Arabia Islamia Darul Quraan Doyamir, Balaganj, Sylhet District, Sylhet Division, Bangladesh","সিলেট জেলা, সিলেট বিভাগ, বাংলাদেশ","Jamea Arabia Islamia Darul Quraan Doyamir, ",,,Balaganj,বাংলাদেশ,সিলেট বিভাগ,local_admin,boundaries,['school'],[],Bangladesh,Sylhet,Sylhet,Balaganj,Dayamir,60e75fc0a00eb391e47e3e95670e7542
4503,531934414,893ce36b0cbffff,24.75463598,91.78125529,Tahia Community Center,"Tahia Community Center, Balaganj, Sylhet District, Sylhet Division, Bangladesh","সিলেট জেলা, সিলেট বিভাগ, বাংলাদেশ","Tahia Community Center, ",,,Balaganj,বাংলাদেশ,সিলেট বিভাগ,local_admin,boundaries,['community_centre'],[],Bangladesh,Sylhet,Sylhet,Balaganj,Dayamir,60e75fc0a00eb391e47e3e95670e7542
4507,532465085,893ce36b0cbffff,24.75326152,91.78223982,D M Tower,"D M Tower, Balaganj, Sylhet District, Sylhet Division, Bangladesh","সিলেট জেলা, সিলেট বিভাগ, বাংলাদেশ","D M Tower, ",,,Balaganj,বাংলাদেশ,সিলেট বিভাগ,local_admin,boundaries,['mall'],[],Bangladesh,Sylhet,Sylhet,Balaganj,Dayamir,60e75fc0a00eb391e47e3e95670e7542
4511,532465315,893ce36b0cbffff,24.75268782,91.78179318,M.A.G. Osmani Market,"M.A.G. Osmani Market, Balaganj, Sylhet District, Sylhet Division, Bangladesh","সিলেট জেলা, সিলেট বিভাগ, বাংলাদেশ","M.A.G. Osmani Market, ",,,Balaganj,বাংলাদেশ,সিলেট বিভাগ,local_admin,boundaries,['marketplace'],[],Bangladesh,Sylhet,Sylhet,Balaganj,Dayamir,60e75fc0a00eb391e47e3e95670e7542
4514,532465451,893ce36b627ffff,24.75210606,91.78163345,Dayamir Shahi Eidgah,"Dayamir Shahi Eidgah, Balaganj, Sylhet District, Sylhet Division, Bangladesh","সিলেট জেলা, সিলেট বিভাগ, বাংলাদেশ","Dayamir Shahi Eidgah, ",,,Balaganj,বাংলাদেশ,সিলেট বিভাগ,local_admin,boundaries,['place_of_worship_muslim'],[],Bangladesh,Sylhet,Sylhet,Balaganj,Dayamir,60e75fc0a00eb391e47e3e95670e7542
4517,532466251,893ce36b62fffff,24.74764002,91.77930081,Choker Bazar Jame Mosjid,"Choker Bazar Jame Mosjid, Balaganj, Sylhet District, Sylhet Division, Bangladesh","সিলেট জেলা, সিলেট বিভাগ, বাংলাদেশ","Choker Bazar Jame Mosjid, ",,,Balaganj,বাংলাদেশ,সিলেট বিভাগ,local_admin,boundaries,['place_of_worship_muslim'],[],Bangladesh,Sylhet,Sylhet,Balaganj,Dayamir,60e75fc0a00eb391e47e3e95670e7542
4521,532466468,893ce36b667ffff,24.74364514,91.776502,Milon Community Centre,"Milon Community Centre, Balaganj, Sylhet District, Sylhet Division, Bangladesh","সিলেট জেলা, সিলেট বিভাগ, বাংলাদেশ","Milon Community Centre, ",,,Balaganj,বাংলাদেশ,সিলেট বিভাগ,local_admin,boundaries,['community_centre'],[],Bangladesh,Sylhet,Sylhet,Balaganj,Osmanpur,3acb9db73179b45c0d6e7202dca5ec68
4524,532468289,893cc4b4da7ffff,24.73696261,91.77213457,Power Transmission Centre,"Power Transmission Centre, Balaganj, Sylhet District, Sylhet Division, Bangladesh","সিলেট জেলা, সিলেট বিভাগ, বাংলাদেশ","Power Transmission Centre, ",,,Balaganj,বাংলাদেশ,সিলেট বিভাগ,local_admin,boundaries,['substation'],[],Bangladesh,Sylhet,Sylhet,Balaganj,Osmanpur,3acb9db73179b45c0d6e7202dca5ec68
4527,532468364,893cc4b4dabffff,24.73339905,91.76800898,Adhunik Community Centre,"Adhunik Community Centre, Balaganj, Sylhet District, Sylhet Division, Bangladesh","সিলেট জেলা, সিলেট বিভাগ, বাংলাদেশ","Adhunik Community Centre, ",,,Balaganj,বাংলাদেশ,সিলেট বিভাগ,local_admin,boundaries,['community_centre'],[],Bangladesh,Sylhet,Sylhet,Balaganj,Tajpur,7efd0b1ddf05c9957a8ac553dd1a6bad
4532,532468542,893cc4b4d1bffff,24.72733292,91.7588567,Sheraton Party Centre,"Sheraton Party Centre, Balaganj, Sylhet District, Sylhet Division, Bangladesh","সিলেট জেলা, সিলেট বিভাগ, বাংলাদেশ","Sheraton Party Centre, ",,,Balaganj,বাংলাদেশ,সিলেট বিভাগ,local_admin,boundaries,['community_centre'],[],Bangladesh,Sylhet,Sylhet,Balaganj,Tajpur,7efd0b1ddf05c9957a8ac553dd1a6bad
4536,532469375,893cc4b4dcfffff,24.72626816,91.75669907,Shahi Eidgah,"Shahi Eidgah, Balaganj, Sylhet District, Sylhet Division, Bangladesh","সিলেট জেলা, সিলেট বিভাগ, বাংলাদেশ","Shahi Eidgah, ",,,Balaganj,বাংলাদেশ,সিলেট বিভাগ,local_admin,boundaries,['place_of_worship_muslim'],[],Bangladesh,Sylhet,Sylhet,Balaganj,Tajpur,7efd0b1ddf05c9957a8ac553dd1a6bad
4540,532469535,893cc4b4dcfffff,24.72584274,91.75673807,"Jame Moshjid, Kadamtala","Jame Moshjid Kadamtala, Balaganj, Sylhet District, Sylhet Division, Bangladesh","সিলেট জেলা, সিলেট বিভাগ, বাংলাদেশ","Jame Moshjid Kadamtala, ",,,Balaganj,বাংলাদেশ,সিলেট বিভাগ,local_admin,boundaries,['place_of_worship_muslim'],[],Bangladesh,Sylhet,Sylhet,Balaganj,Tajpur,7efd0b1ddf05c9957a8ac553dd1a6bad
4543,532469822,893cc4b4dcfffff,24.72572302,91.75660211,Kadamtala,"Kadamtala, Balaganj, Sylhet District, Sylhet Division, Bangladesh","সিলেট জেলা, সিলেট বিভাগ, বাংলাদেশ","Kadamtala, ",,,Balaganj,বাংলাদেশ,সিলেট বিভাগ,local_admin,boundaries,['mall'],[],Bangladesh,Sylhet,Sylhet,Balaganj,Tajpur,7efd0b1ddf05c9957a8ac553dd1a6bad
4547,532470500,893cc4b4dcfffff,24.72547436,91.75560512,Parfect Sales Center,"Parfect Sales Center, Balaganj, Sylhet District, Sylhet Division, Bangladesh","সিলেট জেলা, সিলেট বিভাগ, বাংলাদেশ","Parfect Sales Center, ",,,Balaganj,বাংলাদেশ,সিলেট বিভাগ,local_admin,boundaries,['car_parts'],[],Bangladesh,Sylhet,Sylhet,Balaganj,Tajpur,7efd0b1ddf05c9957a8ac553dd1a6bad
4551,532470900,893cc4b4d53ffff,24.72409019,91.75415676,"Pubali Mansion Tajpur, Sylhet","Pubali Mansion Tajpur Sylhet, Balaganj, Sylhet District, Sylhet Division, Bangladesh","সিলেট জেলা, সিলেট বিভাগ, বাংলাদেশ","Pubali Mansion Tajpur Sylhet, ",,,Balaganj,বাংলাদেশ,সিলেট বিভাগ,local_admin,boundaries,['marketplace'],[],Bangladesh,Sylhet,Sylhet,Balaganj,Tajpur,7efd0b1ddf05c9957a8ac553dd1a6bad
4555,532476290,893cc4b4d53ffff,24.72233099,91.75298392,Haji Abrus Ali Complex,"Haji Abrus Ali Complex, Balaganj, Sylhet District, Sylhet Division, Bangladesh","সিলেট জেলা, সিলেট বিভাগ, বাংলাদেশ","Haji Abrus Ali Complex, ",,,Balaganj,বাংলাদেশ,সিলেট বিভাগ,local_admin,boundaries,['marketplace'],[],Bangladesh,Sylhet,Sylhet,Balaganj,Tajpur,7efd0b1ddf05c9957a8ac553dd1a6bad
4561,532478046,893cc4b4eb7ffff,24.709658740000002,91.73726452,Shadi Mohol Community Centre,"Shadi Mohol Community Centre, Balaganj, Sylhet District, Sylhet Division, Bangladesh","সিলেট জেলা, সিলেট বিভাগ, বাংলাদেশ","Shadi Mohol Community Centre, ",,,Balaganj,বাংলাদেশ,সিলেট বিভাগ,local_admin,boundaries,['community_centre'],[],Bangladesh,Sylhet,Sylhet,Balaganj,GoulaBazar,70b5f8b6a1652000a1159696ca3ae320
4566,532479270,893cc4b4eb7ffff,24.70894307,91.73729052,Foreign Furniture Gallery,"Foreign Furniture Gallery, Balaganj, Sylhet District, Sylhet Division, Bangladesh","সিলেট জেলা, সিলেট বিভাগ, বাংলাদেশ","Foreign Furniture Gallery, ",,,Balaganj,বাংলাদেশ,সিলেট বিভাগ,local_admin,boundaries,['furniture'],[],Bangladesh,Sylhet,Sylhet,Balaganj,GoulaBazar,70b5f8b6a1652000a1159696ca3ae320
4569,532479328,893cc4b4eb7ffff,24.7092106,91.7363803,"Otobi Limited, Goalabazar Branch","Otobi Limited Goalabazar Branch, Balaganj, Sylhet District, Sylhet Division, Bangladesh","সিলেট জেলা, সিলেট বিভাগ, বাংলাদেশ","Otobi Limited Goalabazar Branch, ",,,Balaganj,বাংলাদেশ,সিলেট বিভাগ,local_admin,boundaries,['furniture'],[],Bangladesh,Sylhet,Sylhet,Balaganj,GoulaBazar,70b5f8b6a1652000a1159696ca3ae320
4572,532479664,893cc4b4ea3ffff,24.7084172,91.7364654,Hotel Osmani হোটেল ওসমানি,"Hotel Osmani, Balaganj, Sylhet District, Sylhet Division, Bangladesh","হোটেল ওসমানি, সিলেট জেলা, সিলেট বিভাগ, বাংলাদেশ",,,,Balaganj,বাংলাদেশ,সিলেট বিভাগ,local_admin,boundaries,['hotel'],[],Bangladesh,Sylhet,Sylhet,Balaganj,GoulaBazar,70b5f8b6a1652000a1159696ca3ae320
4576,532495120,893cc4b4ebbffff,24.70689185,91.7332645,Rjs Koroni Complex,"Rjs Koroni Complex, Balaganj, Sylhet District, Sylhet Division, Bangladesh","সিলেট জেলা, সিলেট বিভাগ, বাংলাদেশ","Rjs Koroni Complex, ",,,Balaganj,বাংলাদেশ,সিলেট বিভাগ,local_admin,boundaries,['supermarket'],[],Bangladesh,Sylhet,Sylhet,Balaganj,GoulaBazar,70b5f8b6a1652000a1159696ca3ae320
4578,532647489,893cc4b4ebbffff,24.70639602,91.73284691,আল হাসান ডিপার্টমেন্টাল ষ্টোর,"Balaganj, Sylhet District, Sylhet Division, Bangladesh","আল হাসান ডিপার্টমেন্টাল ষ্টোর, সিলেট জেলা, সিলেট বিভাগ, বাংলাদেশ",,"আল হাসান ডিপার্টমেন্টাল ষ্টোর, ",,Balaganj,বাংলাদেশ,সিলেট বিভাগ,local_admin,boundaries,['mall'],[],Bangladesh,Sylhet,Sylhet,Balaganj,GoulaBazar,70b5f8b6a1652000a1159696ca3ae320
4584,532648839,893cc4b4ebbffff,24.70589433,91.73293893,Al Gulab Shopping Complex,"Al Gulab Shopping Complex, Balaganj, Sylhet District, Sylhet Division, Bangladesh","সিলেট জেলা, সিলেট বিভাগ, বাংলাদেশ","Al Gulab Shopping Complex, ",,,Balaganj,বাংলাদেশ,সিলেট বিভাগ,local_admin,boundaries,['mall'],[],Bangladesh,Sylhet,Sylhet,Balaganj,GoulaBazar,70b5f8b6a1652000a1159696ca3ae320
4589,532649493,893cc4b4ebbffff,24.70595243,91.73239734,Agrani Bank Limited,"Agrani Bank Limited, Balaganj, Sylhet District, Sylhet Division, Bangladesh","সিলেট জেলা, সিলেট বিভাগ, বাংলাদেশ","Agrani Bank Limited, ",,,Balaganj,বাংলাদেশ,সিলেট বিভাগ,local_admin,boundaries,['bank'],[],Bangladesh,Sylhet,Sylhet,Balaganj,GoulaBazar,70b5f8b6a1652000a1159696ca3ae320
4590,532650401,893cc4b4ebbffff,24.70507739,91.7321287,EXIM Bank Limited,"EXIM Bank Limited, Balaganj, Sylhet District, Sylhet Division, Bangladesh","সিলেট জেলা, সিলেট বিভাগ, বাংলাদেশ","EXIM Bank Limited, ",,,Balaganj,বাংলাদেশ,সিলেট বিভাগ,local_admin,boundaries,['bank'],[],Bangladesh,Sylhet,Sylhet,Balaganj,GoulaBazar,70b5f8b6a1652000a1159696ca3ae320
4595,532651041,893cc4b4ebbffff,24.70514729,91.73163739,Dhaka Bank Limited,"Dhaka Bank Limited, Balaganj, Sylhet District, Sylhet Division, Bangladesh","সিলেট জেলা, সিলেট বিভাগ, বাংলাদেশ","Dhaka Bank Limited, ",,,Balaganj,বাংলাদেশ,সিলেট বিভাগ,local_admin,boundaries,['bank'],[],Bangladesh,Sylhet,Sylhet,Balaganj,GoulaBazar,70b5f8b6a1652000a1159696ca3ae320
4601,532651428,893cc4b4ebbffff,24.70495914,91.73191805,Dutch-Bangla Bank Limited,"Dutch-Bangla Bank Limited, Balaganj, Sylhet District, Sylhet Division, Bangladesh","সিলেট জেলা, সিলেট বিভাগ, বাংলাদেশ","Dutch-Bangla Bank Limited, ",,,Balaganj,বাংলাদেশ,সিলেট বিভাগ,local_admin,boundaries,['bank'],[],Bangladesh,Sylhet,Sylhet,Balaganj,GoulaBazar,70b5f8b6a1652000a1159696ca3ae320
4605,532654602,893cc4b4e8fffff,24.70462988,91.73097148,Hamdard Laboratories,"Hamdard Laboratories, Balaganj, Sylhet District, Sylhet Division, Bangladesh","সিলেট জেলা, সিলেট বিভাগ, বাংলাদেশ","Hamdard Laboratories, ",,,Balaganj,বাংলাদেশ,সিলেট বিভাগ,local_admin,boundaries,['pharmacy'],[],Bangladesh,Sylhet,Sylhet,Balaganj,GoulaBazar,70b5f8b6a1652000a1159696ca3ae320
4608,532654719,893cc4b4e17ffff,24.70431365,91.7316262,Fresh fish and vegetables market,"Fresh fish and vegetables market, Balaganj, Sylhet District, Sylhet Division, Bangladesh","সিলেট জেলা, সিলেট বিভাগ, বাংলাদেশ","Fresh fish and vegetables market, ",,,Balaganj,বাংলাদেশ,সিলেট বিভাগ,local_admin,boundaries,['marketplace'],[],Bangladesh,Sylhet,Sylhet,Balaganj,GoulaBazar,70b5f8b6a1652000a1159696ca3ae320
4611,532656081,893cc4b4e17ffff,24.70225557,91.73249753,Goalabazar Adarsha High School,"Goalabazar Adarsha High School, Balaganj, Sylhet District, Sylhet Division, Bangladesh","সিলেট জেলা, সিলেট বিভাগ, বাংলাদেশ","Goalabazar Adarsha High School, ",,,Balaganj,বাংলাদেশ,সিলেট বিভাগ,local_admin,boundaries,['school'],[],Bangladesh,Sylhet,Sylhet,Balaganj,GoulaBazar,70b5f8b6a1652000a1159696ca3ae320
4615,532656423,893cc4b5dcfffff,24.67610558,91.71937265,Rupali Bank Limited,"Rupali Bank Limited, Balaganj, Sylhet District, Sylhet Division, Bangladesh","সিলেট জেলা, সিলেট বিভাগ, বাংলাদেশ","Rupali Bank Limited, ",,,Balaganj,বাংলাদেশ,সিলেট বিভাগ,local_admin,boundaries,['bank'],[],Bangladesh,Sylhet,Sylhet,Balaganj,GoulaBazar,70b5f8b6a1652000a1159696ca3ae320
4631,539185616,893ce37a0bbffff,24.92177592,91.70546362,kazi bari Jame Mosque,"kazi bari Jame Mosque, Biswanath, Sylhet District, Sylhet Division, Bangladesh","সিলেট জেলা, সিলেট বিভাগ, বাংলাদেশ","kazi bari Jame Mosque, ",,,Biswanath,বাংলাদেশ,সিলেট বিভাগ,local_admin,boundaries,['place_of_worship_muslim'],[],Bangladesh,Sylhet,Sylhet,Bishwanath,LamaKazi,e1badf065ba4bd1ea64abd49b2eec233
4637,545820243,893ce378c67ffff,24.86877282,91.78854786,Pesi Khurma Jame Mosjid,"Pesi Khurma Jame Mosjid, Biswanath, Sylhet District, Sylhet Division, Bangladesh","সিলেট জেলা, সিলেট বিভাগ, বাংলাদেশ","Pesi Khurma Jame Mosjid, ",,,Biswanath,বাংলাদেশ,সিলেট বিভাগ,local_admin,boundaries,['place_of_worship_muslim'],[],Bangladesh,Sylhet,Sylhet,Bishwanath,Alankari,180584e25e2d1eb68b1d005cad610885
4668,558368063,893ce37250fffff,25.08562591,91.75657723,,"Companiganj Sylhet, Sylhet District, Sylhet Division, Bangladesh","সিলেট জেলা, সিলেট বিভাগ, বাংলাদেশ",,,,Companiganj (Sylhet),বাংলাদেশ,সিলেট বিভাগ,local_admin,boundaries,['hospital'],[],Bangladesh,Sylhet,Sylhet,Companiganj,IslampurPaschim,591449b9d04028c1fa84f845b118cd9e
4672,558368065,893ce37250fffff,25.08538861,91.75661626,Companygonj Upazila Health Complex,"Companygonj Upazila Health Complex, Companiganj Sylhet, Sylhet District, Sylhet Division, Bangladesh","সিলেট জেলা, সিলেট বিভাগ, বাংলাদেশ","Companygonj Upazila Health Complex, ",,,Companiganj (Sylhet),বাংলাদেশ,সিলেট বিভাগ,local_admin,boundaries,['hospital'],[],Bangladesh,Sylhet,Sylhet,Companiganj,IslampurPaschim,591449b9d04028c1fa84f845b118cd9e
4674,558368067,893ce37250fffff,25.08541597,91.75648051,,"Companiganj Sylhet, Sylhet District, Sylhet Division, Bangladesh","সিলেট জেলা, সিলেট বিভাগ, বাংলাদেশ",,,,Companiganj (Sylhet),বাংলাদেশ,সিলেট বিভাগ,local_admin,boundaries,['hospital'],[],Bangladesh,Sylhet,Sylhet,Companiganj,IslampurPaschim,591449b9d04028c1fa84f845b118cd9e
4929,904067304,893ce37168fffff,24.96439122,91.71401176,,"Chhatak, Sunamganj District, Sylhet Division, Bangladesh","সুনামগঞ্জ জেলা, সিলেট বিভাগ, বাংলাদেশ",,,,Chhatak,বাংলাদেশ,সিলেট বিভাগ,local_admin,boundaries,['ford'],[],Bangladesh,Sylhet,Sylhet,SylhetSadar,Jalalabad,68af165807a790038a7402ff18900b18
61,1072915058,893cc4b45afffff,24.7358832,91.70169525,,"Balaganj, Sylhet District, Sylhet Division, Bangladesh","সিলেট জেলা, সিলেট বিভাগ, বাংলাদেশ",,,,Balaganj,বাংলাদেশ,সিলেট বিভাগ,local_admin,boundaries,['ford'],[],Bangladesh,Sylhet,Sylhet,Balaganj,Omarpur,0f0d1ae5ffd8987189d885b0cb6e160f
65,1073410878,893ce36b06bffff,24.74545789,91.79699673,,"Balaganj, Sylhet District, Sylhet Division, Bangladesh","সিলেট জেলা, সিলেট বিভাগ, বাংলাদেশ",,,,Balaganj,বাংলাদেশ,সিলেট বিভাগ,local_admin,boundaries,['landfill'],[],Bangladesh,Sylhet,Sylhet,Balaganj,Osmanpur,3acb9db73179b45c0d6e7202dca5ec68
69,1073934020,893ce372acbffff,25.04111745,91.79930308,Borni High School,"Borni High School, Companiganj Sylhet, Sylhet District, Sylhet Division, Bangladesh","সিলেট জেলা, সিলেট বিভাগ, বাংলাদেশ","Borni High School, ",,,Companiganj (Sylhet),বাংলাদেশ,সিলেট বিভাগ,local_admin,boundaries,['school'],[],Bangladesh,Sylhet,Sylhet,Companiganj,RanikhaiDakshin,2261a31813457ea3a8e934a3151b35b5
82,1081748541,893ce30d0d7ffff,25.12250221,91.77560116,,"Companiganj Sylhet, Sylhet District, Sylhet Division, Bangladesh","সিলেট জেলা, সিলেট বিভাগ, বাংলাদেশ",,,,Companiganj (Sylhet),বাংলাদেশ,সিলেট বিভাগ,local_admin,boundaries,['park'],[],Bangladesh,Sylhet,Sylhet,Companiganj,IslampurPurba,16c7766340208ebb1082a9fb5e921acb
89,1084195472,893ce37801bffff,24.86011362,91.73061824,,"Biswanath, Sylhet District, Sylhet Division, Bangladesh","সিলেট জেলা, সিলেট বিভাগ, বাংলাদেশ",,,,Biswanath,বাংলাদেশ,সিলেট বিভাগ,local_admin,boundaries,['park'],[],Bangladesh,Sylhet,Sylhet,Bishwanath,Rampasha,b8beb2d3c588466c857ec1cdd28463df
93,1084195830,893ce378013ffff,24.86447275,91.72853159,,"Biswanath, Sylhet District, Sylhet Division, Bangladesh","সিলেট জেলা, সিলেট বিভাগ, বাংলাদেশ",,,,Biswanath,বাংলাদেশ,সিলেট বিভাগ,local_admin,boundaries,['school'],[],Bangladesh,Sylhet,Sylhet,Bishwanath,Rampasha,b8beb2d3c588466c857ec1cdd28463df
96,1084198130,893ce37801bffff,24.85995459,91.7292648,,"Biswanath, Sylhet District, Sylhet Division, Bangladesh","সিলেট জেলা, সিলেট বিভাগ, বাংলাদেশ",,,,Biswanath,বাংলাদেশ,সিলেট বিভাগ,local_admin,boundaries,['school'],[],Bangladesh,Sylhet,Sylhet,Bishwanath,Rampasha,b8beb2d3c588466c857ec1cdd28463df
101,1085522548,893ce3705a3ffff,25.04270807,91.7887744,Varni Government Primary School,"Varni Government Primary School, Companiganj Sylhet, Sylhet District, Sylhet Division, Bangladesh","সিলেট জেলা, সিলেট বিভাগ, বাংলাদেশ","Varni Government Primary School, ",,['বর্ণি সরকারী প্রাথমিক বিদ্যালয়'],Companiganj (Sylhet),বাংলাদেশ,সিলেট বিভাগ,local_admin,boundaries,['school'],[],Bangladesh,Sylhet,Sylhet,Companiganj,RanikhaiDakshin,2261a31813457ea3a8e934a3151b35b5
107,1086760802,893cc4b4d53ffff,24.7226501,91.7526822,কর্মসংস্থান ব্যাংক,"Balaganj, Sylhet District, Sylhet Division, Bangladesh","কর্মসংস্থান ব্যাংক, সিলেট জেলা, সিলেট বিভাগ, বাংলাদেশ",,"কর্মসংস্থান ব্যাংক, ",['Kormo Songsthan Bank'],Balaganj,বাংলাদেশ,সিলেট বিভাগ,local_admin,boundaries,['bank'],[],Bangladesh,Sylhet,Sylhet,Balaganj,Tajpur,7efd0b1ddf05c9957a8ac553dd1a6bad
110,1086760804,893cc4b4d53ffff,24.7229804,91.75299225,,"Balaganj, Sylhet District, Sylhet Division, Bangladesh","সিলেট জেলা, সিলেট বিভাগ, বাংলাদেশ",,,,Balaganj,বাংলাদেশ,সিলেট বিভাগ,local_admin,boundaries,['bank'],[],Bangladesh,Sylhet,Sylhet,Balaganj,Tajpur,7efd0b1ddf05c9957a8ac553dd1a6bad
122,1093942002,893ce3705b3ffff,25.04571136,91.78585262,Borni Boto Mosque,"Borni Boto Mosque, Companiganj Sylhet, Sylhet District, Sylhet Division, Bangladesh","সিলেট জেলা, সিলেট বিভাগ, বাংলাদেশ","Borni Boto Mosque, ",,,Companiganj (Sylhet),বাংলাদেশ,সিলেট বিভাগ,local_admin,boundaries,['place_of_worship_muslim'],[],Bangladesh,Sylhet,Sylhet,Companiganj,RanikhaiDakshin,2261a31813457ea3a8e934a3151b35b5
126,1095511152,893ce30d6b7ffff,25.12007501,91.76653682,,"Companiganj Sylhet, Sylhet District, Sylhet Division, Bangladesh","সিলেট জেলা, সিলেট বিভাগ, বাংলাদেশ",,,,Companiganj (Sylhet),বাংলাদেশ,সিলেট বিভাগ,local_admin,boundaries,['ford'],[],Bangladesh,Sylhet,Sylhet,Companiganj,IslampurPurba,16c7766340208ebb1082a9fb5e921acb
130,1097973017,893cc4a740bffff,24.61486395,91.7288701,,"Balaganj, Sylhet District, Sylhet Division, Bangladesh","সিলেট জেলা, সিলেট বিভাগ, বাংলাদেশ",,,,Balaganj,বাংলাদেশ,সিলেট বিভাগ,local_admin,boundaries,['ford'],[],Bangladesh,Sylhet,Sylhet,Balaganj,PurbaPailanpur,2f44b0eeb8e50f8d7537dd2e864c6ffb
134,1097973018,893cc4a740bffff,24.6158586,91.72781415,,"Balaganj, Sylhet District, Sylhet Division, Bangladesh","সিলেট জেলা, সিলেট বিভাগ, বাংলাদেশ",,,,Balaganj,বাংলাদেশ,সিলেট বিভাগ,local_admin,boundaries,['ford'],[],Bangladesh,Sylhet,Sylhet,Balaganj,PurbaPailanpur,2f44b0eeb8e50f8d7537dd2e864c6ffb
140,1097973024,893cc4a7417ffff,24.62090935,91.7303869,,"Balaganj, Sylhet District, Sylhet Division, Bangladesh","সিলেট জেলা, সিলেট বিভাগ, বাংলাদেশ",,,,Balaganj,বাংলাদেশ,সিলেট বিভাগ,local_admin,boundaries,['ford'],[],Bangladesh,Sylhet,Sylhet,Balaganj,PaschimPailanpur,65920e22e381ca0b2d9229630face5be
327,4705062897,893cc4a2dc3ffff,24.6274648,91.6762584,,,,,,,নবীগঞ্জ উপজেলা,বাংলাদেশ,সিলেট বিভাগ,housenumber,sameSource,['hotel'],[],Bangladesh,Sylhet,Sylhet,Balaganj,Sadipur,57f744cf3661901cbf69b9e515f33f04
506,5168444021,893cc4b5e0fffff,24.646227,91.69587369999999,Chatni Hotel,"Chatni Hotel, Balaganj, Sylhet District, Sylhet Division, Bangladesh","সিলেট জেলা, সিলেট বিভাগ, বাংলাদেশ","Chatni Hotel, ",,,Balaganj,বাংলাদেশ,সিলেট বিভাগ,local_admin,boundaries,['restaurant'],[],Bangladesh,Sylhet,Sylhet,Balaganj,Sadipur,57f744cf3661901cbf69b9e515f33f04
510,5168459797,893cc4a2d8bffff,24.6316603,91.6834187,Janata Bank Limited,"Janata Bank Limited, Balaganj, Sylhet District, Sylhet Division, Bangladesh","সিলেট জেলা, সিলেট বিভাগ, বাংলাদেশ","Janata Bank Limited, ",,,Balaganj,বাংলাদেশ,সিলেট বিভাগ,local_admin,boundaries,['bank'],[],Bangladesh,Sylhet,Sylhet,Balaganj,Sadipur,57f744cf3661901cbf69b9e515f33f04
514,5168461789,893cc4a2d8bffff,24.6315685,91.6833677,United Commercial Bank Limited,"United Commercial Bank Limited, Balaganj, Sylhet District, Sylhet Division, Bangladesh","সিলেট জেলা, সিলেট বিভাগ, বাংলাদেশ","United Commercial Bank Limited, ",,,Balaganj,বাংলাদেশ,সিলেট বিভাগ,local_admin,boundaries,['bank'],[],Bangladesh,Sylhet,Sylhet,Balaganj,Sadipur,57f744cf3661901cbf69b9e515f33f04
516,5168463881,893cc4a2dc7ffff,24.6302532,91.682019,Shayek Library and Computer Printer,"Shayek Library and Computer Printer, Balaganj, Sylhet District, Sylhet Division, Bangladesh","সিলেট জেলা, সিলেট বিভাগ, বাংলাদেশ","Shayek Library and Computer Printer, ",,,Balaganj,বাংলাদেশ,সিলেট বিভাগ,local_admin,boundaries,['bookshop'],[],Bangladesh,Sylhet,Sylhet,Balaganj,Sadipur,57f744cf3661901cbf69b9e515f33f04
520,5168466112,893cc4a2dc3ffff,24.6264325,91.6776948,মুক্তিযোদ্ধা চত্তর,"Nabiganj Upazila, Habiganj District, Sylhet Division, Bangladesh","মুক্তিযোদ্ধা চত্তর, নবীগঞ্জ উপজেলা, হবিগঞ্জ জেলা, সিলেট বিভাগ, বাংলাদেশ",,"মুক্তিযোদ্ধা চত্তর, ",,নবীগঞ্জ উপজেলা,বাংলাদেশ,সিলেট বিভাগ,local_admin,boundaries,['memorial'],[],Bangladesh,Sylhet,Sylhet,Balaganj,Sadipur,57f744cf3661901cbf69b9e515f33f04
523,5168466295,893cc4a2dc3ffff,24.6269902,91.6777635,Sherpur Bus Stand,"Sherpur Bus Stand, Nabiganj Upazila, Habiganj District, Sylhet Division, Bangladesh","নবীগঞ্জ উপজেলা, হবিগঞ্জ জেলা, সিলেট বিভাগ, বাংলাদেশ","Sherpur Bus Stand, ",,,নবীগঞ্জ উপজেলা,বাংলাদেশ,সিলেট বিভাগ,local_admin,boundaries,['bus_station'],[],Bangladesh,Sylhet,Sylhet,Balaganj,Sadipur,57f744cf3661901cbf69b9e515f33f04
671,280819262,893cc4b5d1bffff,24.67765545,91.72108905,ঢাকা-সিলেট মহাসড়ক,"Dhaka-Sylhet Highway, Balaganj, Sylhet District, Sylhet Division, Bangladesh","ঢাকা-সিলেট মহাসড়ক, সিলেট জেলা, সিলেট বিভাগ, বাংলাদেশ",,"ঢাকা-সিলেট মহাসড়ক, ",['Dhaka-Sylhet Highway'],Balaganj,বাংলাদেশ,সিলেট বিভাগ,street,,,,Bangladesh,Sylhet,Sylhet,Balaganj,Burunga,536354be2300ac97cf461c999372d17e
721,1107887337,893ce37980bffff,24.8064053,91.7611234,Jagannathpur Road,"Jagannathpur Road, Biswanath, Sylhet District, Sylhet Division, Bangladesh","সিলেট জেলা, সিলেট বিভাগ, বাংলাদেশ",Jagannathpur Road,,,Biswanath,বাংলাদেশ,সিলেট বিভাগ,street,,,,Bangladesh,Sylhet,Sylhet,Bishwanath,Bishwanath,d8c0408c266061c96e752ce9d24a9e49
745,5333457686,893cc4b513bffff,24.6653058,91.6817542,Niketon SD,"Niketon SD, Balaganj, Sylhet District, Sylhet Division, Bangladesh","সিলেট জেলা, সিলেট বিভাগ, বাংলাদেশ","Niketon SD, ",,,Balaganj,বাংলাদেশ,সিলেট বিভাগ,local_admin,boundaries,['bar'],[],Bangladesh,Sylhet,Sylhet,Balaganj,Sadipur,57f744cf3661901cbf69b9e515f33f04
793,410348820,893ce379e77ffff,24.79757128883711,91.74273218527922,Jagannathpur Road,"Jagannathpur Road, Biswanath, Sylhet District, Sylhet Division, Bangladesh","সিলেট জেলা, সিলেট বিভাগ, বাংলাদেশ",Jagannathpur Road,,,Biswanath,বাংলাদেশ,সিলেট বিভাগ,street,,,,Bangladesh,Sylhet,Sylhet,Bishwanath,Bishwanath,d8c0408c266061c96e752ce9d24a9e49
821,280819251,893cc4b5e37ffff,24.652856703516267,91.70242279345474,ঢাকা-সিলেট মহাসড়ক,"Dhaka-Sylhet Highway, Balaganj, Sylhet District, Sylhet Division, Bangladesh","ঢাকা-সিলেট মহাসড়ক, সিলেট জেলা, সিলেট বিভাগ, বাংলাদেশ",,"ঢাকা-সিলেট মহাসড়ক, ",['Dhaka-Sylhet Highway'],Balaganj,বাংলাদেশ,সিলেট বিভাগ,street,,,,Bangladesh,Sylhet,Sylhet,Balaganj,Sadipur,57f744cf3661901cbf69b9e515f33f04
836,280819257,893cc4b5d5bffff,24.6712839,91.71542715,ঢাকা-সিলেট মহাসড়ক,"Dhaka-Sylhet Highway, Balaganj, Sylhet District, Sylhet Division, Bangladesh","ঢাকা-সিলেট মহাসড়ক, সিলেট জেলা, সিলেট বিভাগ, বাংলাদেশ",,"ঢাকা-সিলেট মহাসড়ক, ",['Dhaka-Sylhet Highway'],Balaganj,বাংলাদেশ,সিলেট বিভাগ,street,,,,Bangladesh,Sylhet,Sylhet,Balaganj,Sadipur,57f744cf3661901cbf69b9e515f33f04
914,556873282,893ce379853ffff,24.803820044042485,91.75567733448248,Jagannathpur Road,"Jagannathpur Road, Biswanath, Sylhet District, Sylhet Division, Bangladesh","সিলেট জেলা, সিলেট বিভাগ, বাংলাদেশ",Jagannathpur Road,,,Biswanath,বাংলাদেশ,সিলেট বিভাগ,street,,,,Bangladesh,Sylhet,Sylhet,Bishwanath,Bishwanath,d8c0408c266061c96e752ce9d24a9e49
948,1078119071,893cc4b6dafffff,24.786887174738464,91.74029615564444,Monaikandi Road,"Monaikandi Road, Biswanath, Sylhet District, Sylhet Division, Bangladesh","সিলেট জেলা, সিলেট বিভাগ, বাংলাদেশ",Monaikandi Road,,,Biswanath,বাংলাদেশ,সিলেট বিভাগ,street,,,,Bangladesh,Sylhet,Sylhet,Bishwanath,Deokalas,d373bd9353446259236a5313d254d3da
1035,466540925,893cc4b5c4bffff,24.66019783208033,91.69436301725705,Osmani Road,"Osmani Road, Balaganj, Sylhet District, Sylhet Division, Bangladesh","সিলেট জেলা, সিলেট বিভাগ, বাংলাদেশ",Osmani Road,,,Balaganj,বাংলাদেশ,সিলেট বিভাগ,street,,,,Bangladesh,Sylhet,Sylhet,Balaganj,Sadipur,57f744cf3661901cbf69b9e515f33f04
1142,7036635991,893ce3732c7ffff,24.9982255,91.6968781,,"Companiganj Sylhet, Sylhet District, Sylhet Division, Bangladesh","সিলেট জেলা, সিলেট বিভাগ, বাংলাদেশ",,,,Companiganj (Sylhet),বাংলাদেশ,সিলেট বিভাগ,local_admin,boundaries,['ford'],[],Bangladesh,Sylhet,Sylhet,Companiganj,Ishakalas,7c6ed8c7b4208707c8ae7f70a0635140
1223,280819277,893ce378b7bffff,24.835783323936987,91.82023686406093,ঢাকা-সিলেট মহাসড়ক,"Dhaka-Sylhet Highway, Sylhet, Sylhet District, Sylhet Division, Bangladesh","ঢাকা-সিলেট মহাসড়ক, সিলেট জেলা, সিলেট বিভাগ, বাংলাদেশ",,"ঢাকা-সিলেট মহাসড়ক, ",['Dhaka-Sylhet Highway'],Sylhet,বাংলাদেশ,সিলেট বিভাগ,street,,,,Bangladesh,Sylhet,Sylhet,DakshinSurma,Tetli,1cca3a3629b310b63fdc60555fa7fbf4
1227,280819277,893ce378b7bffff,24.835783323936987,91.82023686406093,ঢাকা-সিলেট মহাসড়ক,"Dhaka-Sylhet Highway, Biswanath, Sylhet District, Sylhet Division, Bangladesh","ঢাকা-সিলেট মহাসড়ক, সিলেট জেলা, সিলেট বিভাগ, বাংলাদেশ",,"ঢাকা-সিলেট মহাসড়ক, ",['Dhaka-Sylhet Highway'],Biswanath,বাংলাদেশ,সিলেট বিভাগ,street,,,,Bangladesh,Sylhet,Sylhet,DakshinSurma,Tetli,1cca3a3629b310b63fdc60555fa7fbf4
1247,9851418246,893ce37a21bffff,24.8920809,91.6941327,,"Biswanath, Sylhet District, Sylhet Division, Bangladesh","সিলেট জেলা, সিলেট বিভাগ, বাংলাদেশ",,,,Biswanath,বাংলাদেশ,সিলেট বিভাগ,local_admin,boundaries,['ford'],[],Bangladesh,Sylhet,Sylhet,Bishwanath,LamaKazi,e1badf065ba4bd1ea64abd49b2eec233
1251,9858276058,893cc4b5027ffff,24.658247199999998,91.6640506,,"Balaganj, Sylhet District, Sylhet Division, Bangladesh","সিলেট জেলা, সিলেট বিভাগ, বাংলাদেশ",,,,Balaganj,বাংলাদেশ,সিলেট বিভাগ,local_admin,boundaries,['ford'],[],Bangladesh,Sylhet,Sylhet,Balaganj,Sadipur,57f744cf3661901cbf69b9e515f33f04
1300,10139053514,893cc4b508fffff,24.6651315,91.6503927,,"Nabiganj Upazila, Habiganj District, Sylhet Division, Bangladesh","নবীগঞ্জ উপজেলা, হবিগঞ্জ জেলা, সিলেট বিভাগ, বাংলাদেশ",,,,নবীগঞ্জ উপজেলা,বাংলাদেশ,সিলেট বিভাগ,local_admin,boundaries,['ford'],[],Bangladesh,Sylhet,Sylhet,Balaganj,Sadipur,57f744cf3661901cbf69b9e515f33f04
1312,280833511,893ce37a55bffff,24.927890586297277,91.69937204969773,Sunamganj - Sylhet Highway,"Sunamganj - Sylhet Highway, Biswanath, Sylhet District, Sylhet Division, Bangladesh","সিলেট জেলা, সিলেট বিভাগ, বাংলাদেশ",Sunamganj - Sylhet Highway,,,Biswanath,বাংলাদেশ,সিলেট বিভাগ,street,,,,Bangladesh,Sylhet,Sylhet,Bishwanath,LamaKazi,e1badf065ba4bd1ea64abd49b2eec233
1353,470472390,893cc4b5c5bffff,24.66229305,91.69173325,,"Balaganj, Sylhet District, Sylhet Division, Bangladesh","সিলেট জেলা, সিলেট বিভাগ, বাংলাদেশ",,,,Balaganj,বাংলাদেশ,সিলেট বিভাগ,local_admin,boundaries,['ford'],[],Bangladesh,Sylhet,Sylhet,Balaganj,Sadipur,57f744cf3661901cbf69b9e515f33f04
1386,556865581,893ce379973ffff,24.8107318,91.7898844,Jagannathpur Road,"Jagannathpur Road, Biswanath, Sylhet District, Sylhet Division, Bangladesh","সিলেট জেলা, সিলেট বিভাগ, বাংলাদেশ",Jagannathpur Road,,,Biswanath,বাংলাদেশ,সিলেট বিভাগ,street,,,,Bangladesh,Sylhet,Sylhet,DakshinSurma,LalaBazar,c0671d00bdec2492af4ea36a95c9473c
1402,280819264,893cc4b5d13ffff,24.680185299999998,91.7230898,ঢাকা-সিলেট মহাসড়ক,"Dhaka-Sylhet Highway, Balaganj, Sylhet District, Sylhet Division, Bangladesh","ঢাকা-সিলেট মহাসড়ক, সিলেট জেলা, সিলেট বিভাগ, বাংলাদেশ",,"ঢাকা-সিলেট মহাসড়ক, ",['Dhaka-Sylhet Highway'],Balaganj,বাংলাদেশ,সিলেট বিভাগ,street,,,,Bangladesh,Sylhet,Sylhet,Balaganj,Burunga,536354be2300ac97cf461c999372d17e
1403,280819264,893cc4b5d13ffff,24.680185299999998,91.7230898,ঢাকা-সিলেট মহাসড়ক,"Dhaka-Sylhet Highway, Balaganj, Sylhet District, Sylhet Division, Bangladesh","ঢাকা-সিলেট মহাসড়ক, সিলেট জেলা, সিলেট বিভাগ, বাংলাদেশ",,"ঢাকা-সিলেট মহাসড়ক, ",['Dhaka-Sylhet Highway'],Balaganj,বাংলাদেশ,সিলেট বিভাগ,street,,,,Bangladesh,Sylhet,Sylhet,Balaganj,GoulaBazar,70b5f8b6a1652000a1159696ca3ae320
1431,507043939,893cc4b522fffff,24.63549602,91.65783027,Bibiyana,"Bibiyana, Nabiganj Upazila, Habiganj District, Sylhet Division, Bangladesh","নবীগঞ্জ উপজেলা, হবিগঞ্জ জেলা, সিলেট বিভাগ, বাংলাদেশ","Bibiyana, ",,,নবীগঞ্জ উপজেলা,বাংলাদেশ,সিলেট বিভাগ,local_admin,boundaries,['substation'],[],Bangladesh,Sylhet,Sylhet,Balaganj,Sadipur,57f744cf3661901cbf69b9e515f33f04
1433,280819266,893cc4b5897ffff,24.66758821171268,91.71378560379775,ঢাকা-সিলেট মহাসড়ক,"Dhaka-Sylhet Highway, Balaganj, Sylhet District, Sylhet Division, Bangladesh","ঢাকা-সিলেট মহাসড়ক, সিলেট জেলা, সিলেট বিভাগ, বাংলাদেশ",,"ঢাকা-সিলেট মহাসড়ক, ",['Dhaka-Sylhet Highway'],Balaganj,বাংলাদেশ,সিলেট বিভাগ,street,,,,Bangladesh,Sylhet,Sylhet,Balaganj,Sadipur,57f744cf3661901cbf69b9e515f33f04
1462,696765935,893cc4b4c4bffff,24.710641506961654,91.73151511623303,Dashpara Road,"Dashpara Road, Balaganj, Sylhet District, Sylhet Division, Bangladesh","সিলেট জেলা, সিলেট বিভাগ, বাংলাদেশ",Dashpara Road,,,Balaganj,বাংলাদেশ,সিলেট বিভাগ,street,,,,Bangladesh,Sylhet,Sylhet,Balaganj,GoulaBazar,70b5f8b6a1652000a1159696ca3ae320
1478,1104916662,893ce37983bffff,24.80794485,91.76901774999999,Jagannathpur Road,"Jagannathpur Road, Biswanath, Sylhet District, Sylhet Division, Bangladesh","সিলেট জেলা, সিলেট বিভাগ, বাংলাদেশ",Jagannathpur Road,,,Biswanath,বাংলাদেশ,সিলেট বিভাগ,street,,,,Bangladesh,Sylhet,Sylhet,Bishwanath,Bishwanath,d8c0408c266061c96e752ce9d24a9e49
1584,280819271,893cc4b5dcfffff,24.6745533850864,91.71824719682755,ঢাকা-সিলেট মহাসড়ক,"Dhaka-Sylhet Highway, Balaganj, Sylhet District, Sylhet Division, Bangladesh","ঢাকা-সিলেট মহাসড়ক, সিলেট জেলা, সিলেট বিভাগ, বাংলাদেশ",,"ঢাকা-সিলেট মহাসড়ক, ",['Dhaka-Sylhet Highway'],Balaganj,বাংলাদেশ,সিলেট বিভাগ,street,,,,Bangladesh,Sylhet,Sylhet,Balaganj,GoulaBazar,70b5f8b6a1652000a1159696ca3ae320
1620,696765934,893cc4b4eb3ffff,24.708300274752023,91.73325049249397,Dashpara Road,"Dashpara Road, Balaganj, Sylhet District, Sylhet Division, Bangladesh","সিলেট জেলা, সিলেট বিভাগ, বাংলাদেশ",Dashpara Road,,,Balaganj,বাংলাদেশ,সিলেট বিভাগ,street,,,,Bangladesh,Sylhet,Sylhet,Balaganj,GoulaBazar,70b5f8b6a1652000a1159696ca3ae320
1668,545793248,893ce371e77ffff,24.95163811029342,91.7874210121197,Maj Para Road,"Maj Para Road, Sylhet, Sylhet District, Sylhet Division, Bangladesh","সিলেট জেলা, সিলেট বিভাগ, বাংলাদেশ",Maj Para Road,,,Sylhet,বাংলাদেশ,সিলেট বিভাগ,street,,,,Bangladesh,Sylhet,Sylhet,SylhetSadar,Hatkhola,656775262324d56f51ba16afbe77a8b0
1693,280819272,893cc4b4dafffff,24.734211407919314,91.76934178974172,ঢাকা-সিলেট মহাসড়ক,"Dhaka-Sylhet Highway, Balaganj, Sylhet District, Sylhet Division, Bangladesh","ঢাকা-সিলেট মহাসড়ক, সিলেট জেলা, সিলেট বিভাগ, বাংলাদেশ",,"ঢাকা-সিলেট মহাসড়ক, ",['Dhaka-Sylhet Highway'],Balaganj,বাংলাদেশ,সিলেট বিভাগ,street,,,,Bangladesh,Sylhet,Sylhet,Balaganj,Osmanpur,3acb9db73179b45c0d6e7202dca5ec68
1697,280819272,893cc4b4dafffff,24.734211407919314,91.76934178974172,ঢাকা-সিলেট মহাসড়ক,"Dhaka-Sylhet Highway, Sylhet, Sylhet District, Sylhet Division, Bangladesh","ঢাকা-সিলেট মহাসড়ক, সিলেট জেলা, সিলেট বিভাগ, বাংলাদেশ",,"ঢাকা-সিলেট মহাসড়ক, ",['Dhaka-Sylhet Highway'],Sylhet,বাংলাদেশ,সিলেট বিভাগ,street,,,,Bangladesh,Sylhet,Sylhet,Balaganj,Osmanpur,3acb9db73179b45c0d6e7202dca5ec68
1701,280819272,893cc4b4dafffff,24.734211407919314,91.76934178974172,ঢাকা-সিলেট মহাসড়ক,"Dhaka-Sylhet Highway, Biswanath, Sylhet District, Sylhet Division, Bangladesh","ঢাকা-সিলেট মহাসড়ক, সিলেট জেলা, সিলেট বিভাগ, বাংলাদেশ",,"ঢাকা-সিলেট মহাসড়ক, ",['Dhaka-Sylhet Highway'],Biswanath,বাংলাদেশ,সিলেট বিভাগ,street,,,,Bangladesh,Sylhet,Sylhet,Balaganj,Osmanpur,3acb9db73179b45c0d6e7202dca5ec68
1822,280833519,893ce37a943ffff,24.91165616365366,91.78951807608343,Sunamganj - Sylhet Highway,"Sunamganj - Sylhet Highway, Sylhet, Sylhet District, Sylhet Division, Bangladesh","সিলেট জেলা, সিলেট বিভাগ, বাংলাদেশ",Sunamganj - Sylhet Highway,,,Sylhet,বাংলাদেশ,সিলেট বিভাগ,street,,,,Bangladesh,Sylhet,Sylhet,SylhetSadar,Kandigaon,65904a899bb32943631b87838f4f1fc2
1826,280833519,893ce37a943ffff,24.91165616365366,91.78951807608343,Sunamganj - Sylhet Highway,"Sunamganj - Sylhet Highway, Biswanath, Sylhet District, Sylhet Division, Bangladesh","সিলেট জেলা, সিলেট বিভাগ, বাংলাদেশ",Sunamganj - Sylhet Highway,,,Biswanath,বাংলাদেশ,সিলেট বিভাগ,street,,,,Bangladesh,Sylhet,Sylhet,SylhetSadar,Kandigaon,65904a899bb32943631b87838f4f1fc2
1859,280833515,893ce37a0a3ffff,24.920733050000003,91.70819455,Sunamganj - Sylhet Highway,"Sunamganj - Sylhet Highway, Biswanath, Sylhet District, Sylhet Division, Bangladesh","সিলেট জেলা, সিলেট বিভাগ, বাংলাদেশ",Sunamganj - Sylhet Highway,,,Biswanath,বাংলাদেশ,সিলেট বিভাগ,street,,,,Bangladesh,Sylhet,Sylhet,Bishwanath,LamaKazi,e1badf065ba4bd1ea64abd49b2eec233
1860,532657271,893cc4b5e0bffff,24.64560039,91.69448358,Hajrat Shajalal Jame Mosque,"Hajrat Shajalal Jame Mosque, Balaganj, Sylhet District, Sylhet Division, Bangladesh","সিলেট জেলা, সিলেট বিভাগ, বাংলাদেশ","Hajrat Shajalal Jame Mosque, ",,,Balaganj,বাংলাদেশ,সিলেট বিভাগ,local_admin,boundaries,['place_of_worship_muslim'],[],Bangladesh,Sylhet,Sylhet,Balaganj,Sadipur,57f744cf3661901cbf69b9e515f33f04
1864,532658266,893cc4b5e43ffff,24.641201,91.68949294,Haque Brothers Market,"Haque Brothers Market, Balaganj, Sylhet District, Sylhet Division, Bangladesh","সিলেট জেলা, সিলেট বিভাগ, বাংলাদেশ","Haque Brothers Market, ",,,Balaganj,বাংলাদেশ,সিলেট বিভাগ,local_admin,boundaries,['marketplace'],[],Bangladesh,Sylhet,Sylhet,Balaganj,Sadipur,57f744cf3661901cbf69b9e515f33f04
1867,532658299,893cc4b5e4fffff,24.6400553,91.690711,Sadipur Eidgah Shadipur,"Sadipur Eidgah Shadipur, Balaganj, Sylhet District, Sylhet Division, Bangladesh","সিলেট জেলা, সিলেট বিভাগ, বাংলাদেশ","Sadipur Eidgah Shadipur, ",,,Balaganj,বাংলাদেশ,সিলেট বিভাগ,local_admin,boundaries,['place_of_worship_muslim'],[],Bangladesh,Sylhet,Sylhet,Balaganj,Sadipur,57f744cf3661901cbf69b9e515f33f04
1871,532658518,893cc4a2d8fffff,24.63399001,91.68457359,,"Balaganj, Sylhet District, Sylhet Division, Bangladesh","সিলেট জেলা, সিলেট বিভাগ, বাংলাদেশ",,,,Balaganj,বাংলাদেশ,সিলেট বিভাগ,local_admin,boundaries,['toll_booth'],[],Bangladesh,Sylhet,Sylhet,Balaganj,Sadipur,57f744cf3661901cbf69b9e515f33f04
1875,532659035,893cc4a2dc7ffff,24.62999161,91.68052205,Sherpur Bridge,"Sherpur Bridge, Balaganj, Sylhet District, Sylhet Division, Bangladesh","সিলেট জেলা, সিলেট বিভাগ, বাংলাদেশ","Sherpur Bridge, ",,,Balaganj,বাংলাদেশ,সিলেট বিভাগ,local_admin,boundaries,['bridge'],[],Bangladesh,Sylhet,Sylhet,Balaganj,Sadipur,57f744cf3661901cbf69b9e515f33f04
1876,556866106,893ce379953ffff,24.81088160984129,91.7797142355923,Jagannathpur Road,"Jagannathpur Road, Biswanath, Sylhet District, Sylhet Division, Bangladesh","সিলেট জেলা, সিলেট বিভাগ, বাংলাদেশ",Jagannathpur Road,,,Biswanath,বাংলাদেশ,সিলেট বিভাগ,street,,,,Bangladesh,Sylhet,Sylhet,Bishwanath,Bishwanath,d8c0408c266061c96e752ce9d24a9e49
1885,280819253,893ce379b33ffff,24.79607445,91.78959565,ঢাকা-সিলেট মহাসড়ক,"Dhaka-Sylhet Highway, Biswanath, Sylhet District, Sylhet Division, Bangladesh","ঢাকা-সিলেট মহাসড়ক, সিলেট জেলা, সিলেট বিভাগ, বাংলাদেশ",,"ঢাকা-সিলেট মহাসড়ক, ",['Dhaka-Sylhet Highway'],Biswanath,বাংলাদেশ,সিলেট বিভাগ,street,,,,Bangladesh,Sylhet,Sylhet,Balaganj,Dayamir,60e75fc0a00eb391e47e3e95670e7542
1896,556865582,893ce379977ffff,24.810705849999998,91.7911212,Jagannathpur Road,"Jagannathpur Road, Biswanath, Sylhet District, Sylhet Division, Bangladesh","সিলেট জেলা, সিলেট বিভাগ, বাংলাদেশ",Jagannathpur Road,,,Biswanath,বাংলাদেশ,সিলেট বিভাগ,street,,,,Bangladesh,Sylhet,Sylhet,DakshinSurma,LalaBazar,c0671d00bdec2492af4ea36a95c9473c
1923,280819259,893cc4b589bffff,24.6637671,91.7118385,ঢাকা-সিলেট মহাসড়ক,"Dhaka-Sylhet Highway, Balaganj, Sylhet District, Sylhet Division, Bangladesh","ঢাকা-সিলেট মহাসড়ক, সিলেট জেলা, সিলেট বিভাগ, বাংলাদেশ",,"ঢাকা-সিলেট মহাসড়ক, ",['Dhaka-Sylhet Highway'],Balaganj,বাংলাদেশ,সিলেট বিভাগ,street,,,,Bangladesh,Sylhet,Sylhet,Balaganj,GoulaBazar,70b5f8b6a1652000a1159696ca3ae320
1924,280819259,893cc4b589bffff,24.6637671,91.7118385,ঢাকা-সিলেট মহাসড়ক,"Dhaka-Sylhet Highway, Balaganj, Sylhet District, Sylhet Division, Bangladesh","ঢাকা-সিলেট মহাসড়ক, সিলেট জেলা, সিলেট বিভাগ, বাংলাদেশ",,"ঢাকা-সিলেট মহাসড়ক, ",['Dhaka-Sylhet Highway'],Balaganj,বাংলাদেশ,সিলেট বিভাগ,street,,,,Bangladesh,Sylhet,Sylhet,Balaganj,Sadipur,57f744cf3661901cbf69b9e515f33f04
2012,556011512,893cc4b5123ffff,24.6639858,91.6869861,Noor Pur Mosque,"Noor Pur Mosque, Balaganj, Sylhet District, Sylhet Division, Bangladesh","সিলেট জেলা, সিলেট বিভাগ, বাংলাদেশ","Noor Pur Mosque, ",,,Balaganj,বাংলাদেশ,সিলেট বিভাগ,local_admin,boundaries,['place_of_worship_muslim'],[],Bangladesh,Sylhet,Sylhet,Balaganj,Sadipur,57f744cf3661901cbf69b9e515f33f04
2015,556011513,893cc4b512fffff,24.66382704,91.68699825,Noor Pur Mosque Eidgah,"Noor Pur Mosque Eidgah, Balaganj, Sylhet District, Sylhet Division, Bangladesh","সিলেট জেলা, সিলেট বিভাগ, বাংলাদেশ","Noor Pur Mosque Eidgah, ",,,Balaganj,বাংলাদেশ,সিলেট বিভাগ,local_admin,boundaries,['place_of_worship_muslim'],[],Bangladesh,Sylhet,Sylhet,Balaganj,Sadipur,57f744cf3661901cbf69b9e515f33f04
2078,1104916661,893ce379823ffff,24.8103026493968,91.77226733948989,Jagannathpur Road,"Jagannathpur Road, Biswanath, Sylhet District, Sylhet Division, Bangladesh","সিলেট জেলা, সিলেট বিভাগ, বাংলাদেশ",Jagannathpur Road,,,Biswanath,বাংলাদেশ,সিলেট বিভাগ,street,,,,Bangladesh,Sylhet,Sylhet,Bishwanath,Bishwanath,d8c0408c266061c96e752ce9d24a9e49
2116,280819254,893cc4b5d87ffff,24.686552149999997,91.7244068,ঢাকা-সিলেট মহাসড়ক,"Dhaka-Sylhet Highway, Balaganj, Sylhet District, Sylhet Division, Bangladesh","ঢাকা-সিলেট মহাসড়ক, সিলেট জেলা, সিলেট বিভাগ, বাংলাদেশ",,"ঢাকা-সিলেট মহাসড়ক, ",['Dhaka-Sylhet Highway'],Balaganj,বাংলাদেশ,সিলেট বিভাগ,street,,,,Bangladesh,Sylhet,Sylhet,Balaganj,GoulaBazar,70b5f8b6a1652000a1159696ca3ae320
2130,1098510783,893cc4b5e7bffff,24.640059,91.69548802,,"Balaganj, Sylhet District, Sylhet Division, Bangladesh","সিলেট জেলা, সিলেট বিভাগ, বাংলাদেশ",,,,Balaganj,বাংলাদেশ,সিলেট বিভাগ,local_admin,boundaries,['ford'],[],Bangladesh,Sylhet,Sylhet,Balaganj,Sadipur,57f744cf3661901cbf69b9e515f33f04
2160,4705062897,893cc4a2dc3ffff,24.6274648,91.6762584,,,,,,,নবীগঞ্জ উপজেলা,বাংলাদেশ,সিলেট বিভাগ,housenumber,,,,Bangladesh,Sylhet,Sylhet,Balaganj,Sadipur,57f744cf3661901cbf69b9e515f33f04
2167,280819269,893cc4b5d13ffff,24.67880850161873,91.72214831118774,ঢাকা-সিলেট মহাসড়ক,"Dhaka-Sylhet Highway, Balaganj, Sylhet District, Sylhet Division, Bangladesh","ঢাকা-সিলেট মহাসড়ক, সিলেট জেলা, সিলেট বিভাগ, বাংলাদেশ",,"ঢাকা-সিলেট মহাসড়ক, ",['Dhaka-Sylhet Highway'],Balaganj,বাংলাদেশ,সিলেট বিভাগ,street,,,,Bangladesh,Sylhet,Sylhet,Balaganj,Burunga,536354be2300ac97cf461c999372d17e
2168,280819269,893cc4b5d13ffff,24.67880850161873,91.72214831118774,ঢাকা-সিলেট মহাসড়ক,"Dhaka-Sylhet Highway, Balaganj, Sylhet District, Sylhet Division, Bangladesh","ঢাকা-সিলেট মহাসড়ক, সিলেট জেলা, সিলেট বিভাগ, বাংলাদেশ",,"ঢাকা-সিলেট মহাসড়ক, ",['Dhaka-Sylhet Highway'],Balaganj,বাংলাদেশ,সিলেট বিভাগ,street,,,,Bangladesh,Sylhet,Sylhet,Balaganj,GoulaBazar,70b5f8b6a1652000a1159696ca3ae320
2223,280833510,893ce37a8dbffff,24.910554362082387,91.75770619852506,Sunamganj - Sylhet Highway,"Sunamganj - Sylhet Highway, Sylhet, Sylhet District, Sylhet Division, Bangladesh","সিলেট জেলা, সিলেট বিভাগ, বাংলাদেশ",Sunamganj - Sylhet Highway,,,Sylhet,বাংলাদেশ,সিলেট বিভাগ,street,,,,Bangladesh,Sylhet,Sylhet,SylhetSadar,Mogalgaon,04d1a26c2c4fe52f6e822d54f192f850
2245,556869189,893ce34cb67ffff,24.7929155,91.65544575000001,Jagannathpur Road,"Jagannathpur Road, Jagannathpur, Sunamganj District, Sylhet Division, Bangladesh","সুনামগঞ্জ জেলা, সিলেট বিভাগ, বাংলাদেশ",Jagannathpur Road,,,Jagannathpur,বাংলাদেশ,সিলেট বিভাগ,street,,,,Bangladesh,Sylhet,Sylhet,Bishwanath,Dasghar,dd5c2a7c6b4162086738e14522ab3193
2261,1074907163,893cc4b513bffff,24.663503300000002,91.68104475,Osmani Road,"Osmani Road, Balaganj, Sylhet District, Sylhet Division, Bangladesh","সিলেট জেলা, সিলেট বিভাগ, বাংলাদেশ",Osmani Road,,,Balaganj,বাংলাদেশ,সিলেট বিভাগ,street,,,,Bangladesh,Sylhet,Sylhet,Balaganj,Sadipur,57f744cf3661901cbf69b9e515f33f04
2266,556865580,893cc4b6db7ffff,24.790658049999998,91.73882015000001,Jagannathpur Road,"Jagannathpur Road, Biswanath, Sylhet District, Sylhet Division, Bangladesh","সিলেট জেলা, সিলেট বিভাগ, বাংলাদেশ",Jagannathpur Road,,,Biswanath,বাংলাদেশ,সিলেট বিভাগ,street,,,,Bangladesh,Sylhet,Sylhet,Bishwanath,Deokalas,d373bd9353446259236a5313d254d3da
2279,1095343149,893cc4b712fffff,24.714488886012717,91.65866382497052,Afford St,"Afford St, Balaganj, Sylhet District, Sylhet Division, Bangladesh","সিলেট জেলা, সিলেট বিভাগ, বাংলাদেশ",Afford St,,,Balaganj,বাংলাদেশ,সিলেট বিভাগ,street,,,,Bangladesh,Sylhet,Sylhet,Balaganj,Omarpur,0f0d1ae5ffd8987189d885b0cb6e160f
2287,280833514,893ce37a16fffff,24.9098263,91.73457475000001,Sunamganj - Sylhet Highway,"Sunamganj - Sylhet Highway, Biswanath, Sylhet District, Sylhet Division, Bangladesh","সিলেট জেলা, সিলেট বিভাগ, বাংলাদেশ",Sunamganj - Sylhet Highway,,,Biswanath,বাংলাদেশ,সিলেট বিভাগ,street,,,,Bangladesh,Sylhet,Sylhet,Bishwanath,LamaKazi,e1badf065ba4bd1ea64abd49b2eec233
2298,1082033867,893cc4b4b9bffff,24.698810260347162,91.76528355693729,Chandairpara-Nashirpur Road,"Chandairpara-Nashirpur Road, Balaganj, Sylhet District, Sylhet Division, Bangladesh","সিলেট জেলা, সিলেট বিভাগ, বাংলাদেশ",Chandairpara-Nashirpur Road,,,Balaganj,বাংলাদেশ,সিলেট বিভাগ,street,,,,Bangladesh,Sylhet,Sylhet,Balaganj,BoaljurBazar,e23d5c093d0509bc77bdd5e65250d5db
2316,280819261,893cc4b5e47ffff,24.64272545,91.69148095,ঢাকা-সিলেট মহাসড়ক,"Dhaka-Sylhet Highway, Balaganj, Sylhet District, Sylhet Division, Bangladesh","ঢাকা-সিলেট মহাসড়ক, সিলেট জেলা, সিলেট বিভাগ, বাংলাদেশ",,"ঢাকা-সিলেট মহাসড়ক, ",['Dhaka-Sylhet Highway'],Balaganj,বাংলাদেশ,সিলেট বিভাগ,street,,,,Bangladesh,Sylhet,Sylhet,Balaganj,Sadipur,57f744cf3661901cbf69b9e515f33f04
2328,617083904,893cc4b4d53ffff,24.722329698723662,91.75472215012896,Khasipara-Tajpur Road,"Khasipara-Tajpur Road, Balaganj, Sylhet District, Sylhet Division, Bangladesh","সিলেট জেলা, সিলেট বিভাগ, বাংলাদেশ",Khasipara-Tajpur Road,,,Balaganj,বাংলাদেশ,সিলেট বিভাগ,street,,,,Bangladesh,Sylhet,Sylhet,Balaganj,Tajpur,7efd0b1ddf05c9957a8ac553dd1a6bad
2338,588571134,893cc4a2d13ffff,24.629064904192337,91.68420680924174,Fazilpur Road,"Fazilpur Road, Balaganj, Sylhet District, Sylhet Division, Bangladesh","ফাজিলপুর রোড, সিলেট জেলা, সিলেট বিভাগ, বাংলাদেশ","Fazilpur Road, ",,['ফাজিলপুর রোড'],Balaganj,বাংলাদেশ,সিলেট বিভাগ,street,,,,Bangladesh,Sylhet,Sylhet,Balaganj,Sadipur,57f744cf3661901cbf69b9e515f33f04
2352,280833517,893ce37a157ffff,24.91659666094454,91.72136219811536,Sunamganj - Sylhet Highway,"Sunamganj - Sylhet Highway, Biswanath, Sylhet District, Sylhet Division, Bangladesh","সিলেট জেলা, সিলেট বিভাগ, বাংলাদেশ",Sunamganj - Sylhet Highway,,,Biswanath,বাংলাদেশ,সিলেট বিভাগ,street,,,,Bangladesh,Sylhet,Sylhet,Bishwanath,LamaKazi,e1badf065ba4bd1ea64abd49b2eec233
2354,24376056,893cc4a2d87ffff,24.63644590817423,91.68640357910748,ঢাকা-সিলেট মহাসড়ক,"Dhaka-Sylhet Highway, Balaganj, Sylhet District, Sylhet Division, Bangladesh","ঢাকা-সিলেট মহাসড়ক, সিলেট জেলা, সিলেট বিভাগ, বাংলাদেশ",,"ঢাকা-সিলেট মহাসড়ক, ",['Dhaka-Sylhet Highway'],Balaganj,বাংলাদেশ,সিলেট বিভাগ,street,,,,Bangladesh,Sylhet,Sylhet,Balaganj,Sadipur,57f744cf3661901cbf69b9e515f33f04
2362,278051660,893cc4a2dc3ffff,24.628434618580865,91.67798109232608,Dhaka-Sylhet Highway,"Dhaka-Sylhet Highway, Nabiganj Upazila, Habiganj District, Sylhet Division, Bangladesh","নবীগঞ্জ উপজেলা, হবিগঞ্জ জেলা, সিলেট বিভাগ, বাংলাদেশ",Dhaka-Sylhet Highway,,,নবীগঞ্জ উপজেলা,বাংলাদেশ,সিলেট বিভাগ,street,,,,Bangladesh,Sylhet,Sylhet,Balaganj,Sadipur,57f744cf3661901cbf69b9e515f33f04
2364,278051660,893cc4a2dc3ffff,24.628434618580865,91.67798109232608,Dhaka-Sylhet Highway,"Dhaka-Sylhet Highway, Balaganj, Sylhet Division, Bangladesh","সিলেট বিভাগ, বাংলাদেশ",Dhaka-Sylhet Highway,,,Balaganj,বাংলাদেশ,সিলেট বিভাগ,street,,,,Bangladesh,Sylhet,Sylhet,Balaganj,Sadipur,57f744cf3661901cbf69b9e515f33f04
2367,278051660,893cc4a2dc3ffff,24.628434618580865,91.67798109232608,Dhaka-Sylhet Highway,"Dhaka-Sylhet Highway, Nabiganj Upazila, Sylhet District, Sylhet Division, Bangladesh","নবীগঞ্জ উপজেলা, সিলেট জেলা, সিলেট বিভাগ, বাংলাদেশ",Dhaka-Sylhet Highway,,,নবীগঞ্জ উপজেলা,বাংলাদেশ,সিলেট বিভাগ,street,,,,Bangladesh,Sylhet,Sylhet,Balaganj,Sadipur,57f744cf3661901cbf69b9e515f33f04
2381,1074907162,893cc4b5103ffff,24.664669757581752,91.67682070616402,Osmani Road,"Osmani Road, Balaganj, Sylhet District, Sylhet Division, Bangladesh","সিলেট জেলা, সিলেট বিভাগ, বাংলাদেশ",Osmani Road,,,Balaganj,বাংলাদেশ,সিলেট বিভাগ,street,,,,Bangladesh,Sylhet,Sylhet,Balaganj,Sadipur,57f744cf3661901cbf69b9e515f33f04
2392,280819249,893ce37996bffff,24.804322818229863,91.79060057245906,ঢাকা-সিলেট মহাসড়ক,"Dhaka-Sylhet Highway, Biswanath, Sylhet District, Sylhet Division, Bangladesh","ঢাকা-সিলেট মহাসড়ক, সিলেট জেলা, সিলেট বিভাগ, বাংলাদেশ",,"ঢাকা-সিলেট মহাসড়ক, ",['Dhaka-Sylhet Highway'],Biswanath,বাংলাদেশ,সিলেট বিভাগ,street,,,,Bangladesh,Sylhet,Sylhet,DakshinSurma,LalaBazar,c0671d00bdec2492af4ea36a95c9473c
2403,588571137,893cc4a2d03ffff,24.628289043883875,91.68732228494318,Fazilpur Road,"Fazilpur Road, Balaganj, Sylhet District, Sylhet Division, Bangladesh","ফাজিলপুর রোড, সিলেট জেলা, সিলেট বিভাগ, বাংলাদেশ","Fazilpur Road, ",,['ফাজিলপুর রোড'],Balaganj,বাংলাদেশ,সিলেট বিভাগ,street,,,,Bangladesh,Sylhet,Sylhet,Balaganj,Sadipur,57f744cf3661901cbf69b9e515f33f04
