,osm_id,h3level9,lat,lon,name,name_en,name_bn,need_translate_en2bn,need_translate_bn2en,alt_names,local_admin_name,admin0_name,admin2_name,addr_level,poi_addr_match,poi_class,poi_keywords,country,division,district,thana,union,region_hash
657,367887016,893cf190bd7ffff,24.3394869,89.924802,,"Kalihati, Tangail District, Dhaka Division, Bangladesh","টাঙ্গাইল জেলা, ঢাকা বিভাগ, বাংলাদেশ",,,,Kalihati,বাংলাদেশ,ঢাকা বিভাগ,local_admin,boundaries,['bump'],[],Bangladesh,Dhaka,Tangail,Kalihati,Elenga,031435dfacd83bf4bcccaea80ee4f539
658,367887050,893cf1962b3ffff,24.4386075,89.9857172,,"Ghatail, Tangail District, Dhaka Division, Bangladesh","টাঙ্গাইল জেলা, ঢাকা বিভাগ, বাংলাদেশ",,,,Ghatail,বাংলাদেশ,ঢাকা বিভাগ,local_admin,boundaries,['bump'],[],Bangladesh,Dhaka,Tangail,Ghatail,Digar,ae67cd148d77ef7ce0492964c113b525
659,835158789,893cf18160bffff,24.184346,89.911331,Atiya Masjid,"Atiya Masjid, Delduar, Tangail District, Dhaka Division, Bangladesh","টাঙ্গাইল জেলা, ঢাকা বিভাগ, বাংলাদেশ","Atiya Masjid, ",,,Delduar,বাংলাদেশ,ঢাকা বিভাগ,local_admin,boundaries,['place_of_worship_muslim'],[],Bangladesh,Dhaka,Tangail,Delduar,Pathrail,e91c421529926c3e5c69d41b8a482fe2
791,2305804517,893ce2c92bbffff,24.745597,89.936509,,"Madhupur Upazila, Tangail District, Dhaka Division, Bangladesh","মধুপুর উপজেলা, টাঙ্গাইল জেলা, ঢাকা বিভাগ, বাংলাদেশ",,,,মধুপুর উপজেলা,বাংলাদেশ,ঢাকা বিভাগ,local_admin,boundaries,['kiosk'],[],Bangladesh,Dhaka,Tangail,Dhanbari,Baniajan,27fc685e162e383ef3e6ccb355b060dd
792,2305807520,893cf526cd3ffff,24.727821,89.941205,,"Madhupur Upazila, Tangail District, Dhaka Division, Bangladesh","মধুপুর উপজেলা, টাঙ্গাইল জেলা, ঢাকা বিভাগ, বাংলাদেশ",,,,মধুপুর উপজেলা,বাংলাদেশ,ঢাকা বিভাগ,local_admin,boundaries,['fast_food'],[],Bangladesh,Dhaka,Tangail,Dhanbari,Dhanbari,973595076810fd94e48f62d3a3346b19
794,2305808025,893cf526c43ffff,24.718641,89.946632,,"Madhupur Upazila, Tangail District, Dhaka Division, Bangladesh","মধুপুর উপজেলা, টাঙ্গাইল জেলা, ঢাকা বিভাগ, বাংলাদেশ",,,,মধুপুর উপজেলা,বাংলাদেশ,ঢাকা বিভাগ,local_admin,boundaries,['kiosk'],[],Bangladesh,Dhaka,Tangail,Dhanbari,Dhanbari,973595076810fd94e48f62d3a3346b19
796,2305809717,893cf526e77ffff,24.700515,89.951473,,"Madhupur Upazila, Tangail District, Dhaka Division, Bangladesh","মধুপুর উপজেলা, টাঙ্গাইল জেলা, ঢাকা বিভাগ, বাংলাদেশ",,,,মধুপুর উপজেলা,বাংলাদেশ,ঢাকা বিভাগ,local_admin,boundaries,['kiosk'],[],Bangladesh,Dhaka,Tangail,Dhanbari,DhanbariPaurashava,b6b52b67d81c1f7cacfd02fc5bf00806
798,2305811655,893cf524193ffff,24.676714,89.951922,,"Madhupur Upazila, Tangail District, Dhaka Division, Bangladesh","মধুপুর উপজেলা, টাঙ্গাইল জেলা, ঢাকা বিভাগ, বাংলাদেশ",,,,মধুপুর উপজেলা,বাংলাদেশ,ঢাকা বিভাগ,local_admin,boundaries,['kiosk'],[],Bangladesh,Dhaka,Tangail,Dhanbari,DhanbariPaurashava,b6b52b67d81c1f7cacfd02fc5bf00806
803,2305811730,893cf524117ffff,24.6684,89.959151,,"Madhupur Upazila, Tangail District, Dhaka Division, Bangladesh","মধুপুর উপজেলা, টাঙ্গাইল জেলা, ঢাকা বিভাগ, বাংলাদেশ",,,,মধুপুর উপজেলা,বাংলাদেশ,ঢাকা বিভাগ,local_admin,boundaries,['kiosk'],[],Bangladesh,Dhaka,Tangail,Dhanbari,DhanbariPaurashava,b6b52b67d81c1f7cacfd02fc5bf00806
805,2305811731,893cf524117ffff,24.668132,89.959275,,"Madhupur Upazila, Tangail District, Dhaka Division, Bangladesh","মধুপুর উপজেলা, টাঙ্গাইল জেলা, ঢাকা বিভাগ, বাংলাদেশ",,,,মধুপুর উপজেলা,বাংলাদেশ,ঢাকা বিভাগ,local_admin,boundaries,['kiosk'],[],Bangladesh,Dhaka,Tangail,Dhanbari,DhanbariPaurashava,b6b52b67d81c1f7cacfd02fc5bf00806
807,2305812066,893cf524e53ffff,24.645065,89.968221,,"Madhupur Upazila, Tangail District, Dhaka Division, Bangladesh","মধুপুর উপজেলা, টাঙ্গাইল জেলা, ঢাকা বিভাগ, বাংলাদেশ",,,,মধুপুর উপজেলা,বাংলাদেশ,ঢাকা বিভাগ,local_admin,boundaries,['monument'],[],Bangladesh,Dhaka,Tangail,Dhanbari,Dhopakhali,075e16b816796f77467c78aefad78194
809,2305812213,893cf525dbbffff,24.636037,89.973011,,"Madhupur Upazila, Tangail District, Dhaka Division, Bangladesh","মধুপুর উপজেলা, টাঙ্গাইল জেলা, ঢাকা বিভাগ, বাংলাদেশ",,,,মধুপুর উপজেলা,বাংলাদেশ,ঢাকা বিভাগ,local_admin,boundaries,['kiosk'],[],Bangladesh,Dhaka,Tangail,Dhanbari,Dhopakhali,075e16b816796f77467c78aefad78194
811,2305812342,893cf525dabffff,24.632811,89.974609,,"Madhupur Upazila, Tangail District, Dhaka Division, Bangladesh","মধুপুর উপজেলা, টাঙ্গাইল জেলা, ঢাকা বিভাগ, বাংলাদেশ",,,,মধুপুর উপজেলা,বাংলাদেশ,ঢাকা বিভাগ,local_admin,boundaries,['kiosk'],[],Bangladesh,Dhaka,Tangail,Dhanbari,Dhopakhali,075e16b816796f77467c78aefad78194
813,2305812453,893cf525d23ffff,24.627459,89.979606,,"Madhupur Upazila, Tangail District, Dhaka Division, Bangladesh","মধুপুর উপজেলা, টাঙ্গাইল জেলা, ঢাকা বিভাগ, বাংলাদেশ",,,,মধুপুর উপজেলা,বাংলাদেশ,ঢাকা বিভাগ,local_admin,boundaries,['kiosk'],[],Bangladesh,Dhaka,Tangail,Dhanbari,Dhopakhali,075e16b816796f77467c78aefad78194
815,2305812483,893cf525997ffff,24.624169,89.986393,,"Madhupur Upazila, Tangail District, Dhaka Division, Bangladesh","মধুপুর উপজেলা, টাঙ্গাইল জেলা, ঢাকা বিভাগ, বাংলাদেশ",,,,মধুপুর উপজেলা,বাংলাদেশ,ঢাকা বিভাগ,local_admin,boundaries,['monument'],[],Bangladesh,Dhaka,Tangail,Dhanbari,Dhopakhali,075e16b816796f77467c78aefad78194
817,2305812561,893cf5259b3ffff,24.622143,89.989972,,"Madhupur Upazila, Tangail District, Dhaka Division, Bangladesh","মধুপুর উপজেলা, টাঙ্গাইল জেলা, ঢাকা বিভাগ, বাংলাদেশ",,,,মধুপুর উপজেলা,বাংলাদেশ,ঢাকা বিভাগ,local_admin,boundaries,['kiosk'],[],Bangladesh,Dhaka,Tangail,Madhupur,Golabari,7341739b91bacaedd1c32bd74fb463e9
818,2305813398,893cf525937ffff,24.616561,89.998652,,"Madhupur Upazila, Tangail District, Dhaka Division, Bangladesh","মধুপুর উপজেলা, টাঙ্গাইল জেলা, ঢাকা বিভাগ, বাংলাদেশ",,,,মধুপুর উপজেলা,বাংলাদেশ,ঢাকা বিভাগ,local_admin,boundaries,['fast_food'],[],Bangladesh,Dhaka,Tangail,Madhupur,Golabari,7341739b91bacaedd1c32bd74fb463e9
819,2305814937,893ce25b003ffff,24.554558,89.996312,,"Ghatail, Tangail District, Dhaka Division, Bangladesh","টাঙ্গাইল জেলা, ঢাকা বিভাগ, বাংলাদেশ",,,,Ghatail,বাংলাদেশ,ঢাকা বিভাগ,local_admin,boundaries,['kiosk'],[],Bangladesh,Dhaka,Tangail,Ghatail,Deulabari,21357c528eb4fe753ff196d2e229ac88
820,2305816284,893ce25b04bffff,24.544215,89.987152,,"Ghatail, Tangail District, Dhaka Division, Bangladesh","টাঙ্গাইল জেলা, ঢাকা বিভাগ, বাংলাদেশ",,,,Ghatail,বাংলাদেশ,ঢাকা বিভাগ,local_admin,boundaries,['kiosk'],[],Bangladesh,Dhaka,Tangail,Ghatail,Deulabari,21357c528eb4fe753ff196d2e229ac88
821,2305816285,893ce25b283ffff,24.539299,89.984126,,"Ghatail, Tangail District, Dhaka Division, Bangladesh","টাঙ্গাইল জেলা, ঢাকা বিভাগ, বাংলাদেশ",,,,Ghatail,বাংলাদেশ,ঢাকা বিভাগ,local_admin,boundaries,['monument'],[],Bangladesh,Dhaka,Tangail,Ghatail,Deulabari,21357c528eb4fe753ff196d2e229ac88
822,2305816853,893ce25b213ffff,24.535495,89.985092,,"Ghatail, Tangail District, Dhaka Division, Bangladesh","টাঙ্গাইল জেলা, ঢাকা বিভাগ, বাংলাদেশ",,,,Ghatail,বাংলাদেশ,ঢাকা বিভাগ,local_admin,boundaries,['kiosk'],[],Bangladesh,Dhaka,Tangail,Ghatail,Deulabari,21357c528eb4fe753ff196d2e229ac88
824,2305817286,893cf52c913ffff,24.513716,89.97797,,"Ghatail, Tangail District, Dhaka Division, Bangladesh","টাঙ্গাইল জেলা, ঢাকা বিভাগ, বাংলাদেশ",,,,Ghatail,বাংলাদেশ,ঢাকা বিভাগ,local_admin,boundaries,['kiosk'],[],Bangladesh,Dhaka,Tangail,Ghatail,Ghatail,348a03be477895ce33741b6807b86714
827,2305817479,893cf52c943ffff,24.505161,89.977325,,"Ghatail, Tangail District, Dhaka Division, Bangladesh","টাঙ্গাইল জেলা, ঢাকা বিভাগ, বাংলাদেশ",,,,Ghatail,বাংলাদেশ,ঢাকা বিভাগ,local_admin,boundaries,['kiosk'],[],Bangladesh,Dhaka,Tangail,Ghatail,Ghatail,348a03be477895ce33741b6807b86714
829,2305818537,893cf52cb0bffff,24.485691,89.974064,,"Ghatail, Tangail District, Dhaka Division, Bangladesh","টাঙ্গাইল জেলা, ঢাকা বিভাগ, বাংলাদেশ",,,,Ghatail,বাংলাদেশ,ঢাকা বিভাগ,local_admin,boundaries,['kiosk'],[],Bangladesh,Dhaka,Tangail,Ghatail,GhatailPaurashava,a26109375fb8a5ba9386c725d4c747c7
842,2305818760,893cf52cb47ffff,24.483636,89.972714,,"Ghatail, Tangail District, Dhaka Division, Bangladesh","টাঙ্গাইল জেলা, ঢাকা বিভাগ, বাংলাদেশ",,,,Ghatail,বাংলাদেশ,ঢাকা বিভাগ,local_admin,boundaries,['school'],[],Bangladesh,Dhaka,Tangail,Ghatail,GhatailPaurashava,a26109375fb8a5ba9386c725d4c747c7
843,2305819008,893cf1964b3ffff,24.475614,89.973384,,"Ghatail, Tangail District, Dhaka Division, Bangladesh","টাঙ্গাইল জেলা, ঢাকা বিভাগ, বাংলাদেশ",,,,Ghatail,বাংলাদেশ,ঢাকা বিভাগ,local_admin,boundaries,['fast_food'],[],Bangladesh,Dhaka,Tangail,Ghatail,GhatailPaurashava,a26109375fb8a5ba9386c725d4c747c7
844,2305819269,893cf1960d7ffff,24.454839,89.97925,,"Ghatail, Tangail District, Dhaka Division, Bangladesh","টাঙ্গাইল জেলা, ঢাকা বিভাগ, বাংলাদেশ",,,,Ghatail,বাংলাদেশ,ঢাকা বিভাগ,local_admin,boundaries,['fast_food'],[],Bangladesh,Dhaka,Tangail,Ghatail,Jamuria,c5a4084c41a3f2ebfe8706dd2c80eed2
845,2305819595,893cf1962a3ffff,24.4376952,89.9864119,,"Ghatail, Tangail District, Dhaka Division, Bangladesh","টাঙ্গাইল জেলা, ঢাকা বিভাগ, বাংলাদেশ",,,,Ghatail,বাংলাদেশ,ঢাকা বিভাগ,local_admin,boundaries,['bump'],[],Bangladesh,Dhaka,Tangail,Ghatail,Digar,ae67cd148d77ef7ce0492964c113b525
846,2305819721,893cf19623bffff,24.427558,89.988677,,"Ghatail, Tangail District, Dhaka Division, Bangladesh","টাঙ্গাইল জেলা, ঢাকা বিভাগ, বাংলাদেশ",,,,Ghatail,বাংলাদেশ,ঢাকা বিভাগ,local_admin,boundaries,['fast_food'],[],Bangladesh,Dhaka,Tangail,Ghatail,Digar,ae67cd148d77ef7ce0492964c113b525
847,2305821800,893cf19460fffff,24.390189,89.997813,,"Kalihati, Tangail District, Dhaka Division, Bangladesh","টাঙ্গাইল জেলা, ঢাকা বিভাগ, বাংলাদেশ",,,,Kalihati,বাংলাদেশ,ঢাকা বিভাগ,local_admin,boundaries,['fast_food'],[],Bangladesh,Dhaka,Tangail,Kalihati,KalihatiPaurashava,b3d75023431747bf9af8dd2f15d9e3fe
848,2305821895,893cf194673ffff,24.387797,89.996191,,"Kalihati, Tangail District, Dhaka Division, Bangladesh","টাঙ্গাইল জেলা, ঢাকা বিভাগ, বাংলাদেশ",,,,Kalihati,বাংলাদেশ,ঢাকা বিভাগ,local_admin,boundaries,['fast_food'],[],Bangladesh,Dhaka,Tangail,Kalihati,KalihatiPaurashava,b3d75023431747bf9af8dd2f15d9e3fe
850,2305821896,893cf194673ffff,24.387836,89.993848,,"Kalihati, Tangail District, Dhaka Division, Bangladesh","টাঙ্গাইল জেলা, ঢাকা বিভাগ, বাংলাদেশ",,,,Kalihati,বাংলাদেশ,ঢাকা বিভাগ,local_admin,boundaries,['organic'],[],Bangladesh,Dhaka,Tangail,Kalihati,KalihatiPaurashava,b3d75023431747bf9af8dd2f15d9e3fe
852,2305821901,893cf194673ffff,24.387568,89.99583,,"Kalihati, Tangail District, Dhaka Division, Bangladesh","টাঙ্গাইল জেলা, ঢাকা বিভাগ, বাংলাদেশ",,,,Kalihati,বাংলাদেশ,ঢাকা বিভাগ,local_admin,boundaries,['fast_food'],[],Bangladesh,Dhaka,Tangail,Kalihati,KalihatiPaurashava,b3d75023431747bf9af8dd2f15d9e3fe
854,2305822120,893cf194643ffff,24.385501,89.987223,mobile,"mobile, Kalihati, Tangail District, Dhaka Division, Bangladesh","টাঙ্গাইল জেলা, ঢাকা বিভাগ, বাংলাদেশ","mobile, ",,,Kalihati,বাংলাদেশ,ঢাকা বিভাগ,local_admin,boundaries,['fuel'],[],Bangladesh,Dhaka,Tangail,Kalihati,KalihatiPaurashava,b3d75023431747bf9af8dd2f15d9e3fe
856,2305825449,893cf19090bffff,24.353341,89.938592,,"Kalihati, Tangail District, Dhaka Division, Bangladesh","টাঙ্গাইল জেলা, ঢাকা বিভাগ, বাংলাদেশ",,,,Kalihati,বাংলাদেশ,ঢাকা বিভাগ,local_admin,boundaries,['kiosk'],[],Bangladesh,Dhaka,Tangail,Kalihati,Bangra,0b6e38d3ad2e7c9c6e450bbf281db14c
858,2305826194,893cf190b93ffff,24.345833,89.926801,,"Kalihati, Tangail District, Dhaka Division, Bangladesh","টাঙ্গাইল জেলা, ঢাকা বিভাগ, বাংলাদেশ",,,,Kalihati,বাংলাদেশ,ঢাকা বিভাগ,local_admin,boundaries,['kiosk'],[],Bangladesh,Dhaka,Tangail,Kalihati,Bangra,0b6e38d3ad2e7c9c6e450bbf281db14c
860,2305826519,893cf190b9bffff,24.340715,89.924826,,"Kalihati, Tangail District, Dhaka Division, Bangladesh","টাঙ্গাইল জেলা, ঢাকা বিভাগ, বাংলাদেশ",,,,Kalihati,বাংলাদেশ,ঢাকা বিভাগ,local_admin,boundaries,['kiosk'],[],Bangladesh,Dhaka,Tangail,Kalihati,Elenga,031435dfacd83bf4bcccaea80ee4f539
862,2305826862,893cf190bc3ffff,24.335336,89.924438,,"Kalihati, Tangail District, Dhaka Division, Bangladesh","টাঙ্গাইল জেলা, ঢাকা বিভাগ, বাংলাদেশ",,,,Kalihati,বাংলাদেশ,ঢাকা বিভাগ,local_admin,boundaries,['fast_food'],[],Bangladesh,Dhaka,Tangail,Kalihati,Elenga,031435dfacd83bf4bcccaea80ee4f539
864,2305842408,893cf18244bffff,24.303178,89.91906,,"Kalihati, Tangail District, Dhaka Division, Bangladesh","টাঙ্গাইল জেলা, ঢাকা বিভাগ, বাংলাদেশ",,,,Kalihati,বাংলাদেশ,ঢাকা বিভাগ,local_admin,boundaries,['fuel'],[],Bangladesh,Dhaka,Tangail,TangailSadar,Gala,e9479d9498d15c0ace73fde0f2b184c7
866,2305842556,893cf18268fffff,24.2952712,89.9182005,Unicom CNG Filling Station,"Unicom CNG Filling Station, Tangail, Tangail District, Dhaka Division, Bangladesh","টাঙ্গাইল জেলা, ঢাকা বিভাগ, বাংলাদেশ","Unicom CNG Filling Station, ",,,Tangail,বাংলাদেশ,ঢাকা বিভাগ,local_admin,boundaries,['fuel'],[],Bangladesh,Dhaka,Tangail,TangailSadar,Gala,e9479d9498d15c0ace73fde0f2b184c7
867,2305844948,893cf180613ffff,24.240002,89.948216,,"Tangail, Tangail District, Dhaka Division, Bangladesh","টাঙ্গাইল জেলা, ঢাকা বিভাগ, বাংলাদেশ",,,,Tangail,বাংলাদেশ,ঢাকা বিভাগ,local_admin,boundaries,['bump'],[],Bangladesh,Dhaka,Tangail,TangailSadar,Karatia,2bc6dc7744494612ce6e24e2de51e66e
869,2305845019,893cf180603ffff,24.239745,89.948962,,"Tangail, Tangail District, Dhaka Division, Bangladesh","টাঙ্গাইল জেলা, ঢাকা বিভাগ, বাংলাদেশ",,,,Tangail,বাংলাদেশ,ঢাকা বিভাগ,local_admin,boundaries,['bump'],[],Bangladesh,Dhaka,Tangail,TangailSadar,Karatia,2bc6dc7744494612ce6e24e2de51e66e
870,2305845023,893cf180603ffff,24.238074,89.950492,,"Tangail, Tangail District, Dhaka Division, Bangladesh","টাঙ্গাইল জেলা, ঢাকা বিভাগ, বাংলাদেশ",,,,Tangail,বাংলাদেশ,ঢাকা বিভাগ,local_admin,boundaries,['fuel'],[],Bangladesh,Dhaka,Tangail,TangailSadar,Karatia,2bc6dc7744494612ce6e24e2de51e66e
872,2305845243,893cf18021bffff,24.221666,89.965523,,"Tangail, Tangail District, Dhaka Division, Bangladesh","টাঙ্গাইল জেলা, ঢাকা বিভাগ, বাংলাদেশ",,,,Tangail,বাংলাদেশ,ঢাকা বিভাগ,local_admin,boundaries,['fuel'],[],Bangladesh,Dhaka,Tangail,TangailSadar,Karatia,2bc6dc7744494612ce6e24e2de51e66e
874,2305848942,893cf181c6bffff,24.197364,89.988958,,"Basail, Tangail District, Dhaka Division, Bangladesh","টাঙ্গাইল জেলা, ঢাকা বিভাগ, বাংলাদেশ",,,,Basail,বাংলাদেশ,ঢাকা বিভাগ,local_admin,boundaries,['fuel'],[],Bangladesh,Dhaka,Tangail,Basail,Habla,487e2d3e64e8a609e3d21fb5fea8a821
876,2332679845,893cf194657ffff,24.3896744,89.990275,Kalihati Upazilla Health Complex,"Kalihati Upazilla Health Complex, Ghatail, Tangail District, Dhaka Division, Bangladesh","টাঙ্গাইল জেলা, ঢাকা বিভাগ, বাংলাদেশ","Kalihati Upazilla Health Complex, ",,,Ghatail,বাংলাদেশ,ঢাকা বিভাগ,local_admin,boundaries,['hospital'],[],Bangladesh,Dhaka,Tangail,Kalihati,KalihatiPaurashava,b3d75023431747bf9af8dd2f15d9e3fe
882,2381383999,893cf18adcfffff,24.163777,89.966907,Delduar Upazila Health Complex,"Delduar Upazila Health Complex, Delduar, Tangail District, Dhaka Division, Bangladesh","টাঙ্গাইল জেলা, ঢাকা বিভাগ, বাংলাদেশ","Delduar Upazila Health Complex, ",,,Delduar,বাংলাদেশ,ঢাকা বিভাগ,local_admin,boundaries,['hospital'],[],Bangladesh,Dhaka,Tangail,Delduar,Delduar,60bc538030586471fafe508bc35091eb
883,2381384473,893cf194657ffff,24.3899051,89.9905506,Kalihati Upazila Health Complex,"Kalihati Upazila Health Complex, Ghatail, Tangail District, Dhaka Division, Bangladesh","টাঙ্গাইল জেলা, ঢাকা বিভাগ, বাংলাদেশ","Kalihati Upazila Health Complex, ",,,Ghatail,বাংলাদেশ,ঢাকা বিভাগ,local_admin,boundaries,['hospital'],[],Bangladesh,Dhaka,Tangail,Kalihati,KalihatiPaurashava,b3d75023431747bf9af8dd2f15d9e3fe
890,2419809177,893cf1830abffff,24.2516373,89.9110186,Central Eidgah,"Central Eidgah, Tangail, Tangail District, Dhaka Division, Bangladesh","টাঙ্গাইল জেলা, ঢাকা বিভাগ, বাংলাদেশ","Central Eidgah, ",,,Tangail,বাংলাদেশ,ঢাকা বিভাগ,local_admin,boundaries,['place_of_worship_muslim'],[],Bangladesh,Dhaka,Tangail,TangailSadar,TangailPaurashava,d3a53e2688067c7b18e5dcf57ba6e184
891,2419812910,893cf183033ffff,24.2501352,89.9138816,Tangail New Market,"Tangail New Market, Tangail, Tangail District, Dhaka Division, Bangladesh","টাঙ্গাইল জেলা, ঢাকা বিভাগ, বাংলাদেশ","Tangail New Market, ",,,Tangail,বাংলাদেশ,ঢাকা বিভাগ,local_admin,boundaries,['mall'],[],Bangladesh,Dhaka,Tangail,TangailSadar,TangailPaurashava,d3a53e2688067c7b18e5dcf57ba6e184
894,2419821267,893cf1830afffff,24.2534353,89.9151371,Seikh Fazilatunnesa Girl's College,"Seikh Fazilatunnesa Girl's College, Tangail, Tangail District, Dhaka Division, Bangladesh","টাঙ্গাইল জেলা, ঢাকা বিভাগ, বাংলাদেশ","Seikh Fazilatunnesa Girl's College, ",,,Tangail,বাংলাদেশ,ঢাকা বিভাগ,local_admin,boundaries,['college'],[],Bangladesh,Dhaka,Tangail,TangailSadar,TangailPaurashava,d3a53e2688067c7b18e5dcf57ba6e184
896,2419825312,893cf183007ffff,24.2479649,89.9116098,Water Tank,"Water Tank, Tangail, Tangail District, Dhaka Division, Bangladesh","টাঙ্গাইল জেলা, ঢাকা বিভাগ, বাংলাদেশ","Water Tank, ",,,Tangail,বাংলাদেশ,ঢাকা বিভাগ,local_admin,boundaries,['water_tower'],[],Bangladesh,Dhaka,Tangail,TangailSadar,TangailPaurashava,d3a53e2688067c7b18e5dcf57ba6e184
906,2545364919,893cf18220bffff,24.2738464,89.9377198,টাঙ্গাইল,"Tangail, Tangail District, Dhaka Division, Bangladesh","টাঙ্গাইল, টাঙ্গাইল জেলা, ঢাকা বিভাগ, বাংলাদেশ",,"টাঙ্গাইল, ",['Tangail'],Tangail,বাংলাদেশ,ঢাকা বিভাগ,local_admin,boundaries,['railway_station'],[],Bangladesh,Dhaka,Tangail,TangailSadar,Gharinda,319915a7c3139962f7d596db562808be
908,2551998440,893cf18020fffff,24.2208201,89.971616,Karatia Haat,"Karatia Haat, Tangail, Tangail District, Dhaka Division, Bangladesh","টাঙ্গাইল জেলা, ঢাকা বিভাগ, বাংলাদেশ","Karatia Haat, ",,['করটিয়া হাট'],Tangail,বাংলাদেশ,ঢাকা বিভাগ,local_admin,boundaries,['marketplace'],[],Bangladesh,Dhaka,Tangail,TangailSadar,Karatia,2bc6dc7744494612ce6e24e2de51e66e
910,2552002768,893cf1806d7ffff,24.2424648,89.9405744,Tangail Bypass Bus Stop,"Tangail Bypass Bus Stop, Tangail Bypass Bus, Tangail, Tangail District, Dhaka Division, Bangladesh","Stop, টাঙ্গাইল জেলা, ঢাকা বিভাগ, বাংলাদেশ","Tangail Bypass Bus Stop, ",,,Tangail,বাংলাদেশ,ঢাকা বিভাগ,street,boundaries,['bus_stop'],[],Bangladesh,Dhaka,Tangail,TangailSadar,Karatia,2bc6dc7744494612ce6e24e2de51e66e
919,2798151804,893cf183163ffff,24.2457514,89.9355386,Tangail Technical Institute,"Tangail Technical Institute, Tangail, Tangail District, Dhaka Division, Bangladesh","টাঙ্গাইল জেলা, ঢাকা বিভাগ, বাংলাদেশ","Tangail Technical Institute, ",,,Tangail,বাংলাদেশ,ঢাকা বিভাগ,local_admin,boundaries,['college'],[],Bangladesh,Dhaka,Tangail,TangailSadar,Karatia,2bc6dc7744494612ce6e24e2de51e66e
920,2798151804,893cf183163ffff,24.2457514,89.9355386,Tangail Technical Institute,"Tangail Technical Institute, Tangail, Tangail District, Dhaka Division, Bangladesh","টাঙ্গাইল জেলা, ঢাকা বিভাগ, বাংলাদেশ","Tangail Technical Institute, ",,,Tangail,বাংলাদেশ,ঢাকা বিভাগ,local_admin,boundaries,['college'],[],Bangladesh,Dhaka,Tangail,TangailSadar,TangailPaurashava,d3a53e2688067c7b18e5dcf57ba6e184
922,2798152374,893cf183037ffff,24.25061,89.9197565,Fire Service and Civil Defence,"Fire Service and Civil Defence, Tangail, Tangail District, Dhaka Division, Bangladesh","টাঙ্গাইল জেলা, ঢাকা বিভাগ, বাংলাদেশ","Fire Service and Civil Defence, ",,,Tangail,বাংলাদেশ,ঢাকা বিভাগ,local_admin,boundaries,['fire_station'],[],Bangladesh,Dhaka,Tangail,TangailSadar,TangailPaurashava,d3a53e2688067c7b18e5dcf57ba6e184
924,2798250881,893cf18352fffff,24.2671897,89.9277898,Kudalia Govt. Primary School,"Kudalia Govt. Primary School, Tangail, Tangail District, Dhaka Division, Bangladesh","টাঙ্গাইল জেলা, ঢাকা বিভাগ, বাংলাদেশ","Kudalia Govt. Primary School, ",,,Tangail,বাংলাদেশ,ঢাকা বিভাগ,local_admin,boundaries,['school'],[],Bangladesh,Dhaka,Tangail,TangailSadar,TangailPaurashava,d3a53e2688067c7b18e5dcf57ba6e184
940,2799212222,893cf183033ffff,24.2510391,89.9146603,সোনালী ব্যাংক লিমিটেড,"Tangail, Tangail District, Dhaka Division, Bangladesh","সোনালী ব্যাংক লিমিটেড, টাঙ্গাইল জেলা, ঢাকা বিভাগ, বাংলাদেশ",,"সোনালী ব্যাংক লিমিটেড, ","['সোনালী ব্যাংক লিমিটেড', 'Sonali Bank Limited']",Tangail,বাংলাদেশ,ঢাকা বিভাগ,local_admin,boundaries,['bank'],[],Bangladesh,Dhaka,Tangail,TangailSadar,TangailPaurashava,d3a53e2688067c7b18e5dcf57ba6e184
942,2799212594,893cf18303bffff,24.246758,89.9137336,Tangail Police Station,"Tangail Police Station, Tangail, Tangail District, Dhaka Division, Bangladesh","টাঙ্গাইল জেলা, ঢাকা বিভাগ, বাংলাদেশ","Tangail Police Station, ",,,Tangail,বাংলাদেশ,ঢাকা বিভাগ,local_admin,boundaries,['police'],[],Bangladesh,Dhaka,Tangail,TangailSadar,TangailPaurashava,d3a53e2688067c7b18e5dcf57ba6e184
943,2799215439,893cf183033ffff,24.248693,89.9136664,CDC Shopping Complex,"CDC Shopping Complex, Tangail, Tangail District, Dhaka Division, Bangladesh","টাঙ্গাইল জেলা, ঢাকা বিভাগ, বাংলাদেশ","CDC Shopping Complex, ",,,Tangail,বাংলাদেশ,ঢাকা বিভাগ,local_admin,boundaries,['variety_store'],[],Bangladesh,Dhaka,Tangail,TangailSadar,TangailPaurashava,d3a53e2688067c7b18e5dcf57ba6e184
944,2799217303,893cf183033ffff,24.2488935,89.9135149,Islami Bank Bangladesh Limited,"Islami Bank Bangladesh Limited, Tangail, Tangail District, Dhaka Division, Bangladesh","টাঙ্গাইল জেলা, ঢাকা বিভাগ, বাংলাদেশ","Islami Bank Bangladesh Limited, ",,,Tangail,বাংলাদেশ,ঢাকা বিভাগ,local_admin,boundaries,['bank'],[],Bangladesh,Dhaka,Tangail,TangailSadar,TangailPaurashava,d3a53e2688067c7b18e5dcf57ba6e184
946,2799229931,893cf1831dbffff,24.2537174,89.91719259999999,Doctors Clinic,"Doctors Clinic, Tangail, Tangail District, Dhaka Division, Bangladesh","টাঙ্গাইল জেলা, ঢাকা বিভাগ, বাংলাদেশ","Doctors Clinic, ",,,Tangail,বাংলাদেশ,ঢাকা বিভাগ,local_admin,boundaries,['hospital'],[],Bangladesh,Dhaka,Tangail,TangailSadar,TangailPaurashava,d3a53e2688067c7b18e5dcf57ba6e184
948,2799231074,893cf183567ffff,24.2635513,89.9229441,Shilpokola Academy,"Shilpokola Academy, Tangail, Tangail District, Dhaka Division, Bangladesh","টাঙ্গাইল জেলা, ঢাকা বিভাগ, বাংলাদেশ","Shilpokola Academy, ",,,Tangail,বাংলাদেশ,ঢাকা বিভাগ,local_admin,boundaries,['arts_centre'],[],Bangladesh,Dhaka,Tangail,TangailSadar,TangailPaurashava,d3a53e2688067c7b18e5dcf57ba6e184
950,2799231606,893cf1831d7ffff,24.257426,89.921691,WAPDA Rest House,"WAPDA Rest House, Tangail, Tangail District, Dhaka Division, Bangladesh","টাঙ্গাইল জেলা, ঢাকা বিভাগ, বাংলাদেশ","WAPDA Rest House, ",,,Tangail,বাংলাদেশ,ঢাকা বিভাগ,local_admin,boundaries,['guest_house'],[],Bangladesh,Dhaka,Tangail,TangailSadar,TangailPaurashava,d3a53e2688067c7b18e5dcf57ba6e184
952,2799239946,893cf18352fffff,24.2671137,89.9247745,Bus Station Mosjid,"Bus Station Mosjid, Tangail, Tangail District, Dhaka Division, Bangladesh","টাঙ্গাইল জেলা, ঢাকা বিভাগ, বাংলাদেশ","Bus Station Mosjid, ",,,Tangail,বাংলাদেশ,ঢাকা বিভাগ,local_admin,boundaries,['place_of_worship_muslim'],[],Bangladesh,Dhaka,Tangail,TangailSadar,TangailPaurashava,d3a53e2688067c7b18e5dcf57ba6e184
954,2799240826,893cf183523ffff,24.2688099,89.9244999,Tangail Filling Station,"Tangail Filling Station, Tangail, Tangail District, Dhaka Division, Bangladesh","টাঙ্গাইল জেলা, ঢাকা বিভাগ, বাংলাদেশ","Tangail Filling Station, ",,,Tangail,বাংলাদেশ,ঢাকা বিভাগ,local_admin,boundaries,['fuel'],[],Bangladesh,Dhaka,Tangail,TangailSadar,TangailPaurashava,d3a53e2688067c7b18e5dcf57ba6e184
956,2799241565,893cf183533ffff,24.271815,89.9223291,Shapla Clinic,"Shapla Clinic, Tangail, Tangail District, Dhaka Division, Bangladesh","টাঙ্গাইল জেলা, ঢাকা বিভাগ, বাংলাদেশ","Shapla Clinic, ",,,Tangail,বাংলাদেশ,ঢাকা বিভাগ,local_admin,boundaries,['hospital'],[],Bangladesh,Dhaka,Tangail,TangailSadar,TangailPaurashava,d3a53e2688067c7b18e5dcf57ba6e184
958,2799249975,893cf182457ffff,24.3080439,89.9205683,Utsab Filling Station,"Utsab Filling Station, Kalihati, Tangail District, Dhaka Division, Bangladesh","টাঙ্গাইল জেলা, ঢাকা বিভাগ, বাংলাদেশ","Utsab Filling Station, ",,,Kalihati,বাংলাদেশ,ঢাকা বিভাগ,local_admin,boundaries,['fuel'],[],Bangladesh,Dhaka,Tangail,TangailSadar,Gala,e9479d9498d15c0ace73fde0f2b184c7
964,2824254451,893cf52511bffff,24.6140873,89.916475,Nagda Shimla Health Center,"Nagda Shimla Health Center, Gopalpur, Tangail District, Dhaka Division, Bangladesh","টাঙ্গাইল জেলা, ঢাকা বিভাগ, বাংলাদেশ","Nagda Shimla Health Center, ",,,Gopalpur,বাংলাদেশ,ঢাকা বিভাগ,local_admin,boundaries,['hospital'],[],Bangladesh,Dhaka,Tangail,Gopalpur,NagdaSimla,8f40a6a464bf1f2ac07f64d29c54d423
966,2824261855,893cf525307ffff,24.5947294,89.919663,Chanpur Dhakhil Madrasha,"Chanpur Dhakhil Madrasha, Gopalpur, Tangail District, Dhaka Division, Bangladesh","টাঙ্গাইল জেলা, ঢাকা বিভাগ, বাংলাদেশ","Chanpur Dhakhil Madrasha, ",,,Gopalpur,বাংলাদেশ,ঢাকা বিভাগ,local_admin,boundaries,['school'],[],Bangladesh,Dhaka,Tangail,Gopalpur,NagdaSimla,8f40a6a464bf1f2ac07f64d29c54d423
968,2824262572,893cf525307ffff,24.5949008,89.9192611,Chanpur,"Chanpur, Gopalpur, Tangail District, Dhaka Division, Bangladesh","টাঙ্গাইল জেলা, ঢাকা বিভাগ, বাংলাদেশ",Chanpur,,,Gopalpur,বাংলাদেশ,ঢাকা বিভাগ,street,boundaries,['bus_stop'],[],Bangladesh,Dhaka,Tangail,Gopalpur,NagdaSimla,8f40a6a464bf1f2ac07f64d29c54d423
970,2824267110,893cf525313ffff,24.5944688,89.9129732,Chatila Jame Mosjid,"Chatila Jame Mosjid, Gopalpur, Tangail District, Dhaka Division, Bangladesh","টাঙ্গাইল জেলা, ঢাকা বিভাগ, বাংলাদেশ","Chatila Jame Mosjid, ",,,Gopalpur,বাংলাদেশ,ঢাকা বিভাগ,local_admin,boundaries,['place_of_worship_muslim'],[],Bangladesh,Dhaka,Tangail,Gopalpur,NagdaSimla,8f40a6a464bf1f2ac07f64d29c54d423
971,2824271541,893cf52511bffff,24.6139926,89.9179345,Nagda Shimla High School and College,"Nagda Shimla High School and College, Gopalpur, Tangail District, Dhaka Division, Bangladesh","টাঙ্গাইল জেলা, ঢাকা বিভাগ, বাংলাদেশ","Nagda Shimla High School and College, ",,,Gopalpur,বাংলাদেশ,ঢাকা বিভাগ,local_admin,boundaries,['school'],[],Bangladesh,Dhaka,Tangail,Gopalpur,NagdaSimla,8f40a6a464bf1f2ac07f64d29c54d423
973,2824275382,893cf52511bffff,24.6142726,89.9171114,বাংলাদেশ কৃষি ব্যাংক,"Gopalpur, Tangail District, Dhaka Division, Bangladesh","বাংলাদেশ কৃষি ব্যাংক, টাঙ্গাইল জেলা, ঢাকা বিভাগ, বাংলাদেশ",,"বাংলাদেশ কৃষি ব্যাংক, ","['বাংলাদেশ কৃষি ব্যাংক', 'Krishi Bank']",Gopalpur,বাংলাদেশ,ঢাকা বিভাগ,local_admin,boundaries,['bank'],[],Bangladesh,Dhaka,Tangail,Gopalpur,NagdaSimla,8f40a6a464bf1f2ac07f64d29c54d423
976,2824283363,893cf524523ffff,24.6823038,89.9499072,Dhanbari Collegiate School,"Dhanbari Collegiate School, Madhupur Upazila, Tangail District, Dhaka Division, Bangladesh","মধুপুর উপজেলা, টাঙ্গাইল জেলা, ঢাকা বিভাগ, বাংলাদেশ","Dhanbari Collegiate School, ",,,মধুপুর উপজেলা,বাংলাদেশ,ঢাকা বিভাগ,local_admin,boundaries,['school'],[],Bangladesh,Dhaka,Tangail,Dhanbari,DhanbariPaurashava,b6b52b67d81c1f7cacfd02fc5bf00806
978,2305974381,893cf18d8b7ffff,24.095574,90.137629,Machranga Diesel Pump,"Machranga Diesel Pump, Tangail District, Dhaka Division, Bangladesh","টাঙ্গাইল জেলা, ঢাকা বিভাগ, বাংলাদেশ","Machranga Diesel Pump, ",,,,বাংলাদেশ,ঢাকা বিভাগ,admin2,boundaries,['fuel'],[],Bangladesh,Dhaka,Tangail,Mirzapur,Gorai,25cfdd4b247c0adcf6b250135e0f2d88
980,2305975325,893cf18d913ffff,24.095678,90.152474,,"Tangail District, Dhaka Division, Bangladesh","টাঙ্গাইল জেলা, ঢাকা বিভাগ, বাংলাদেশ",,,,,বাংলাদেশ,ঢাকা বিভাগ,admin2,boundaries,['kiosk'],[],Bangladesh,Dhaka,Tangail,Mirzapur,Gorai,25cfdd4b247c0adcf6b250135e0f2d88
992,2881689476,893cf52531bffff,24.5921412,89.9126986,Chatila Sub Health Center,"Chatila Sub Health Center, Gopalpur, Tangail District, Dhaka Division, Bangladesh","টাঙ্গাইল জেলা, ঢাকা বিভাগ, বাংলাদেশ","Chatila Sub Health Center, ",,,Gopalpur,বাংলাদেশ,ঢাকা বিভাগ,local_admin,boundaries,['hospital'],[],Bangladesh,Dhaka,Tangail,Gopalpur,NagdaSimla,8f40a6a464bf1f2ac07f64d29c54d423
994,2881691029,893cf52531bffff,24.5921206,89.9123901,Chatila Madrasha,"Chatila Madrasha, Gopalpur, Tangail District, Dhaka Division, Bangladesh","টাঙ্গাইল জেলা, ঢাকা বিভাগ, বাংলাদেশ","Chatila Madrasha, ",,,Gopalpur,বাংলাদেশ,ঢাকা বিভাগ,local_admin,boundaries,['school'],[],Bangladesh,Dhaka,Tangail,Gopalpur,NagdaSimla,8f40a6a464bf1f2ac07f64d29c54d423
1004,2305975852,893cf18d9abffff,24.097088,90.161247,,"Tangail District, Dhaka Division, Bangladesh","টাঙ্গাইল জেলা, ঢাকা বিভাগ, বাংলাদেশ",,,,,বাংলাদেশ,ঢাকা বিভাগ,admin2,boundaries,['kiosk'],[],Bangladesh,Dhaka,Tangail,Mirzapur,Gorai,25cfdd4b247c0adcf6b250135e0f2d88
1007,2305977008,893cf116453ffff,24.0942811,90.1714202,,"Tangail District, Dhaka Division, Bangladesh","টাঙ্গাইল জেলা, ঢাকা বিভাগ, বাংলাদেশ",,,,,বাংলাদেশ,ঢাকা বিভাগ,admin2,boundaries,['bump'],[],Bangladesh,Dhaka,Tangail,Mirzapur,Gorai,25cfdd4b247c0adcf6b250135e0f2d88
1009,3191363719,893cf190bd7ffff,24.3386385,89.9251001,Hotel Kucul,"Hotel Kucul, Kalihati, Tangail District, Dhaka Division, Bangladesh","টাঙ্গাইল জেলা, ঢাকা বিভাগ, বাংলাদেশ","Hotel Kucul, ",,,Kalihati,বাংলাদেশ,ঢাকা বিভাগ,local_admin,boundaries,['hotel'],[],Bangladesh,Dhaka,Tangail,Kalihati,Elenga,031435dfacd83bf4bcccaea80ee4f539
1044,3416031414,893cf1831cbffff,24.2515724,89.9198131,Puraton Bus stand,"Puraton Bus stand, Tangail, Tangail District, Dhaka Division, Bangladesh","টাঙ্গাইল জেলা, ঢাকা বিভাগ, বাংলাদেশ",Puraton Bus stand,,,Tangail,বাংলাদেশ,ঢাকা বিভাগ,street,boundaries,['bus_stop'],[],Bangladesh,Dhaka,Tangail,TangailSadar,TangailPaurashava,d3a53e2688067c7b18e5dcf57ba6e184
1047,3416035120,893cf1831cbffff,24.251523,89.9200123,Patrol pump,"Patrol pump, Tangail, Tangail District, Dhaka Division, Bangladesh","টাঙ্গাইল জেলা, ঢাকা বিভাগ, বাংলাদেশ","Patrol pump, ",,,Tangail,বাংলাদেশ,ঢাকা বিভাগ,local_admin,boundaries,['fuel'],[],Bangladesh,Dhaka,Tangail,TangailSadar,TangailPaurashava,d3a53e2688067c7b18e5dcf57ba6e184
1049,3416035779,893cf1831cbffff,24.2517263,89.9197079,Puraton bus stand market,"Puraton bus stand market, Tangail, Tangail District, Dhaka Division, Bangladesh","টাঙ্গাইল জেলা, ঢাকা বিভাগ, বাংলাদেশ","Puraton bus stand market, ",,,Tangail,বাংলাদেশ,ঢাকা বিভাগ,local_admin,boundaries,['marketplace'],[],Bangladesh,Dhaka,Tangail,TangailSadar,TangailPaurashava,d3a53e2688067c7b18e5dcf57ba6e184
1060,2551996881,893cf18d9d3ffff,24.0961749,90.1435185,Jui Juthi Filling Station,"Jui Juthi Filling Station, Tangail District, Dhaka Division, Bangladesh","টাঙ্গাইল জেলা, ঢাকা বিভাগ, বাংলাদেশ","Jui Juthi Filling Station, ",,,,বাংলাদেশ,ঢাকা বিভাগ,admin2,boundaries,['fuel'],[],Bangladesh,Dhaka,Tangail,Mirzapur,Gorai,25cfdd4b247c0adcf6b250135e0f2d88
1063,2551997434,893cf18d98bffff,24.0958338,90.1517068,Sohagpur Bazar,"Sohagpur Bazar, Tangail District, Dhaka Division, Bangladesh","টাঙ্গাইল জেলা, ঢাকা বিভাগ, বাংলাদেশ","Sohagpur Bazar, ",,,,বাংলাদেশ,ঢাকা বিভাগ,admin2,boundaries,['marketplace'],[],Bangladesh,Dhaka,Tangail,Mirzapur,Gorai,25cfdd4b247c0adcf6b250135e0f2d88
1082,3740825166,893cf52e803ffff,24.5562356,89.9283678,Gopalpur Bus Stand,"Gopalpur Bus Stand, Gopalpur, Tangail District, Dhaka Division, Bangladesh","টাঙ্গাইল জেলা, ঢাকা বিভাগ, বাংলাদেশ","Gopalpur Bus Stand, ",,['গোপালপুর বাস'],Gopalpur,বাংলাদেশ,ঢাকা বিভাগ,local_admin,boundaries,['bus_station'],[],Bangladesh,Dhaka,Tangail,Gopalpur,GopalpurPaurashava,c4dc9679f52e1cb9c010c7a774abc3b5
1087,2896513410,893cf11645bffff,24.0922832,90.1732944,Mirzapur Cadet College,"Mirzapur Cadet College, Tangail District, Dhaka Division, Bangladesh","টাঙ্গাইল জেলা, ঢাকা বিভাগ, বাংলাদেশ",Mirzapur Cadet College,,,,বাংলাদেশ,ঢাকা বিভাগ,street,boundaries,['bus_stop'],[],Bangladesh,Dhaka,Tangail,Mirzapur,Gorai,25cfdd4b247c0adcf6b250135e0f2d88
1090,2897130809,893cf11668bffff,24.0834952,90.170625,Fazlul Huq House,"Fazlul Huq House, Tangail District, Dhaka Division, Bangladesh","টাঙ্গাইল জেলা, ঢাকা বিভাগ, বাংলাদেশ","Fazlul Huq House, ",,,,বাংলাদেশ,ঢাকা বিভাগ,admin2,boundaries,['hostel'],[],Bangladesh,Dhaka,Tangail,Mirzapur,Gorai,25cfdd4b247c0adcf6b250135e0f2d88
1093,4055874069,893cf183533ffff,24.2728933,89.9217428,Tangail Polytechque,"Tangail Polytechque, Tangail, Tangail District, Dhaka Division, Bangladesh","টাঙ্গাইল জেলা, ঢাকা বিভাগ, বাংলাদেশ","Tangail Polytechque, ",,['Tangail Polytechnic Institute'],Tangail,বাংলাদেশ,ঢাকা বিভাগ,local_admin,boundaries,['educational_institution'],[],Bangladesh,Dhaka,Tangail,TangailSadar,TangailPaurashava,d3a53e2688067c7b18e5dcf57ba6e184
1095,4055876986,893cf18352fffff,24.2682895,89.9249274,Tangail New Bus Station,"Tangail New Bus Station, Tangail, Tangail District, Dhaka Division, Bangladesh","টাঙ্গাইল জেলা, ঢাকা বিভাগ, বাংলাদেশ","Tangail New Bus Station, ",,,Tangail,বাংলাদেশ,ঢাকা বিভাগ,local_admin,boundaries,['bus_station'],[],Bangladesh,Dhaka,Tangail,TangailSadar,TangailPaurashava,d3a53e2688067c7b18e5dcf57ba6e184
1096,2897131418,893cf11668bffff,24.0829792,90.1708477,MCC Dining Hall,"MCC Dining Hall, Tangail District, Dhaka Division, Bangladesh","টাঙ্গাইল জেলা, ঢাকা বিভাগ, বাংলাদেশ","MCC Dining Hall, ",,,,বাংলাদেশ,ঢাকা বিভাগ,admin2,boundaries,['cafe'],[],Bangladesh,Dhaka,Tangail,Mirzapur,Gorai,25cfdd4b247c0adcf6b250135e0f2d88
1098,4084382452,893cf52e817ffff,24.5594621,89.9288228,Nandanpur Govt. Boys Primary School,"Nandanpur Govt. Boys Primary School, Gopalpur, Tangail District, Dhaka Division, Bangladesh","টাঙ্গাইল জেলা, ঢাকা বিভাগ, বাংলাদেশ","Nandanpur Govt. Boys Primary School, ",,,Gopalpur,বাংলাদেশ,ঢাকা বিভাগ,local_admin,boundaries,['kindergarten'],[],Bangladesh,Dhaka,Tangail,Gopalpur,GopalpurPaurashava,c4dc9679f52e1cb9c010c7a774abc3b5
1099,2897133022,893cf18d937ffff,24.0970422,90.166586,Hatubhanga,"Hatubhanga, Tangail District, Dhaka Division, Bangladesh","টাঙ্গাইল জেলা, ঢাকা বিভাগ, বাংলাদেশ",Hatubhanga,,,,বাংলাদেশ,ঢাকা বিভাগ,street,boundaries,['bus_stop'],[],Bangladesh,Dhaka,Tangail,Mirzapur,Gorai,25cfdd4b247c0adcf6b250135e0f2d88
1101,2897134522,893cf18d9bbffff,24.0995587,90.1591797,Tangail Cotton Mills High School,"Tangail Cotton Mills High School, Tangail District, Dhaka Division, Bangladesh","টাঙ্গাইল জেলা, ঢাকা বিভাগ, বাংলাদেশ","Tangail Cotton Mills High School, ",,,,বাংলাদেশ,ঢাকা বিভাগ,admin2,boundaries,['school'],[],Bangladesh,Dhaka,Tangail,Mirzapur,Gorai,25cfdd4b247c0adcf6b250135e0f2d88
1102,4084383410,893cf52e817ffff,24.5597363,89.9283527,Suti V.M. Pilot Model High School,"Suti V.M. Pilot Model High School, Gopalpur, Tangail District, Dhaka Division, Bangladesh","টাঙ্গাইল জেলা, ঢাকা বিভাগ, বাংলাদেশ","Suti V.M. Pilot Model High School, ",,,Gopalpur,বাংলাদেশ,ঢাকা বিভাগ,local_admin,boundaries,['school'],[],Bangladesh,Dhaka,Tangail,Gopalpur,GopalpurPaurashava,c4dc9679f52e1cb9c010c7a774abc3b5
1105,4084387138,893cf52e8bbffff,24.562116,89.9285976,Gopalpur Police Station,"Gopalpur Police Station, Gopalpur, Tangail District, Dhaka Division, Bangladesh","টাঙ্গাইল জেলা, ঢাকা বিভাগ, বাংলাদেশ","Gopalpur Police Station, ",,,Gopalpur,বাংলাদেশ,ঢাকা বিভাগ,local_admin,boundaries,['police'],[],Bangladesh,Dhaka,Tangail,Gopalpur,GopalpurPaurashava,c4dc9679f52e1cb9c010c7a774abc3b5
1107,4084389546,893cf52e817ffff,24.5599018,89.9273526,Pouro Mukul Academy,"Pouro Mukul Academy, Gopalpur, Tangail District, Dhaka Division, Bangladesh","টাঙ্গাইল জেলা, ঢাকা বিভাগ, বাংলাদেশ","Pouro Mukul Academy, ",,,Gopalpur,বাংলাদেশ,ঢাকা বিভাগ,local_admin,boundaries,['kindergarten'],[],Bangladesh,Dhaka,Tangail,Gopalpur,GopalpurPaurashava,c4dc9679f52e1cb9c010c7a774abc3b5
1110,4084389548,893cf52e887ffff,24.5655986,89.9277404,Gopalpur Alia Madrasha,"Gopalpur Alia Madrasha, Gopalpur, Tangail District, Dhaka Division, Bangladesh","টাঙ্গাইল জেলা, ঢাকা বিভাগ, বাংলাদেশ","Gopalpur Alia Madrasha, ",,,Gopalpur,বাংলাদেশ,ঢাকা বিভাগ,local_admin,boundaries,['school'],[],Bangladesh,Dhaka,Tangail,Gopalpur,GopalpurPaurashava,c4dc9679f52e1cb9c010c7a774abc3b5
1113,4084389549,893cf52e887ffff,24.5654047,89.927685,,"Gopalpur, Tangail District, Dhaka Division, Bangladesh","টাঙ্গাইল জেলা, ঢাকা বিভাগ, বাংলাদেশ",,,,Gopalpur,বাংলাদেশ,ঢাকা বিভাগ,local_admin,boundaries,['place_of_worship_muslim'],[],Bangladesh,Dhaka,Tangail,Gopalpur,GopalpurPaurashava,c4dc9679f52e1cb9c010c7a774abc3b5
1116,4084389668,893cf52e88fffff,24.5625517,89.92618,,"Gopalpur, Tangail District, Dhaka Division, Bangladesh","টাঙ্গাইল জেলা, ঢাকা বিভাগ, বাংলাদেশ",,,,Gopalpur,বাংলাদেশ,ঢাকা বিভাগ,local_admin,boundaries,['place_of_worship_muslim'],[],Bangladesh,Dhaka,Tangail,Gopalpur,GopalpurPaurashava,c4dc9679f52e1cb9c010c7a774abc3b5
1119,4084390629,893cf52e8bbffff,24.5620254,89.9283221,Gopalpur Tahna Jame Mosque,"Gopalpur Tahna Jame Mosque, Gopalpur, Tangail District, Dhaka Division, Bangladesh","টাঙ্গাইল জেলা, ঢাকা বিভাগ, বাংলাদেশ","Gopalpur Tahna Jame Mosque, ",,,Gopalpur,বাংলাদেশ,ঢাকা বিভাগ,local_admin,boundaries,['place_of_worship_muslim'],[],Bangladesh,Dhaka,Tangail,Gopalpur,GopalpurPaurashava,c4dc9679f52e1cb9c010c7a774abc3b5
1122,4084390721,893cf52e817ffff,24.5605865,89.9276678,Kazibari Jame Mosque,"Kazibari Jame Mosque, Gopalpur, Tangail District, Dhaka Division, Bangladesh","টাঙ্গাইল জেলা, ঢাকা বিভাগ, বাংলাদেশ","Kazibari Jame Mosque, ",,,Gopalpur,বাংলাদেশ,ঢাকা বিভাগ,local_admin,boundaries,['place_of_worship_muslim'],[],Bangladesh,Dhaka,Tangail,Gopalpur,GopalpurPaurashava,c4dc9679f52e1cb9c010c7a774abc3b5
1125,4084390958,893cf52e887ffff,24.5662461,89.927758,Light House Labrotort School,"Light House Labrotort School, Gopalpur, Tangail District, Dhaka Division, Bangladesh","টাঙ্গাইল জেলা, ঢাকা বিভাগ, বাংলাদেশ","Light House Labrotort School, ",,,Gopalpur,বাংলাদেশ,ঢাকা বিভাগ,local_admin,boundaries,['kindergarten'],[],Bangladesh,Dhaka,Tangail,Gopalpur,GopalpurPaurashava,c4dc9679f52e1cb9c010c7a774abc3b5
1128,4084392250,893cf52e803ffff,24.5552999,89.9282575,Nandanpur Radharani Girls High School,"Nandanpur Radharani Girls High School, Gopalpur, Tangail District, Dhaka Division, Bangladesh","টাঙ্গাইল জেলা, ঢাকা বিভাগ, বাংলাদেশ","Nandanpur Radharani Girls High School, ",,,Gopalpur,বাংলাদেশ,ঢাকা বিভাগ,local_admin,boundaries,['school'],[],Bangladesh,Dhaka,Tangail,Gopalpur,GopalpurPaurashava,c4dc9679f52e1cb9c010c7a774abc3b5
1130,4084393905,893cf52e80fffff,24.5550677,89.9301675,Gopalpur College,"Gopalpur College, Gopalpur, Tangail District, Dhaka Division, Bangladesh","টাঙ্গাইল জেলা, ঢাকা বিভাগ, বাংলাদেশ","Gopalpur College, ",,,Gopalpur,বাংলাদেশ,ঢাকা বিভাগ,local_admin,boundaries,['college'],[],Bangladesh,Dhaka,Tangail,Gopalpur,GopalpurPaurashava,c4dc9679f52e1cb9c010c7a774abc3b5
1133,4124426030,893cf183183ffff,24.2618854,89.9293784,Sabalia Tintala,"Sabalia Tintala, Tangail, Tangail District, Dhaka Division, Bangladesh","টাঙ্গাইল জেলা, ঢাকা বিভাগ, বাংলাদেশ",Sabalia Tintala,,,Tangail,বাংলাদেশ,ঢাকা বিভাগ,street,boundaries,['bus_stop'],[],Bangladesh,Dhaka,Tangail,TangailSadar,TangailPaurashava,d3a53e2688067c7b18e5dcf57ba6e184
1146,4312232136,893cf183033ffff,24.2505996,89.9154273,Victoria Food Zone & Party Centre,"Victoria Food Zone & Party Centre, Tangail, Tangail District, Dhaka Division, Bangladesh","টাঙ্গাইল জেলা, ঢাকা বিভাগ, বাংলাদেশ","Victoria Food Zone & Party Centre, ",,,Tangail,বাংলাদেশ,ঢাকা বিভাগ,local_admin,boundaries,['restaurant'],[],Bangladesh,Dhaka,Tangail,TangailSadar,TangailPaurashava,d3a53e2688067c7b18e5dcf57ba6e184
1149,4312237283,893cf1831dbffff,24.2527982,89.918749,Prottasha Fast Food,"Prottasha Fast Food, Tangail, Tangail District, Dhaka Division, Bangladesh","টাঙ্গাইল জেলা, ঢাকা বিভাগ, বাংলাদেশ","Prottasha Fast Food, ",,,Tangail,বাংলাদেশ,ঢাকা বিভাগ,local_admin,boundaries,['fast_food'],[],Bangladesh,Dhaka,Tangail,TangailSadar,TangailPaurashava,d3a53e2688067c7b18e5dcf57ba6e184
1151,4312265736,893cf1830afffff,24.2530083,89.9149926,Press Club Community Center,"Press Club Community Center, Tangail, Tangail District, Dhaka Division, Bangladesh","টাঙ্গাইল জেলা, ঢাকা বিভাগ, বাংলাদেশ","Press Club Community Center, ",,,Tangail,বাংলাদেশ,ঢাকা বিভাগ,local_admin,boundaries,['community_centre'],[],Bangladesh,Dhaka,Tangail,TangailSadar,TangailPaurashava,d3a53e2688067c7b18e5dcf57ba6e184
1155,4312351692,893cf1830afffff,24.2513013,89.9146182,,"Tangail, Tangail District, Dhaka Division, Bangladesh","টাঙ্গাইল জেলা, ঢাকা বিভাগ, বাংলাদেশ",,,,Tangail,বাংলাদেশ,ঢাকা বিভাগ,local_admin,boundaries,['cafe'],[],Bangladesh,Dhaka,Tangail,TangailSadar,TangailPaurashava,d3a53e2688067c7b18e5dcf57ba6e184
1158,4312351693,893cf1830afffff,24.2522458,89.9149228,BTRC,"BTRC, Tangail, Tangail District, Dhaka Division, Bangladesh","টাঙ্গাইল জেলা, ঢাকা বিভাগ, বাংলাদেশ","BTRC, ",,,Tangail,বাংলাদেশ,ঢাকা বিভাগ,local_admin,boundaries,['government'],[],Bangladesh,Dhaka,Tangail,TangailSadar,TangailPaurashava,d3a53e2688067c7b18e5dcf57ba6e184
1162,4346986265,893cf183563ffff,24.2619923,89.9196103,DC Lake,"DC Lake, Tangail, Tangail District, Dhaka Division, Bangladesh","টাঙ্গাইল জেলা, ঢাকা বিভাগ, বাংলাদেশ","DC Lake, ",,,Tangail,বাংলাদেশ,ঢাকা বিভাগ,local_admin,boundaries,['park'],[],Bangladesh,Dhaka,Tangail,TangailSadar,TangailPaurashava,d3a53e2688067c7b18e5dcf57ba6e184
1172,4388881720,893cf190a4fffff,24.319518,89.9063883,river,"river, Kalihati, Tangail District, Dhaka Division, Bangladesh","টাঙ্গাইল জেলা, ঢাকা বিভাগ, বাংলাদেশ","river, ",,,Kalihati,বাংলাদেশ,ঢাকা বিভাগ,local_admin,boundaries,['water_works'],[],Bangladesh,Dhaka,Tangail,TangailSadar,Magra,6cfbaf5b3cb5bdc01f7990024c9ca4d2
1175,4388906811,893cf1831c3ffff,24.2539572,89.9227882,,"Tangail, Tangail District, Dhaka Division, Bangladesh","টাঙ্গাইল জেলা, ঢাকা বিভাগ, বাংলাদেশ",,,,Tangail,বাংলাদেশ,ঢাকা বিভাগ,local_admin,boundaries,['water_works'],[],Bangladesh,Dhaka,Tangail,TangailSadar,TangailPaurashava,d3a53e2688067c7b18e5dcf57ba6e184
1191,4664260501,893cf18352fffff,24.2677796,89.9261526,,,,,,['কাশেম ফজলুল টাঙ্গাইল ইঞ্জিনিয়ারিং ওয়ার্কসপ ।'],Tangail,বাংলাদেশ,ঢাকা বিভাগ,housenumber,sameSource,['car_repair'],[],Bangladesh,Dhaka,Tangail,TangailSadar,TangailPaurashava,d3a53e2688067c7b18e5dcf57ba6e184
1195,4664406390,893cf18352fffff,24.2675717,89.9262418,,,,,,['KHASEM FUZLOL ENGINEERING WORKSHOP. TANGAIL'],Tangail,বাংলাদেশ,ঢাকা বিভাগ,housenumber,sameSource,['car_repair'],[],Bangladesh,Dhaka,Tangail,TangailSadar,TangailPaurashava,d3a53e2688067c7b18e5dcf57ba6e184
1201,4867298721,893cf183013ffff,24.2488567,89.9057164,,,,,,"['Kagmari Road, College Para\xa0']",Tangail,বাংলাদেশ,ঢাকা বিভাগ,housenumber,sameSource,['bakery'],[],Bangladesh,Dhaka,Tangail,TangailSadar,TangailPaurashava,d3a53e2688067c7b18e5dcf57ba6e184
1226,5107031325,893cf18303bffff,24.2465687,89.9134712,,"Tangail, Tangail District, Dhaka Division, Bangladesh","টাঙ্গাইল জেলা, ঢাকা বিভাগ, বাংলাদেশ",,,['Shawon Store'],Tangail,বাংলাদেশ,ঢাকা বিভাগ,local_admin,boundaries,['beauty_salon'],[],Bangladesh,Dhaka,Tangail,TangailSadar,TangailPaurashava,d3a53e2688067c7b18e5dcf57ba6e184
1229,5119401075,893cf1818cbffff,24.1908908,89.9932621,Hazi Filling Station,"Hazi Filling Station, Basail, Tangail District, Dhaka Division, Bangladesh","টাঙ্গাইল জেলা, ঢাকা বিভাগ, বাংলাদেশ","Hazi Filling Station, ",,,Basail,বাংলাদেশ,ঢাকা বিভাগ,local_admin,boundaries,['fuel'],[],Bangladesh,Dhaka,Tangail,Basail,Habla,487e2d3e64e8a609e3d21fb5fea8a821
1231,5119407819,893cf181853ffff,24.1871544,89.9966218,বাওয়খোলা bus stop,"bus stop, Basail, Tangail District, Dhaka Division, Bangladesh","বাওয়খোলা, টাঙ্গাইল জেলা, ঢাকা বিভাগ, বাংলাদেশ",,,,Basail,বাংলাদেশ,ঢাকা বিভাগ,street,boundaries,['bus_stop'],[],Bangladesh,Dhaka,Tangail,Basail,Habla,487e2d3e64e8a609e3d21fb5fea8a821
1234,5119421892,893cf181cc7ffff,24.2088045,89.9805012,Korotiya Bypass Bus Stop,"Korotiya Bypass Bus Stop, Basail, Tangail District, Dhaka Division, Bangladesh","করোটিয়া বাইপাস, টাঙ্গাইল জেলা, ঢাকা বিভাগ, বাংলাদেশ","Korotiya Bypass Bus Stop, ",,['করোটিয়া বাইপাস'],Basail,বাংলাদেশ,ঢাকা বিভাগ,street,boundaries,['bus_stop'],[],Bangladesh,Dhaka,Tangail,TangailSadar,Karatia,2bc6dc7744494612ce6e24e2de51e66e
1237,5119427957,893cf180263ffff,24.2169179,89.9720315,FONINDRO HOTEL,"FONINDRO HOTEL, Tangail, Tangail District, Dhaka Division, Bangladesh","টাঙ্গাইল জেলা, ঢাকা বিভাগ, বাংলাদেশ","FONINDRO HOTEL, ",,,Tangail,বাংলাদেশ,ঢাকা বিভাগ,local_admin,boundaries,['restaurant'],[],Bangladesh,Dhaka,Tangail,TangailSadar,Karatia,2bc6dc7744494612ce6e24e2de51e66e
1240,5119428361,893cf180263ffff,24.2155618,89.9735337,Madarjani Masjid,"Madarjani Masjid, Tangail, Tangail District, Dhaka Division, Bangladesh","টাঙ্গাইল জেলা, ঢাকা বিভাগ, বাংলাদেশ","Madarjani Masjid, ",,,Tangail,বাংলাদেশ,ঢাকা বিভাগ,local_admin,boundaries,['place_of_worship_muslim'],[],Bangladesh,Dhaka,Tangail,TangailSadar,Karatia,2bc6dc7744494612ce6e24e2de51e66e
1243,5119428462,893cf181cd7ffff,24.2108834,89.9773091,করাতিপারা পশ্চিম পারা জামে মসজিদ,"Tangail, Tangail District, Dhaka Division, Bangladesh","করাতিপারা পশ্চিম পারা জামে মসজিদ, টাঙ্গাইল জেলা, ঢাকা বিভাগ, বাংলাদেশ",,"করাতিপারা পশ্চিম পারা জামে মসজিদ, ",,Tangail,বাংলাদেশ,ঢাকা বিভাগ,local_admin,boundaries,['place_of_worship_muslim'],[],Bangladesh,Dhaka,Tangail,TangailSadar,Karatia,2bc6dc7744494612ce6e24e2de51e66e
1246,5119430820,893cf18020bffff,24.221699,89.9667142,Anowara Filling Station,"Anowara Filling Station, Tangail, Tangail District, Dhaka Division, Bangladesh","টাঙ্গাইল জেলা, ঢাকা বিভাগ, বাংলাদেশ","Anowara Filling Station, ",,,Tangail,বাংলাদেশ,ঢাকা বিভাগ,local_admin,boundaries,['fuel'],[],Bangladesh,Dhaka,Tangail,TangailSadar,Karatia,2bc6dc7744494612ce6e24e2de51e66e
1248,5119435345,893cf18029bffff,24.230324799999998,89.9593213,মসজিদ Masjid,"Masjid, Tangail, Tangail District, Dhaka Division, Bangladesh","মসজিদ, টাঙ্গাইল জেলা, ঢাকা বিভাগ, বাংলাদেশ",,,,Tangail,বাংলাদেশ,ঢাকা বিভাগ,local_admin,boundaries,['place_of_worship_muslim'],[],Bangladesh,Dhaka,Tangail,TangailSadar,Karatia,2bc6dc7744494612ce6e24e2de51e66e
1250,5119449502,893cf1806c7ffff,24.2407424,89.9448647,Zemeco Motors,"Zemeco Motors, Tangail, Tangail District, Dhaka Division, Bangladesh","টাঙ্গাইল জেলা, ঢাকা বিভাগ, বাংলাদেশ","Zemeco Motors, ",,,Tangail,বাংলাদেশ,ঢাকা বিভাগ,local_admin,boundaries,['car_parts'],[],Bangladesh,Dhaka,Tangail,TangailSadar,Karatia,2bc6dc7744494612ce6e24e2de51e66e
1252,5123545447,893cf183167ffff,24.2472478,89.9395782,Asian Highway Filling Station,"Asian Highway Filling Station, Tangail, Tangail District, Dhaka Division, Bangladesh","টাঙ্গাইল জেলা, ঢাকা বিভাগ, বাংলাদেশ","Asian Highway Filling Station, ",,,Tangail,বাংলাদেশ,ঢাকা বিভাগ,local_admin,boundaries,['fuel'],[],Bangladesh,Dhaka,Tangail,TangailSadar,TangailPaurashava,d3a53e2688067c7b18e5dcf57ba6e184
1254,5123553588,893cf1822c3ffff,24.2777433,89.929127,HOTEL VIP INN,"HOTEL VIP INN, Tangail, Tangail District, Dhaka Division, Bangladesh","টাঙ্গাইল জেলা, ঢাকা বিভাগ, বাংলাদেশ","HOTEL VIP INN, ",,,Tangail,বাংলাদেশ,ঢাকা বিভাগ,local_admin,boundaries,['hotel'],[],Bangladesh,Dhaka,Tangail,TangailSadar,TangailPaurashava,d3a53e2688067c7b18e5dcf57ba6e184
1256,5123555376,893cf18267bffff,24.2820084,89.920604,Maya Hotel মায়া হোটেল,"Maya Hotel, Tangail, Tangail District, Dhaka Division, Bangladesh","মায়া হোটেল, টাঙ্গাইল জেলা, ঢাকা বিভাগ, বাংলাদেশ",,,,Tangail,বাংলাদেশ,ঢাকা বিভাগ,local_admin,boundaries,['hotel'],[],Bangladesh,Dhaka,Tangail,TangailSadar,Gala,e9479d9498d15c0ace73fde0f2b184c7
1258,5123555412,893cf18264fffff,24.2832524,89.918292,Nitol CNG Filling Station নিটল সিএনজি ফিলিং স্টেশনের,"Nitol CNG Filling Station, Tangail, Tangail District, Dhaka Division, Bangladesh","নিটল সিএনজি ফিলিং স্টেশনের, টাঙ্গাইল জেলা, ঢাকা বিভাগ, বাংলাদেশ",,,,Tangail,বাংলাদেশ,ঢাকা বিভাগ,local_admin,boundaries,['fuel'],[],Bangladesh,Dhaka,Tangail,TangailSadar,TangailPaurashava,d3a53e2688067c7b18e5dcf57ba6e184
1261,5123555884,893cf182647ffff,24.2843545,89.9173802,Bypass Bus Stop,"Bypass Bus Stop, Tangail, Tangail District, Dhaka Division, Bangladesh","টাঙ্গাইল জেলা, ঢাকা বিভাগ, বাংলাদেশ",Bypass Bus Stop,,,Tangail,বাংলাদেশ,ঢাকা বিভাগ,street,boundaries,['bus_stop'],[],Bangladesh,Dhaka,Tangail,TangailSadar,Gala,e9479d9498d15c0ace73fde0f2b184c7
1264,5123559129,893cf18264fffff,24.2828416,89.9179621,Korean CNG Station,"Korean CNG Station, Tangail, Tangail District, Dhaka Division, Bangladesh","টাঙ্গাইল জেলা, ঢাকা বিভাগ, বাংলাদেশ","Korean CNG Station, ",,,Tangail,বাংলাদেশ,ঢাকা বিভাগ,local_admin,boundaries,['fuel'],[],Bangladesh,Dhaka,Tangail,TangailSadar,TangailPaurashava,d3a53e2688067c7b18e5dcf57ba6e184
1267,5123559558,893cf18264fffff,24.2827292,89.9179326,Intraco CNG Filling Station,"Intraco CNG Filling Station, Tangail, Tangail District, Dhaka Division, Bangladesh","টাঙ্গাইল জেলা, ঢাকা বিভাগ, বাংলাদেশ","Intraco CNG Filling Station, ",,,Tangail,বাংলাদেশ,ঢাকা বিভাগ,local_admin,boundaries,['fuel'],[],Bangladesh,Dhaka,Tangail,TangailSadar,TangailPaurashava,d3a53e2688067c7b18e5dcf57ba6e184
1272,5123559853,893cf18264fffff,24.2836649,89.9169902,,"Tangail, Tangail District, Dhaka Division, Bangladesh","টাঙ্গাইল জেলা, ঢাকা বিভাগ, বাংলাদেশ",,,,Tangail,বাংলাদেশ,ঢাকা বিভাগ,local_admin,boundaries,['car_parts'],[],Bangladesh,Dhaka,Tangail,TangailSadar,TangailPaurashava,d3a53e2688067c7b18e5dcf57ba6e184
1276,5123576910,893cf182443ffff,24.3079851,89.920552,Neel Akash Hotel & Restaurent,"Neel Akash Hotel & Restaurent, Kalihati, Tangail District, Dhaka Division, Bangladesh","টাঙ্গাইল জেলা, ঢাকা বিভাগ, বাংলাদেশ","Neel Akash Hotel & Restaurent, ",,,Kalihati,বাংলাদেশ,ঢাকা বিভাগ,local_admin,boundaries,['restaurant'],[],Bangladesh,Dhaka,Tangail,TangailSadar,Gala,e9479d9498d15c0ace73fde0f2b184c7
1279,5123582846,893cf18241bffff,24.3124595,89.922156,CNG Filling Station সিএনজি ফিলিং স্টেশন,"CNG Filling Station, Kalihati, Tangail District, Dhaka Division, Bangladesh","সিএনজি ফিলিং স্টেশন, টাঙ্গাইল জেলা, ঢাকা বিভাগ, বাংলাদেশ",,,,Kalihati,বাংলাদেশ,ঢাকা বিভাগ,local_admin,boundaries,['fuel'],[],Bangladesh,Dhaka,Tangail,Kalihati,Elenga,031435dfacd83bf4bcccaea80ee4f539
1282,5123602050,893cf190b53ffff,24.3295054,89.9251591,khandokar Enterprise খন্দকার এন্টারপ্রাইজ,"khandokar Enterprise, Kalihati, Tangail District, Dhaka Division, Bangladesh","খন্দকার এন্টারপ্রাইজ, টাঙ্গাইল জেলা, ঢাকা বিভাগ, বাংলাদেশ",,,,Kalihati,বাংলাদেশ,ঢাকা বিভাগ,local_admin,boundaries,['supermarket'],[],Bangladesh,Dhaka,Tangail,Kalihati,Elenga,031435dfacd83bf4bcccaea80ee4f539
1285,5123603658,893cf190b53ffff,24.3306624,89.9246511,Samko CNG,"Samko CNG, Kalihati, Tangail District, Dhaka Division, Bangladesh","টাঙ্গাইল জেলা, ঢাকা বিভাগ, বাংলাদেশ","Samko CNG, ",,,Kalihati,বাংলাদেশ,ঢাকা বিভাগ,local_admin,boundaries,['fuel'],[],Bangladesh,Dhaka,Tangail,Kalihati,Elenga,031435dfacd83bf4bcccaea80ee4f539
1288,5123606523,893cf190b53ffff,24.331438,89.9245991,Semco Cng Filling Station,"Semco Cng Filling Station, Kalihati, Tangail District, Dhaka Division, Bangladesh","টাঙ্গাইল জেলা, ঢাকা বিভাগ, বাংলাদেশ","Semco Cng Filling Station, ",,,Kalihati,বাংলাদেশ,ঢাকা বিভাগ,local_admin,boundaries,['fuel'],[],Bangladesh,Dhaka,Tangail,Kalihati,Elenga,031435dfacd83bf4bcccaea80ee4f539
1291,5123609314,893cf190bcfffff,24.3331861,89.9246168,Hotel Al Arif,"Hotel Al Arif, Kalihati, Tangail District, Dhaka Division, Bangladesh","টাঙ্গাইল জেলা, ঢাকা বিভাগ, বাংলাদেশ","Hotel Al Arif, ",,,Kalihati,বাংলাদেশ,ঢাকা বিভাগ,local_admin,boundaries,['restaurant'],[],Bangladesh,Dhaka,Tangail,Kalihati,Elenga,031435dfacd83bf4bcccaea80ee4f539
1295,5123610127,893cf190bcfffff,24.3336578,89.9248555,হোটেল শ্যামলী এন্ড রেস্টুরেন্ট,"Kalihati, Tangail District, Dhaka Division, Bangladesh","হোটেল শ্যামলী এন্ড রেস্টুরেন্ট, টাঙ্গাইল জেলা, ঢাকা বিভাগ, বাংলাদেশ",,"হোটেল শ্যামলী এন্ড রেস্টুরেন্ট, ",,Kalihati,বাংলাদেশ,ঢাকা বিভাগ,local_admin,boundaries,['restaurant'],[],Bangladesh,Dhaka,Tangail,Kalihati,Elenga,031435dfacd83bf4bcccaea80ee4f539
1298,5123613770,893cf190bcfffff,24.3345771,89.9248143,Shapown Pharmacy স্বপন ফার্মেসি,"Shapown Pharmacy, Kalihati, Tangail District, Dhaka Division, Bangladesh","স্বপন ফার্মেসি, টাঙ্গাইল জেলা, ঢাকা বিভাগ, বাংলাদেশ",,,,Kalihati,বাংলাদেশ,ঢাকা বিভাগ,local_admin,boundaries,['pharmacy'],[],Bangladesh,Dhaka,Tangail,Kalihati,Elenga,031435dfacd83bf4bcccaea80ee4f539
1301,5123615824,893cf190bcfffff,24.3345942,89.9251818,,"Kalihati, Tangail District, Dhaka Division, Bangladesh","টাঙ্গাইল জেলা, ঢাকা বিভাগ, বাংলাদেশ",,,,Kalihati,বাংলাদেশ,ঢাকা বিভাগ,local_admin,boundaries,['atm'],[],Bangladesh,Dhaka,Tangail,Kalihati,Elenga,031435dfacd83bf4bcccaea80ee4f539
1304,5123618976,893cf190bc3ffff,24.3346729,89.9241391,Dutch-Bangla Bank ltd. Elenga,"Dutch-Bangla Bank ltd. Elenga, Kalihati, Tangail District, Dhaka Division, Bangladesh","টাঙ্গাইল জেলা, ঢাকা বিভাগ, বাংলাদেশ","Dutch-Bangla Bank ltd. Elenga, ",,,Kalihati,বাংলাদেশ,ঢাকা বিভাগ,local_admin,boundaries,['bank'],[],Bangladesh,Dhaka,Tangail,Kalihati,Elenga,031435dfacd83bf4bcccaea80ee4f539
1306,5123626386,893cf190bc3ffff,24.3347192,89.9239358,Basic Bank Limited,"Basic Bank Limited, Kalihati, Tangail District, Dhaka Division, Bangladesh","টাঙ্গাইল জেলা, ঢাকা বিভাগ, বাংলাদেশ","Basic Bank Limited, ",,,Kalihati,বাংলাদেশ,ঢাকা বিভাগ,local_admin,boundaries,['bank'],[],Bangladesh,Dhaka,Tangail,Kalihati,Elenga,031435dfacd83bf4bcccaea80ee4f539
1308,5123626901,893cf190bc3ffff,24.3347451,89.9240333,Omar Faruqe Electronics,"Omar Faruqe Electronics, Kalihati, Tangail District, Dhaka Division, Bangladesh","টাঙ্গাইল জেলা, ঢাকা বিভাগ, বাংলাদেশ","Omar Faruqe Electronics, ",,,Kalihati,বাংলাদেশ,ঢাকা বিভাগ,local_admin,boundaries,['electronics'],[],Bangladesh,Dhaka,Tangail,Kalihati,Elenga,031435dfacd83bf4bcccaea80ee4f539
1316,5123628120,893cf190bc3ffff,24.3346201,89.9233116,ইসলামী ব্যাংক বাংলাদেশ লিমিটেড,"Kalihati, Tangail District, Dhaka Division, Bangladesh","ইসলামী ব্যাংক বাংলাদেশ লিমিটেড, টাঙ্গাইল জেলা, ঢাকা বিভাগ, বাংলাদেশ",,"ইসলামী ব্যাংক বাংলাদেশ লিমিটেড, ",['Islami Bank Bangladesh Limited'],Kalihati,বাংলাদেশ,ঢাকা বিভাগ,local_admin,boundaries,['bank'],[],Bangladesh,Dhaka,Tangail,Kalihati,Elenga,031435dfacd83bf4bcccaea80ee4f539
1319,5123631547,893cf190bcfffff,24.3349093,89.9246263,Elenga Bus Station এলেংগা বাস স্টেশন,"Elenga Bus Station, Kalihati, Tangail District, Dhaka Division, Bangladesh","এলেংগা বাস স্টেশন, টাঙ্গাইল জেলা, ঢাকা বিভাগ, বাংলাদেশ",,,,Kalihati,বাংলাদেশ,ঢাকা বিভাগ,street,boundaries,['bus_stop'],[],Bangladesh,Dhaka,Tangail,Kalihati,Elenga,031435dfacd83bf4bcccaea80ee4f539
1322,5123631893,893cf190bc3ffff,24.3349832,89.9235465,ন্যাশনাল ব্যাংক,"Kalihati, Tangail District, Dhaka Division, Bangladesh","ন্যাশনাল ব্যাংক, টাঙ্গাইল জেলা, ঢাকা বিভাগ, বাংলাদেশ",,"ন্যাশনাল ব্যাংক, ",['National Bank'],Kalihati,বাংলাদেশ,ঢাকা বিভাগ,local_admin,boundaries,['bank'],[],Bangladesh,Dhaka,Tangail,Kalihati,Elenga,031435dfacd83bf4bcccaea80ee4f539
1325,5123638321,893cf190bcfffff,24.3349737,89.9248424,এলেঙ্গা ক্যাফে,"Kalihati, Tangail District, Dhaka Division, Bangladesh","এলেঙ্গা ক্যাফে, টাঙ্গাইল জেলা, ঢাকা বিভাগ, বাংলাদেশ",,"এলেঙ্গা ক্যাফে, ",,Kalihati,বাংলাদেশ,ঢাকা বিভাগ,local_admin,boundaries,['cafe'],[],Bangladesh,Dhaka,Tangail,Kalihati,Elenga,031435dfacd83bf4bcccaea80ee4f539
1328,5123641207,893cf190bcfffff,24.3350411,89.9247931,Sabuz Store সবুজ স্টোর,"Sabuz Store, Kalihati, Tangail District, Dhaka Division, Bangladesh","সবুজ স্টোর, টাঙ্গাইল জেলা, ঢাকা বিভাগ, বাংলাদেশ",,,,Kalihati,বাংলাদেশ,ঢাকা বিভাগ,local_admin,boundaries,['toys'],[],Bangladesh,Dhaka,Tangail,Kalihati,Elenga,031435dfacd83bf4bcccaea80ee4f539
1331,5123644011,893cf190bc3ffff,24.3353117,89.9248852,Banoful Mistanno Vandar,"Banoful Mistanno Vandar, Kalihati, Tangail District, Dhaka Division, Bangladesh","টাঙ্গাইল জেলা, ঢাকা বিভাগ, বাংলাদেশ","Banoful Mistanno Vandar, ",,,Kalihati,বাংলাদেশ,ঢাকা বিভাগ,local_admin,boundaries,['restaurant'],[],Bangladesh,Dhaka,Tangail,Kalihati,Elenga,031435dfacd83bf4bcccaea80ee4f539
1335,5123645247,893cf190bc7ffff,24.3354513,89.9251886,Bata,"Bata, Kalihati, Tangail District, Dhaka Division, Bangladesh","টাঙ্গাইল জেলা, ঢাকা বিভাগ, বাংলাদেশ","Bata, ",,,Kalihati,বাংলাদেশ,ঢাকা বিভাগ,local_admin,boundaries,['shoes'],[],Bangladesh,Dhaka,Tangail,Kalihati,Elenga,031435dfacd83bf4bcccaea80ee4f539
1338,5148838294,893cf1831dbffff,24.2537277,89.9202,Buro Rest House Tangail,"Buro Rest House Tangail, Tangail, Tangail District, Dhaka Division, Bangladesh","টাঙ্গাইল জেলা, ঢাকা বিভাগ, বাংলাদেশ","Buro Rest House Tangail, ",,,Tangail,বাংলাদেশ,ঢাকা বিভাগ,local_admin,boundaries,['guest_house'],[],Bangladesh,Dhaka,Tangail,TangailSadar,TangailPaurashava,d3a53e2688067c7b18e5dcf57ba6e184
1341,5148838295,893cf1831dbffff,24.2527837,89.9198272,Entrance BURO,"Entrance BURO, Tangail, Tangail District, Dhaka Division, Bangladesh","টাঙ্গাইল জেলা, ঢাকা বিভাগ, বাংলাদেশ","Entrance BURO, ",,,Tangail,বাংলাদেশ,ঢাকা বিভাগ,local_admin,boundaries,['gate'],[],Bangladesh,Dhaka,Tangail,TangailSadar,TangailPaurashava,d3a53e2688067c7b18e5dcf57ba6e184
1344,5148838296,893cf1831dbffff,24.2533352,89.920019,BURO conference rooms,"BURO conference rooms, Tangail, Tangail District, Dhaka Division, Bangladesh","টাঙ্গাইল জেলা, ঢাকা বিভাগ, বাংলাদেশ","BURO conference rooms, ",,,Tangail,বাংলাদেশ,ঢাকা বিভাগ,local_admin,boundaries,['ngo'],[],Bangladesh,Dhaka,Tangail,TangailSadar,TangailPaurashava,d3a53e2688067c7b18e5dcf57ba6e184
1360,5356108267,893cf194673ffff,24.3868116,89.9943484,Dutch-Bangla Bank Limited (Fast Track),"Dutch-Bangla Bank Limited Fast Track, Kalihati, Tangail District, Dhaka Division, Bangladesh","টাঙ্গাইল জেলা, ঢাকা বিভাগ, বাংলাদেশ","Dutch-Bangla Bank Limited Fast Track, ",,,Kalihati,বাংলাদেশ,ঢাকা বিভাগ,local_admin,boundaries,['bank'],[],Bangladesh,Dhaka,Tangail,Kalihati,KalihatiPaurashava,b3d75023431747bf9af8dd2f15d9e3fe
1361,5356594303,893cf19464bffff,24.3831367,89.9860233,Kalihati Forest Rest House,"Kalihati Forest Rest House, Kalihati, Tangail District, Dhaka Division, Bangladesh","টাঙ্গাইল জেলা, ঢাকা বিভাগ, বাংলাদেশ","Kalihati Forest Rest House, ",,,Kalihati,বাংলাদেশ,ঢাকা বিভাগ,local_admin,boundaries,['park'],[],Bangladesh,Dhaka,Tangail,Kalihati,KalihatiPaurashava,b3d75023431747bf9af8dd2f15d9e3fe
1362,5356596919,893cf1954b7ffff,24.3745528,89.9707152,Baghutia Bazar,"Baghutia Bazar, Kalihati, Tangail District, Dhaka Division, Bangladesh","টাঙ্গাইল জেলা, ঢাকা বিভাগ, বাংলাদেশ","Baghutia Bazar, ",,,Kalihati,বাংলাদেশ,ঢাকা বিভাগ,local_admin,boundaries,['supermarket'],[],Bangladesh,Dhaka,Tangail,Kalihati,Bangra,0b6e38d3ad2e7c9c6e450bbf281db14c
1363,5356609216,893cf1954b7ffff,24.375823,89.9693283,Bangabandhu Textile Engineering College বঙ্গবন্ধু টেক্সটাইল ইঞ্জিনিয়ারিং কলেজ,"Bangabandhu Textile Engineering College, Kalihati, Tangail District, Dhaka Division, Bangladesh","বঙ্গবন্ধু টেক্সটাইল ইঞ্জিনিয়ারিং কলেজ, টাঙ্গাইল জেলা, ঢাকা বিভাগ, বাংলাদেশ",,,,Kalihati,বাংলাদেশ,ঢাকা বিভাগ,local_admin,boundaries,['place_of_worship'],[],Bangladesh,Dhaka,Tangail,Kalihati,Bangra,0b6e38d3ad2e7c9c6e450bbf281db14c
1364,5356627723,893cf19548bffff,24.367769,89.9568378,Bangra Bus Station,"Bangra Bus Station, Kalihati, Tangail District, Dhaka Division, Bangladesh","টাঙ্গাইল জেলা, ঢাকা বিভাগ, বাংলাদেশ","Bangra Bus Station, ",,,Kalihati,বাংলাদেশ,ঢাকা বিভাগ,local_admin,boundaries,['bus_station'],[],Bangladesh,Dhaka,Tangail,Kalihati,Bangra,0b6e38d3ad2e7c9c6e450bbf281db14c
1365,5356629716,893cf190937ffff,24.3603977,89.947909,Sholakura Bus Stand,"Sholakura Bus Stand, Kalihati, Tangail District, Dhaka Division, Bangladesh","টাঙ্গাইল জেলা, ঢাকা বিভাগ, বাংলাদেশ","Sholakura Bus Stand, ",,,Kalihati,বাংলাদেশ,ঢাকা বিভাগ,local_admin,boundaries,['bus_station'],[],Bangladesh,Dhaka,Tangail,Kalihati,Bangra,0b6e38d3ad2e7c9c6e450bbf281db14c
1366,5356632703,893cf19090bffff,24.3532985,89.9376761,Ichapur Sher-E-Bangla High School,"Ichapur Sher-E-Bangla High School, Kalihati, Tangail District, Dhaka Division, Bangladesh","টাঙ্গাইল জেলা, ঢাকা বিভাগ, বাংলাদেশ","Ichapur Sher-E-Bangla High School, ",,,Kalihati,বাংলাদেশ,ঢাকা বিভাগ,local_admin,boundaries,['school'],[],Bangladesh,Dhaka,Tangail,Kalihati,Bangra,0b6e38d3ad2e7c9c6e450bbf281db14c
1367,5356633900,893cf19090bffff,24.3543256,89.9377783,ইছাপুর বাসস্ট্যান্ড,"Kalihati, Tangail District, Dhaka Division, Bangladesh","ইছাপুর বাসস্ট্যান্ড, টাঙ্গাইল জেলা, ঢাকা বিভাগ, বাংলাদেশ",,"ইছাপুর বাসস্ট্যান্ড, ",,Kalihati,বাংলাদেশ,ঢাকা বিভাগ,local_admin,boundaries,['bus_station'],[],Bangladesh,Dhaka,Tangail,Kalihati,Bangra,0b6e38d3ad2e7c9c6e450bbf281db14c
1368,5356637318,893cf190957ffff,24.3519481,89.9349137,Touhid Filling Station,"Touhid Filling Station, Kalihati, Tangail District, Dhaka Division, Bangladesh","টাঙ্গাইল জেলা, ঢাকা বিভাগ, বাংলাদেশ","Touhid Filling Station, ",,,Kalihati,বাংলাদেশ,ঢাকা বিভাগ,local_admin,boundaries,['fuel'],[],Bangladesh,Dhaka,Tangail,Kalihati,Bangra,0b6e38d3ad2e7c9c6e450bbf281db14c
1369,5356641835,893cf190b9bffff,24.3408098,89.9257164,Rajabari Mosque,"Rajabari Mosque, Kalihati, Tangail District, Dhaka Division, Bangladesh","টাঙ্গাইল জেলা, ঢাকা বিভাগ, বাংলাদেশ","Rajabari Mosque, ",,,Kalihati,বাংলাদেশ,ঢাকা বিভাগ,local_admin,boundaries,['place_of_worship'],[],Bangladesh,Dhaka,Tangail,Kalihati,Elenga,031435dfacd83bf4bcccaea80ee4f539
1372,5356669028,893cf190bcfffff,24.3327304,89.9251317,Patners Filling Station,"Patners Filling Station, Kalihati, Tangail District, Dhaka Division, Bangladesh","টাঙ্গাইল জেলা, ঢাকা বিভাগ, বাংলাদেশ","Patners Filling Station, ",,,Kalihati,বাংলাদেশ,ঢাকা বিভাগ,local_admin,boundaries,['fuel'],[],Bangladesh,Dhaka,Tangail,Kalihati,Elenga,031435dfacd83bf4bcccaea80ee4f539
1375,5356672962,893cf182413ffff,24.3166629,89.9246167,পৌলি বাজার,"Kalihati, Tangail District, Dhaka Division, Bangladesh","পৌলি বাজার, টাঙ্গাইল জেলা, ঢাকা বিভাগ, বাংলাদেশ",,"পৌলি বাজার, ",,Kalihati,বাংলাদেশ,ঢাকা বিভাগ,local_admin,boundaries,['supermarket'],[],Bangladesh,Dhaka,Tangail,Kalihati,Elenga,031435dfacd83bf4bcccaea80ee4f539
1393,5117106874,893cf11645bffff,24.0917931,90.1738635,Cafe Adda ক্যাফে আড্ডা,"Cafe Adda, Tangail District, Dhaka Division, Bangladesh","ক্যাফে আড্ডা, টাঙ্গাইল জেলা, ঢাকা বিভাগ, বাংলাদেশ",,,,,বাংলাদেশ,ঢাকা বিভাগ,admin2,boundaries,['cafe'],[],Bangladesh,Dhaka,Tangail,Mirzapur,Gorai,25cfdd4b247c0adcf6b250135e0f2d88
1397,5117125038,893cf18d937ffff,24.096271,90.1672983,Bepari Market বেপারী মার্কেট,"Bepari Market, Tangail District, Dhaka Division, Bangladesh","বেপারী মার্কেট, টাঙ্গাইল জেলা, ঢাকা বিভাগ, বাংলাদেশ",,,,,বাংলাদেশ,ঢাকা বিভাগ,admin2,boundaries,['marketplace'],[],Bangladesh,Dhaka,Tangail,Mirzapur,Gorai,25cfdd4b247c0adcf6b250135e0f2d88
1399,5117129214,893cf18d937ffff,24.0963441,90.1681795,বাংলাদেশ কৃষি ব্যাংক,"Tangail District, Dhaka Division, Bangladesh","বাংলাদেশ কৃষি ব্যাংক, টাঙ্গাইল জেলা, ঢাকা বিভাগ, বাংলাদেশ",,"বাংলাদেশ কৃষি ব্যাংক, ",['Bangladesh Krishi Bank'],,বাংলাদেশ,ঢাকা বিভাগ,admin2,boundaries,['bank'],[],Bangladesh,Dhaka,Tangail,Mirzapur,Gorai,25cfdd4b247c0adcf6b250135e0f2d88
1401,5117136946,893cf18d937ffff,24.096765,90.1664553,Shorif Store,"Shorif Store, Tangail District, Dhaka Division, Bangladesh","টাঙ্গাইল জেলা, ঢাকা বিভাগ, বাংলাদেশ","Shorif Store, ",,,,বাংলাদেশ,ঢাকা বিভাগ,admin2,boundaries,['marketplace'],[],Bangladesh,Dhaka,Tangail,Mirzapur,Gorai,25cfdd4b247c0adcf6b250135e0f2d88
1403,5356681115,893cf18241bffff,24.3135953,89.9223422,AJ Flour mills Ltd.,"AJ Flour mills Ltd., Kalihati, Tangail District, Dhaka Division, Bangladesh","টাঙ্গাইল জেলা, ঢাকা বিভাগ, বাংলাদেশ","AJ Flour mills Ltd., ",,,Kalihati,বাংলাদেশ,ঢাকা বিভাগ,local_admin,boundaries,['town_hall'],[],Bangladesh,Dhaka,Tangail,Kalihati,Elenga,031435dfacd83bf4bcccaea80ee4f539
1404,5356691995,893cf18244bffff,24.304375,89.9190618,Rosulpur Shopping Mall,"Rosulpur Shopping Mall, Kalihati, Tangail District, Dhaka Division, Bangladesh","টাঙ্গাইল জেলা, ঢাকা বিভাগ, বাংলাদেশ","Rosulpur Shopping Mall, ",,,Kalihati,বাংলাদেশ,ঢাকা বিভাগ,local_admin,boundaries,['supermarket'],[],Bangladesh,Dhaka,Tangail,TangailSadar,Gala,e9479d9498d15c0ace73fde0f2b184c7
1406,5117138271,893cf18d937ffff,24.0968694,90.1664086,Gorai Bus Stop,"Gorai Bus Stop, Tangail District, Dhaka Division, Bangladesh","টাঙ্গাইল জেলা, ঢাকা বিভাগ, বাংলাদেশ",Gorai Bus Stop,,,,বাংলাদেশ,ঢাকা বিভাগ,street,boundaries,['bus_stop'],[],Bangladesh,Dhaka,Tangail,Mirzapur,Gorai,25cfdd4b247c0adcf6b250135e0f2d88
1407,5416622898,893cf526a67ffff,24.6825734,89.9736337,পানকাতা সরকারি প্রাথমিক বিদ্যালয়,"Madhupur Upazila, Tangail District, Dhaka Division, Bangladesh","পানকাতা সরকারি প্রাথমিক বিদ্যালয়, মধুপুর উপজেলা, টাঙ্গাইল জেলা, ঢাকা বিভাগ, বাংলাদেশ",,"পানকাতা সরকারি প্রাথমিক বিদ্যালয়, ","['পানকাতা সরকারি প্রাথমিক বিদ্যালয়', 'Pankata Govt Primary School, Dhanbari, Tangail']",মধুপুর উপজেলা,বাংলাদেশ,ঢাকা বিভাগ,local_admin,boundaries,['school'],[],Bangladesh,Dhaka,Tangail,Dhanbari,DhanbariPaurashava,b6b52b67d81c1f7cacfd02fc5bf00806
1410,5570431821,893cf183033ffff,24.2492696,89.914689,,"Tangail, Tangail District, Dhaka Division, Bangladesh","টাঙ্গাইল জেলা, ঢাকা বিভাগ, বাংলাদেশ",,,['JOYKALI MISTANNA BHANDAR'],Tangail,বাংলাদেশ,ঢাকা বিভাগ,local_admin,boundaries,['attraction'],[],Bangladesh,Dhaka,Tangail,TangailSadar,TangailPaurashava,d3a53e2688067c7b18e5dcf57ba6e184
1413,5571556423,893cf1831dbffff,24.2526707,89.9202918,,"Tangail, Tangail District, Dhaka Division, Bangladesh","টাঙ্গাইল জেলা, ঢাকা বিভাগ, বাংলাদেশ",,,['JOYKALI MISTANNA BHANDAR'],Tangail,বাংলাদেশ,ঢাকা বিভাগ,local_admin,boundaries,['attraction'],[],Bangladesh,Dhaka,Tangail,TangailSadar,TangailPaurashava,d3a53e2688067c7b18e5dcf57ba6e184
1415,5118840621,893cf18d937ffff,24.0969419,90.1659016,,"Tangail District, Dhaka Division, Bangladesh","টাঙ্গাইল জেলা, ঢাকা বিভাগ, বাংলাদেশ",,,,,বাংলাদেশ,ঢাকা বিভাগ,admin2,boundaries,['atm'],[],Bangladesh,Dhaka,Tangail,Mirzapur,Gorai,25cfdd4b247c0adcf6b250135e0f2d88
1416,5571587321,893cf18352fffff,24.2679243,89.9260509,,"Tangail, Tangail District, Dhaka Division, Bangladesh","টাঙ্গাইল জেলা, ঢাকা বিভাগ, বাংলাদেশ",,,['JOYKALI MISTANNA BHANDAR'],Tangail,বাংলাদেশ,ঢাকা বিভাগ,local_admin,boundaries,['attraction'],[],Bangladesh,Dhaka,Tangail,TangailSadar,TangailPaurashava,d3a53e2688067c7b18e5dcf57ba6e184
1418,5118845053,893cf18d9afffff,24.0986009,90.1624493,  ,"Tangail District, Dhaka Division, Bangladesh","টাঙ্গাইল জেলা, ঢাকা বিভাগ, বাংলাদেশ",,,,,বাংলাদেশ,ঢাকা বিভাগ,admin2,boundaries,['water_works'],[],Bangladesh,Dhaka,Tangail,Mirzapur,Gorai,25cfdd4b247c0adcf6b250135e0f2d88
1421,5118845373,893cf18d9afffff,24.0981946,90.1635226,Neiji National Electronics Ltd,"Neiji National Electronics Ltd, Tangail District, Dhaka Division, Bangladesh","টাঙ্গাইল জেলা, ঢাকা বিভাগ, বাংলাদেশ","Neiji National Electronics Ltd, ",,,,বাংলাদেশ,ঢাকা বিভাগ,admin2,boundaries,['electronics'],[],Bangladesh,Dhaka,Tangail,Mirzapur,Gorai,25cfdd4b247c0adcf6b250135e0f2d88
1424,5118857803,893cf18d9abffff,24.0978009,90.1608229,,"Tangail District, Dhaka Division, Bangladesh","টাঙ্গাইল জেলা, ঢাকা বিভাগ, বাংলাদেশ",,,,,বাংলাদেশ,ঢাকা বিভাগ,admin2,boundaries,['atm'],[],Bangladesh,Dhaka,Tangail,Mirzapur,Gorai,25cfdd4b247c0adcf6b250135e0f2d88
1427,5118863608,893cf18d9abffff,24.0979563,90.1607428,Mill Gate Bus Stop গোঁড়াই বাস স্টপ,"Mill Gate Bus Stop, Tangail District, Dhaka Division, Bangladesh","গোঁড়াই বাস স্টপ, টাঙ্গাইল জেলা, ঢাকা বিভাগ, বাংলাদেশ",,,,,বাংলাদেশ,ঢাকা বিভাগ,street,boundaries,['bus_stop'],[],Bangladesh,Dhaka,Tangail,Mirzapur,Gorai,25cfdd4b247c0adcf6b250135e0f2d88
1428,5641857721,893cf1835afffff,24.275533,89.9209991,,"Tangail, Tangail District, Dhaka Division, Bangladesh","টাঙ্গাইল জেলা, ঢাকা বিভাগ, বাংলাদেশ",,,['Tangail Polytechnic Institute'],Tangail,বাংলাদেশ,ঢাকা বিভাগ,local_admin,boundaries,['college'],[],Bangladesh,Dhaka,Tangail,TangailSadar,TangailPaurashava,d3a53e2688067c7b18e5dcf57ba6e184
1430,5118876854,893cf18d913ffff,24.0968627,90.1533233,এনআরবিসি ব্যাংক,"Tangail District, Dhaka Division, Bangladesh","এনআরবিসি ব্যাংক, টাঙ্গাইল জেলা, ঢাকা বিভাগ, বাংলাদেশ",,"এনআরবিসি ব্যাংক, ",['NRBC Bank'],,বাংলাদেশ,ঢাকা বিভাগ,admin2,boundaries,['bank'],[],Bangladesh,Dhaka,Tangail,Mirzapur,Gorai,25cfdd4b247c0adcf6b250135e0f2d88
1431,5641857722,893cf1835afffff,24.2746313,89.9223053,,"Tangail, Tangail District, Dhaka Division, Bangladesh","টাঙ্গাইল জেলা, ঢাকা বিভাগ, বাংলাদেশ",,,"['Female Hostel, Tangail Polytechnic Institute']",Tangail,বাংলাদেশ,ঢাকা বিভাগ,local_admin,boundaries,['hostel'],[],Bangladesh,Dhaka,Tangail,TangailSadar,TangailPaurashava,d3a53e2688067c7b18e5dcf57ba6e184
1433,5118879116,893cf18d98bffff,24.0965674,90.1526979,Sohagpur Primary School সোহাগপুর প্রাথমিক বিদ্যালয়,"Sohagpur Primary School, Tangail District, Dhaka Division, Bangladesh","সোহাগপুর প্রাথমিক বিদ্যালয়, টাঙ্গাইল জেলা, ঢাকা বিভাগ, বাংলাদেশ",,,,,বাংলাদেশ,ঢাকা বিভাগ,admin2,boundaries,['school'],[],Bangladesh,Dhaka,Tangail,Mirzapur,Gorai,25cfdd4b247c0adcf6b250135e0f2d88
1434,5641857821,893cf1835afffff,24.275371,89.9218481,,"Tangail, Tangail District, Dhaka Division, Bangladesh","টাঙ্গাইল জেলা, ঢাকা বিভাগ, বাংলাদেশ",,,"['Male Hostel, Tangail Polytechnic Institute']",Tangail,বাংলাদেশ,ঢাকা বিভাগ,local_admin,boundaries,['hostel'],[],Bangladesh,Dhaka,Tangail,TangailSadar,TangailPaurashava,d3a53e2688067c7b18e5dcf57ba6e184
1436,5118880544,893cf18d9c7ffff,24.0958801,90.1508893,পাতালপুরী রেস্টুরেন্ট এন্ড সুইটস,"Tangail District, Dhaka Division, Bangladesh","পাতালপুরী রেস্টুরেন্ট এন্ড সুইটস, টাঙ্গাইল জেলা, ঢাকা বিভাগ, বাংলাদেশ",,"পাতালপুরী রেস্টুরেন্ট এন্ড সুইটস, ",,,বাংলাদেশ,ঢাকা বিভাগ,admin2,boundaries,['restaurant'],[],Bangladesh,Dhaka,Tangail,Mirzapur,Gorai,25cfdd4b247c0adcf6b250135e0f2d88
1437,5641868021,893cf1835a3ffff,24.2771307,89.9207755,,"Tangail, Tangail District, Dhaka Division, Bangladesh","টাঙ্গাইল জেলা, ঢাকা বিভাগ, বাংলাদেশ",,,"['Tangail 132kv Grid Substation, PGCB']",Tangail,বাংলাদেশ,ঢাকা বিভাগ,local_admin,boundaries,['government'],[],Bangladesh,Dhaka,Tangail,TangailSadar,TangailPaurashava,d3a53e2688067c7b18e5dcf57ba6e184
1439,5118881042,893cf18d98bffff,24.0965139,90.1522727,Gorai High School গোড়াই উচ্চ বিদ্যালয়,"Gorai High School, Tangail District, Dhaka Division, Bangladesh","গোড়াই উচ্চ বিদ্যালয়, টাঙ্গাইল জেলা, ঢাকা বিভাগ, বাংলাদেশ",,,,,বাংলাদেশ,ঢাকা বিভাগ,admin2,boundaries,['school'],[],Bangladesh,Dhaka,Tangail,Mirzapur,Gorai,25cfdd4b247c0adcf6b250135e0f2d88
1440,5645713186,893cf181cc7ffff,24.2089153,89.9805308,করোটিয়া বাইপাস,"Korotiya Bypass Bus Stop, Basail, Tangail District, Dhaka Division, Bangladesh","করোটিয়া বাইপাস, টাঙ্গাইল জেলা, ঢাকা বিভাগ, বাংলাদেশ",,"করোটিয়া বাইপাস, ",['Korotiya Bypass Bus Stop'],Basail,বাংলাদেশ,ঢাকা বিভাগ,street,boundaries,['bus_stop'],[],Bangladesh,Dhaka,Tangail,TangailSadar,Karatia,2bc6dc7744494612ce6e24e2de51e66e
1442,5118885088,893cf18d98bffff,24.0960311,90.1515514,Sohagpara Bus Stop,"Sohagpara Bus Stop, Tangail District, Dhaka Division, Bangladesh","টাঙ্গাইল জেলা, ঢাকা বিভাগ, বাংলাদেশ",Sohagpara Bus Stop,,,,বাংলাদেশ,ঢাকা বিভাগ,street,boundaries,['bus_stop'],[],Bangladesh,Dhaka,Tangail,Mirzapur,Gorai,25cfdd4b247c0adcf6b250135e0f2d88
1445,5118900598,893cf18d9d7ffff,24.0961785,90.1484727,মায়ের দোয়া হোটেল,"Tangail District, Dhaka Division, Bangladesh","মায়ের দোয়া হোটেল, টাঙ্গাইল জেলা, ঢাকা বিভাগ, বাংলাদেশ",,"মায়ের দোয়া হোটেল, ",,,বাংলাদেশ,ঢাকা বিভাগ,admin2,boundaries,['restaurant'],[],Bangladesh,Dhaka,Tangail,Mirzapur,Gorai,25cfdd4b247c0adcf6b250135e0f2d88
1447,5118907753,893cf18d9d3ffff,24.0966629,90.1441954,Mosque,"Mosque, Tangail District, Dhaka Division, Bangladesh","টাঙ্গাইল জেলা, ঢাকা বিভাগ, বাংলাদেশ","Mosque, ",,,,বাংলাদেশ,ঢাকা বিভাগ,admin2,boundaries,['place_of_worship_muslim'],[],Bangladesh,Dhaka,Tangail,Mirzapur,Gorai,25cfdd4b247c0adcf6b250135e0f2d88
1449,5118911611,893cf18d897ffff,24.0964721,90.1298911,M/s Jenil Filling Station,"M/s Jenil Filling Station, Tangail District, Dhaka Division, Bangladesh","টাঙ্গাইল জেলা, ঢাকা বিভাগ, বাংলাদেশ","M/s Jenil Filling Station, ",,,,বাংলাদেশ,ঢাকা বিভাগ,admin2,boundaries,['fuel'],[],Bangladesh,Dhaka,Tangail,Mirzapur,Gorai,25cfdd4b247c0adcf6b250135e0f2d88
1461,5118916175,893cf18d9d3ffff,24.0963605,90.1431903,Nur Alam Hotel নূর আলম হোটেল,"Nur Alam Hotel, Tangail District, Dhaka Division, Bangladesh","নূর আলম হোটেল, টাঙ্গাইল জেলা, ঢাকা বিভাগ, বাংলাদেশ",,,,,বাংলাদেশ,ঢাকা বিভাগ,admin2,boundaries,['restaurant'],[],Bangladesh,Dhaka,Tangail,Mirzapur,Gorai,25cfdd4b247c0adcf6b250135e0f2d88
1464,5118921546,893cf18d8b7ffff,24.0958475,90.1381241,Machranga Filling Station,"Machranga Filling Station, Tangail District, Dhaka Division, Bangladesh","টাঙ্গাইল জেলা, ঢাকা বিভাগ, বাংলাদেশ","Machranga Filling Station, ",,,,বাংলাদেশ,ঢাকা বিভাগ,admin2,boundaries,['fuel'],[],Bangladesh,Dhaka,Tangail,Mirzapur,Gorai,25cfdd4b247c0adcf6b250135e0f2d88
1467,5118925259,893cf18d8b3ffff,24.0962797,90.1362364,Hasib Auto WorkShop হাসিব অটো কর্মশালার,"Hasib Auto WorkShop, Tangail District, Dhaka Division, Bangladesh","হাসিব অটো কর্মশালার, টাঙ্গাইল জেলা, ঢাকা বিভাগ, বাংলাদেশ",,,,,বাংলাদেশ,ঢাকা বিভাগ,admin2,boundaries,['car_repair'],[],Bangladesh,Dhaka,Tangail,Mirzapur,Gorai,25cfdd4b247c0adcf6b250135e0f2d88
1470,5118934805,893cf18d897ffff,24.0966034,90.1297912,Shuvo Hotel & Restaueant,"Shuvo Hotel & Restaueant, Tangail District, Dhaka Division, Bangladesh","টাঙ্গাইল জেলা, ঢাকা বিভাগ, বাংলাদেশ","Shuvo Hotel & Restaueant, ",,,,বাংলাদেশ,ঢাকা বিভাগ,admin2,boundaries,['restaurant'],[],Bangladesh,Dhaka,Tangail,Mirzapur,Gorai,25cfdd4b247c0adcf6b250135e0f2d88
1471,5749811822,893cf1831dbffff,24.252707,89.9194159,,"Tangail, Tangail District, Dhaka Division, Bangladesh","টাঙ্গাইল জেলা, ঢাকা বিভাগ, বাংলাদেশ",,,['Medico Clinic'],Tangail,বাংলাদেশ,ঢাকা বিভাগ,local_admin,boundaries,['clinic'],[],Bangladesh,Dhaka,Tangail,TangailSadar,TangailPaurashava,d3a53e2688067c7b18e5dcf57ba6e184
1473,5119048507,893cf18dc77ffff,24.0965872,90.1197049,Rafiq Ice Cream Factory রফিক আইসক্রিম ফ্যাক্টরি,"Rafiq Ice Cream Factory, Tangail District, Dhaka Division, Bangladesh","রফিক আইসক্রিম ফ্যাক্টরি, টাঙ্গাইল জেলা, ঢাকা বিভাগ, বাংলাদেশ",,,,,বাংলাদেশ,ঢাকা বিভাগ,admin2,boundaries,['restaurant'],[],Bangladesh,Dhaka,Tangail,Mirzapur,MirzapurPaurashava,070879b6cd6fd9f8c1bf9ccc82bf4354
1476,5119066239,893cf18dc77ffff,24.0961513,90.1198034,Irani Store ইরানি স্টোর,"Irani Store, Tangail District, Dhaka Division, Bangladesh","ইরানি স্টোর, টাঙ্গাইল জেলা, ঢাকা বিভাগ, বাংলাদেশ",,,,,বাংলাদেশ,ঢাকা বিভাগ,admin2,boundaries,['tea'],[],Bangladesh,Dhaka,Tangail,Mirzapur,MirzapurPaurashava,070879b6cd6fd9f8c1bf9ccc82bf4354
1477,5782353453,893cf1835afffff,24.2742703,89.9217053,,"Tangail, Tangail District, Dhaka Division, Bangladesh","টাঙ্গাইল জেলা, ঢাকা বিভাগ, বাংলাদেশ",,,"[""Principal's Residence""]",Tangail,বাংলাদেশ,ঢাকা বিভাগ,local_admin,boundaries,['guest_house'],[],Bangladesh,Dhaka,Tangail,TangailSadar,TangailPaurashava,d3a53e2688067c7b18e5dcf57ba6e184
1479,5119069328,893cf18dc77ffff,24.0969007,90.1195874,Belayet Pharmacy,"Belayet Pharmacy, Tangail District, Dhaka Division, Bangladesh","টাঙ্গাইল জেলা, ঢাকা বিভাগ, বাংলাদেশ","Belayet Pharmacy, ",,,,বাংলাদেশ,ঢাকা বিভাগ,admin2,boundaries,['pharmacy'],[],Bangladesh,Dhaka,Tangail,Mirzapur,MirzapurPaurashava,070879b6cd6fd9f8c1bf9ccc82bf4354
1482,5119072572,893cf18dc67ffff,24.0952763,90.1198786,Bakalipara Temple,"Bakalipara Temple, Tangail District, Dhaka Division, Bangladesh","টাঙ্গাইল জেলা, ঢাকা বিভাগ, বাংলাদেশ","Bakalipara Temple, ",,,,বাংলাদেশ,ঢাকা বিভাগ,admin2,boundaries,['place_of_worship'],[],Bangladesh,Dhaka,Tangail,Mirzapur,Gorai,25cfdd4b247c0adcf6b250135e0f2d88
1485,5119082109,893cf18dc73ffff,24.0962124,90.117564,Tangail Tachincal Instute,"Tangail Tachincal Instute, Tangail District, Dhaka Division, Bangladesh","টাঙ্গাইল জেলা, ঢাকা বিভাগ, বাংলাদেশ","Tangail Tachincal Instute, ",,,,বাংলাদেশ,ঢাকা বিভাগ,admin2,boundaries,['educational_institution'],[],Bangladesh,Dhaka,Tangail,Mirzapur,MirzapurPaurashava,070879b6cd6fd9f8c1bf9ccc82bf4354
1487,5119083245,893cf18dc77ffff,24.0961397,90.1189228,Mitu Cafe মিতু ক্যাফে,"Mitu Cafe, Tangail District, Dhaka Division, Bangladesh","মিতু ক্যাফে, টাঙ্গাইল জেলা, ঢাকা বিভাগ, বাংলাদেশ",,,,,বাংলাদেশ,ঢাকা বিভাগ,admin2,boundaries,['cafe'],[],Bangladesh,Dhaka,Tangail,Mirzapur,MirzapurPaurashava,070879b6cd6fd9f8c1bf9ccc82bf4354
1489,5119084987,893cf18dc77ffff,24.0965086,90.118819,Deohata police outpost দেওহাটা পুলিশ ফাঁড়ি,"Deohata police outpost, Tangail District, Dhaka Division, Bangladesh","দেওহাটা পুলিশ ফাঁড়ি, টাঙ্গাইল জেলা, ঢাকা বিভাগ, বাংলাদেশ",,,,,বাংলাদেশ,ঢাকা বিভাগ,admin2,boundaries,['police'],[],Bangladesh,Dhaka,Tangail,Mirzapur,MirzapurPaurashava,070879b6cd6fd9f8c1bf9ccc82bf4354
1491,5119087640,893cf18dc77ffff,24.096644,90.1186179,Dewhata Bazar,"Dewhata Bazar, Tangail District, Dhaka Division, Bangladesh","টাঙ্গাইল জেলা, ঢাকা বিভাগ, বাংলাদেশ","Dewhata Bazar, ",,,,বাংলাদেশ,ঢাকা বিভাগ,admin2,boundaries,['marketplace'],[],Bangladesh,Dhaka,Tangail,Mirzapur,MirzapurPaurashava,070879b6cd6fd9f8c1bf9ccc82bf4354
1493,5119096791,893cf18dc77ffff,24.096839,90.1191482,Dewhata Centeral Mosque,"Dewhata Centeral Mosque, Tangail District, Dhaka Division, Bangladesh","টাঙ্গাইল জেলা, ঢাকা বিভাগ, বাংলাদেশ","Dewhata Centeral Mosque, ",,,,বাংলাদেশ,ঢাকা বিভাগ,admin2,boundaries,['place_of_worship_muslim'],[],Bangladesh,Dhaka,Tangail,Mirzapur,MirzapurPaurashava,070879b6cd6fd9f8c1bf9ccc82bf4354
1495,5119099543,893cf18dc77ffff,24.096446,90.1179781,Dewhata Bus Stop দেওহাটা বাস স্টপ,"Dewhata Bus Stop, Tangail District, Dhaka Division, Bangladesh","দেওহাটা বাস স্টপ, টাঙ্গাইল জেলা, ঢাকা বিভাগ, বাংলাদেশ",,,,,বাংলাদেশ,ঢাকা বিভাগ,street,boundaries,['bus_stop'],[],Bangladesh,Dhaka,Tangail,Mirzapur,MirzapurPaurashava,070879b6cd6fd9f8c1bf9ccc82bf4354
1497,5119099606,893cf18dc77ffff,24.0962112,90.1177544,Cafeteria,"Cafeteria, Tangail District, Dhaka Division, Bangladesh","টাঙ্গাইল জেলা, ঢাকা বিভাগ, বাংলাদেশ","Cafeteria, ",,,,বাংলাদেশ,ঢাকা বিভাগ,admin2,boundaries,['cafe'],[],Bangladesh,Dhaka,Tangail,Mirzapur,MirzapurPaurashava,070879b6cd6fd9f8c1bf9ccc82bf4354
1499,5119102524,893cf18dc77ffff,24.0965259,90.1177812,Hotel,"Hotel, Tangail District, Dhaka Division, Bangladesh","টাঙ্গাইল জেলা, ঢাকা বিভাগ, বাংলাদেশ","Hotel, ",,,,বাংলাদেশ,ঢাকা বিভাগ,admin2,boundaries,['restaurant'],[],Bangladesh,Dhaka,Tangail,Mirzapur,MirzapurPaurashava,070879b6cd6fd9f8c1bf9ccc82bf4354
1505,5119103376,893cf18dc77ffff,24.0966679,90.1175559,Dewhata A.J. High School দেওহাটা এ.জে উচ্চ বিদ্যালয়,"Dewhata A.J. High School, Tangail District, Dhaka Division, Bangladesh","দেওহাটা এ.জে উচ্চ বিদ্যালয়, টাঙ্গাইল জেলা, ঢাকা বিভাগ, বাংলাদেশ",,,,,বাংলাদেশ,ঢাকা বিভাগ,admin2,boundaries,['educational_institution'],[],Bangladesh,Dhaka,Tangail,Mirzapur,MirzapurPaurashava,070879b6cd6fd9f8c1bf9ccc82bf4354
1508,2305856571,893cf18f463ffff,24.1485868,90.0198403,,"Tangail District, Dhaka Division, Bangladesh","টাঙ্গাইল জেলা, ঢাকা বিভাগ, বাংলাদেশ",,,,,বাংলাদেশ,ঢাকা বিভাগ,admin2,boundaries,['bump'],[],Bangladesh,Dhaka,Tangail,Mirzapur,Jamurki,cd4c59770bd6b61bc359c7aabffb0357
1509,5119103379,893cf18dc77ffff,24.0970295,90.1178611,Dewhata Post Office,"Dewhata Post Office, Tangail District, Dhaka Division, Bangladesh","টাঙ্গাইল জেলা, ঢাকা বিভাগ, বাংলাদেশ","Dewhata Post Office, ",,,,বাংলাদেশ,ঢাকা বিভাগ,admin2,boundaries,['post_office'],[],Bangladesh,Dhaka,Tangail,Mirzapur,MirzapurPaurashava,070879b6cd6fd9f8c1bf9ccc82bf4354
1511,2305857511,893cf18f053ffff,24.1368762,90.0266862,,"Tangail District, Dhaka Division, Bangladesh","টাঙ্গাইল জেলা, ঢাকা বিভাগ, বাংলাদেশ",,,,,বাংলাদেশ,ঢাকা বিভাগ,admin2,boundaries,['fuel'],[],Bangladesh,Dhaka,Tangail,Mirzapur,Jamurki,cd4c59770bd6b61bc359c7aabffb0357
1513,5119104207,893cf18dc63ffff,24.0956438,90.117847,Humayon Telecom,"Humayon Telecom, Tangail District, Dhaka Division, Bangladesh","টাঙ্গাইল জেলা, ঢাকা বিভাগ, বাংলাদেশ","Humayon Telecom, ",,,,বাংলাদেশ,ঢাকা বিভাগ,admin2,boundaries,['mobile_phone'],[],Bangladesh,Dhaka,Tangail,Mirzapur,Gorai,25cfdd4b247c0adcf6b250135e0f2d88
1515,2305858887,893cf18f06fffff,24.1305993,90.0432231,,"Tangail District, Dhaka Division, Bangladesh","টাঙ্গাইল জেলা, ঢাকা বিভাগ, বাংলাদেশ",,,,,বাংলাদেশ,ঢাকা বিভাগ,admin2,boundaries,['bump'],[],Bangladesh,Dhaka,Tangail,Mirzapur,Jamurki,cd4c59770bd6b61bc359c7aabffb0357
1517,5119106660,893cf18dc63ffff,24.0955559,90.1178754,Alhaz Pharmacy আলহাজ্ব ফার্মেসী,"Alhaz Pharmacy, Tangail District, Dhaka Division, Bangladesh","আলহাজ্ব ফার্মেসী, টাঙ্গাইল জেলা, ঢাকা বিভাগ, বাংলাদেশ",,,,,বাংলাদেশ,ঢাকা বিভাগ,admin2,boundaries,['pharmacy'],[],Bangladesh,Dhaka,Tangail,Mirzapur,Gorai,25cfdd4b247c0adcf6b250135e0f2d88
1519,2305860845,893cf18d593ffff,24.1185884,90.0649353,,"Tangail District, Dhaka Division, Bangladesh","টাঙ্গাইল জেলা, ঢাকা বিভাগ, বাংলাদেশ",,,,,বাংলাদেশ,ঢাকা বিভাগ,admin2,boundaries,['bump'],[],Bangladesh,Dhaka,Tangail,Mirzapur,Fatehpur,f6cdc2996bc39f0f87767533ae264b28
1521,5119108449,893cf18dc63ffff,24.0948702,90.1182407,RFL Exlusive,"RFL Exlusive, Tangail District, Dhaka Division, Bangladesh","টাঙ্গাইল জেলা, ঢাকা বিভাগ, বাংলাদেশ","RFL Exlusive, ",,,,বাংলাদেশ,ঢাকা বিভাগ,admin2,boundaries,['houseware'],[],Bangladesh,Dhaka,Tangail,Mirzapur,Gorai,25cfdd4b247c0adcf6b250135e0f2d88
1523,2305860984,893cf18d583ffff,24.117923,90.06542,,"Tangail District, Dhaka Division, Bangladesh","টাঙ্গাইল জেলা, ঢাকা বিভাগ, বাংলাদেশ",,,,,বাংলাদেশ,ঢাকা বিভাগ,admin2,boundaries,['kiosk'],[],Bangladesh,Dhaka,Tangail,Mirzapur,Fatehpur,f6cdc2996bc39f0f87767533ae264b28
1525,5119108505,893cf18dc73ffff,24.0973585,90.1161289,দেওহাটা ঈদগাহ,"Tangail District, Dhaka Division, Bangladesh","দেওহাটা ঈদগাহ, টাঙ্গাইল জেলা, ঢাকা বিভাগ, বাংলাদেশ",,"দেওহাটা ঈদগাহ, ",,,বাংলাদেশ,ঢাকা বিভাগ,admin2,boundaries,['place_of_worship_muslim'],[],Bangladesh,Dhaka,Tangail,Mirzapur,MirzapurPaurashava,070879b6cd6fd9f8c1bf9ccc82bf4354
1527,2305862340,893cf18d583ffff,24.1181576,90.0654835,,"Tangail District, Dhaka Division, Bangladesh","টাঙ্গাইল জেলা, ঢাকা বিভাগ, বাংলাদেশ",,,,,বাংলাদেশ,ঢাকা বিভাগ,admin2,boundaries,['bump'],[],Bangladesh,Dhaka,Tangail,Mirzapur,Fatehpur,f6cdc2996bc39f0f87767533ae264b28
1529,5119109119,893cf18dc73ffff,24.0964983,90.1157942,Maa Filling Station মা ফিলিং স্টেশন,"Maa Filling Station, Tangail District, Dhaka Division, Bangladesh","মা ফিলিং স্টেশন, টাঙ্গাইল জেলা, ঢাকা বিভাগ, বাংলাদেশ",,,,,বাংলাদেশ,ঢাকা বিভাগ,admin2,boundaries,['fuel'],[],Bangladesh,Dhaka,Tangail,Mirzapur,MirzapurPaurashava,070879b6cd6fd9f8c1bf9ccc82bf4354
1531,2305862509,893cf18d58bffff,24.115809,90.067027,,"Tangail District, Dhaka Division, Bangladesh","টাঙ্গাইল জেলা, ঢাকা বিভাগ, বাংলাদেশ",,,,,বাংলাদেশ,ঢাকা বিভাগ,admin2,boundaries,['fuel'],[],Bangladesh,Dhaka,Tangail,Mirzapur,Fatehpur,f6cdc2996bc39f0f87767533ae264b28
1533,5119125776,893cf18dcc3ffff,24.1032861,90.1036909,Filling station,"Filling station, Tangail District, Dhaka Division, Bangladesh","টাঙ্গাইল জেলা, ঢাকা বিভাগ, বাংলাদেশ","Filling station, ",,,,বাংলাদেশ,ঢাকা বিভাগ,admin2,boundaries,['fuel'],[],Bangladesh,Dhaka,Tangail,Mirzapur,MirzapurPaurashava,070879b6cd6fd9f8c1bf9ccc82bf4354
1535,2305862980,893cf18d58bffff,24.115147,90.06685,,"Tangail District, Dhaka Division, Bangladesh","টাঙ্গাইল জেলা, ঢাকা বিভাগ, বাংলাদেশ",,,,,বাংলাদেশ,ঢাকা বিভাগ,admin2,boundaries,['fuel'],[],Bangladesh,Dhaka,Tangail,Mirzapur,Fatehpur,f6cdc2996bc39f0f87767533ae264b28
1537,5119160850,893cf18c26bffff,24.105629,90.1005815,Station Mosque ষ্টেশন মসজিদ,"Station Mosque, Tangail District, Dhaka Division, Bangladesh","ষ্টেশন মসজিদ, টাঙ্গাইল জেলা, ঢাকা বিভাগ, বাংলাদেশ",,,,,বাংলাদেশ,ঢাকা বিভাগ,admin2,boundaries,['place_of_worship_muslim'],[],Bangladesh,Dhaka,Tangail,Mirzapur,Latifpur,63565c4608e4a5f075e91e32bb0cbfe0
1539,2305875258,893cf18c24fffff,24.105882,90.093562,,"Tangail District, Dhaka Division, Bangladesh","টাঙ্গাইল জেলা, ঢাকা বিভাগ, বাংলাদেশ",,,,,বাংলাদেশ,ঢাকা বিভাগ,admin2,boundaries,['car_repair'],[],Bangladesh,Dhaka,Tangail,Mirzapur,Latifpur,63565c4608e4a5f075e91e32bb0cbfe0
1542,2305875970,893cf18c24fffff,24.106212,90.093618,,"Tangail District, Dhaka Division, Bangladesh","টাঙ্গাইল জেলা, ঢাকা বিভাগ, বাংলাদেশ",,,,,বাংলাদেশ,ঢাকা বিভাগ,admin2,boundaries,['fuel'],[],Bangladesh,Dhaka,Tangail,Mirzapur,Latifpur,63565c4608e4a5f075e91e32bb0cbfe0
1550,2332679843,893cf180bc7ffff,24.22893,90.0543495,বাসাইল উপজেলা স্বাস্থ্য কমপ্লেক্স,"Basail, Tangail District, Dhaka Division, Bangladesh","বাসাইল উপজেলা স্বাস্থ্য কমপ্লেক্স, টাঙ্গাইল জেলা, ঢাকা বিভাগ, বাংলাদেশ",,"বাসাইল উপজেলা স্বাস্থ্য কমপ্লেক্স, ","['বাসাইল উপজেলা স্বাস্থ্য কমপ্লেক্স', 'Basail Upazila Health Complex']",Basail,বাংলাদেশ,ঢাকা বিভাগ,local_admin,boundaries,['hospital'],[],Bangladesh,Dhaka,Tangail,Basail,Basail,17053ab533665dab2ff19d8d82234461
1576,2397096953,893cf195e6bffff,24.330778,90.0284186,Bolla Jame Masjid,"Bolla Jame Masjid, Kalihati, Tangail District, Dhaka Division, Bangladesh","টাঙ্গাইল জেলা, ঢাকা বিভাগ, বাংলাদেশ","Bolla Jame Masjid, ",,,Kalihati,বাংলাদেশ,ঢাকা বিভাগ,local_admin,boundaries,['place_of_worship_muslim'],[],Bangladesh,Dhaka,Tangail,Kalihati,Balla,5c83438041c9a1102e190f938956add3
1612,306469787,893cf1922a7ffff,24.3895108,89.8200921,বঙ্গবন্ধু সেতু পূর্ব রেলওয়ে স্টেশন,"Bhuapur, Tangail District, Dhaka Division, Bangladesh","বঙ্গবন্ধু সেতু পূর্ব রেলওয়ে স্টেশন, টাঙ্গাইল জেলা, ঢাকা বিভাগ, বাংলাদেশ",,"বঙ্গবন্ধু সেতু পূর্ব রেলওয়ে স্টেশন, ",['Bangabandhu Bridge East Railway Station'],Bhuapur,বাংলাদেশ,ঢাকা বিভাগ,local_admin,boundaries,['railway_station'],[],Bangladesh,Dhaka,Tangail,Kalihati,Gohaliabari,ab08303976112999acc8acb647e4fcff
1667,2800683766,893cf194177ffff,24.401201,90.0483198,Purbashinda Jame Mosjid,"Purbashinda Jame Mosjid, Ghatail, Tangail District, Dhaka Division, Bangladesh","টাঙ্গাইল জেলা, ঢাকা বিভাগ, বাংলাদেশ","Purbashinda Jame Mosjid, ",,,Ghatail,বাংলাদেশ,ঢাকা বিভাগ,local_admin,boundaries,['place_of_worship_muslim'],[],Bangladesh,Dhaka,Tangail,Kalihati,BirBashunda,e06710f68072049dab5fef1074015572
1671,2800686606,893cf19412bffff,24.4017079,90.0508149,Purbashinda Primary School,"Purbashinda Primary School, Ghatail, Tangail District, Dhaka Division, Bangladesh","টাঙ্গাইল জেলা, ঢাকা বিভাগ, বাংলাদেশ","Purbashinda Primary School, ",,,Ghatail,বাংলাদেশ,ঢাকা বিভাগ,local_admin,boundaries,['school'],[],Bangladesh,Dhaka,Tangail,Kalihati,BirBashunda,e06710f68072049dab5fef1074015572
1676,1470336195,893cf1922bbffff,24.3894461,89.8141811,Jamuna Resort,"Jamuna Resort, Bhuapur, Tangail District, Dhaka Division, Bangladesh","টাঙ্গাইল জেলা, ঢাকা বিভাগ, বাংলাদেশ","Jamuna Resort, ",,,Bhuapur,বাংলাদেশ,ঢাকা বিভাগ,local_admin,boundaries,['attraction'],[],Bangladesh,Dhaka,Tangail,Kalihati,Gohaliabari,ab08303976112999acc8acb647e4fcff
1686,1969794368,893cf1922bbffff,24.3903522,89.8128308,Jamuna Resort,"Jamuna Resort, Bhuapur, Tangail District, Dhaka Division, Bangladesh","টাঙ্গাইল জেলা, ঢাকা বিভাগ, বাংলাদেশ","Jamuna Resort, ",,,Bhuapur,বাংলাদেশ,ঢাকা বিভাগ,local_admin,boundaries,['hotel'],[],Bangladesh,Dhaka,Tangail,Kalihati,Gohaliabari,ab08303976112999acc8acb647e4fcff
1826,2332680744,893cf52d113ffff,24.4629746,89.8745858,Bhuapur Upazilla Health Complex,"Bhuapur Upazilla Health Complex, Bhuapur, Tangail District, Dhaka Division, Bangladesh","টাঙ্গাইল জেলা, ঢাকা বিভাগ, বাংলাদেশ","Bhuapur Upazilla Health Complex, ",,,Bhuapur,বাংলাদেশ,ঢাকা বিভাগ,local_admin,boundaries,['hospital'],[],Bangladesh,Dhaka,Tangail,Bhuapur,BhuapurPaurashava,ef86393a15f7344028930c609eb31e26
1851,2332686517,893cf189447ffff,24.0507025,89.8738267,Nagarpur Upazilla Health Complex,"Nagarpur Upazilla Health Complex, Tangail District, Dhaka Division, Bangladesh","টাঙ্গাইল জেলা, ঢাকা বিভাগ, বাংলাদেশ","Nagarpur Upazilla Health Complex, ",,,,বাংলাদেশ,ঢাকা বিভাগ,admin2,boundaries,['hospital'],[],Bangladesh,Dhaka,Tangail,Nagarpur,Nagarpur,32c977395ba3c90aca823f84cb216a02
1907,2419865108,893cf183293ffff,24.2354294,89.8945369,সন্তষ জাহ্নবী উচ্চ বিদ্যালয়,"Tangail, Tangail District, Dhaka Division, Bangladesh","সন্তষ জাহ্নবী উচ্চ বিদ্যালয়, টাঙ্গাইল জেলা, ঢাকা বিভাগ, বাংলাদেশ",,"সন্তষ জাহ্নবী উচ্চ বিদ্যালয়, ",['Santosh Janhobi High School'],Tangail,বাংলাদেশ,ঢাকা বিভাগ,local_admin,boundaries,['school'],[],Bangladesh,Dhaka,Tangail,TangailSadar,TangailPaurashava,d3a53e2688067c7b18e5dcf57ba6e184
1921,2915834147,893ce25a003ffff,24.605423,90.0310879,Madhupur Shahid Smrity Higher Secondary School,"Madhupur Shahid Smrity Higher Secondary School, Madhupur Upazila, Tangail District, Dhaka Division, Bangladesh","মধুপুর উপজেলা, টাঙ্গাইল জেলা, ঢাকা বিভাগ, বাংলাদেশ","Madhupur Shahid Smrity Higher Secondary School, ",,,মধুপুর উপজেলা,বাংলাদেশ,ঢাকা বিভাগ,local_admin,boundaries,['school'],[],Bangladesh,Dhaka,Tangail,Madhupur,MadhupurPaurashava,f699ecfd5f902cf6899de7dbc1c66808
1995,2501244876,893cf520a0bffff,24.5848051,89.8246139,Sunamui Bazar,"Sunamui Bazar, Gopalpur, Tangail District, Dhaka Division, Bangladesh","টাঙ্গাইল জেলা, ঢাকা বিভাগ, বাংলাদেশ","Sunamui Bazar, ",,,Gopalpur,বাংলাদেশ,ঢাকা বিভাগ,local_admin,boundaries,['marketplace'],[],Bangladesh,Dhaka,Tangail,Gopalpur,Jhawail,a34c451aebc89909db634276cfbb172e
2000,2501247468,893cf52e6cfffff,24.5492445,89.8289069,,"Gopalpur, Tangail District, Dhaka Division, Bangladesh","টাঙ্গাইল জেলা, ঢাকা বিভাগ, বাংলাদেশ",,,,Gopalpur,বাংলাদেশ,ঢাকা বিভাগ,local_admin,boundaries,['place_of_worship_muslim'],[],Bangladesh,Dhaka,Tangail,Gopalpur,Hemnagar,a5e4632cea95cf530bd4759a850603b1
2008,2506962878,893cf5271afffff,24.6731299,89.8995993,,"Gopalpur, Tangail District, Dhaka Division, Bangladesh","টাঙ্গাইল জেলা, ঢাকা বিভাগ, বাংলাদেশ",,,,Gopalpur,বাংলাদেশ,ঢাকা বিভাগ,local_admin,boundaries,['place_of_worship_muslim'],[],Bangladesh,Dhaka,Tangail,Dhanbari,Musuddi,3c4cd8eda6c78a332e33eaa377098e49
2011,2522139441,893cf52e087ffff,24.5679749,89.8596709,হেমনগর,"Gopalpur, Tangail District, Dhaka Division, Bangladesh","হেমনগর, টাঙ্গাইল জেলা, ঢাকা বিভাগ, বাংলাদেশ",,"হেমনগর, ",['Hemnagar Railway Station'],Gopalpur,বাংলাদেশ,ঢাকা বিভাগ,local_admin,boundaries,['railway_station'],[],Bangladesh,Dhaka,Tangail,Gopalpur,Hemnagar,a5e4632cea95cf530bd4759a850603b1
2081,3666826587,893cf5271afffff,24.6737603,89.8994422,Musuddi Bazar,"Musuddi Bazar, Gopalpur, Tangail District, Dhaka Division, Bangladesh","টাঙ্গাইল জেলা, ঢাকা বিভাগ, বাংলাদেশ","Musuddi Bazar, ",,,Gopalpur,বাংলাদেশ,ঢাকা বিভাগ,local_admin,boundaries,['marketplace'],[],Bangladesh,Dhaka,Tangail,Dhanbari,Musuddi,3c4cd8eda6c78a332e33eaa377098e49
2130,3941939679,893cf52e1bbffff,24.5720501,89.8860357,Nabagram Post Office,"Nabagram Post Office, Gopalpur, Tangail District, Dhaka Division, Bangladesh","টাঙ্গাইল জেলা, ঢাকা বিভাগ, বাংলাদেশ","Nabagram Post Office, ",,,Gopalpur,বাংলাদেশ,ঢাকা বিভাগ,local_admin,boundaries,['post_office'],[],Bangladesh,Dhaka,Tangail,Gopalpur,Alamnagar,90be24ab1e57c52842387d4bac3b185a
2134,3941948917,893cf52e1bbffff,24.5720346,89.8857727,Nabagarm Government Primary School,"Nabagarm Government Primary School, Gopalpur, Tangail District, Dhaka Division, Bangladesh","টাঙ্গাইল জেলা, ঢাকা বিভাগ, বাংলাদেশ","Nabagarm Government Primary School, ",,,Gopalpur,বাংলাদেশ,ঢাকা বিভাগ,local_admin,boundaries,['kindergarten'],[],Bangladesh,Dhaka,Tangail,Gopalpur,Alamnagar,90be24ab1e57c52842387d4bac3b185a
2140,4083188389,893cf52e1bbffff,24.5719374,89.8855474,Nabagram High School,"Nabagram High School, Gopalpur, Tangail District, Dhaka Division, Bangladesh","টাঙ্গাইল জেলা, ঢাকা বিভাগ, বাংলাদেশ","Nabagram High School, ",,,Gopalpur,বাংলাদেশ,ঢাকা বিভাগ,local_admin,boundaries,['school'],[],Bangladesh,Dhaka,Tangail,Gopalpur,Alamnagar,90be24ab1e57c52842387d4bac3b185a
2143,4084369266,893cf52e55bffff,24.5733463,89.8591847,Uddompur Government Primary School,"Uddompur Government Primary School, Gopalpur, Tangail District, Dhaka Division, Bangladesh","টাঙ্গাইল জেলা, ঢাকা বিভাগ, বাংলাদেশ","Uddompur Government Primary School, ",,,Gopalpur,বাংলাদেশ,ঢাকা বিভাগ,local_admin,boundaries,['school'],[],Bangladesh,Dhaka,Tangail,Gopalpur,Hemnagar,a5e4632cea95cf530bd4759a850603b1
2175,5429428685,893cf18d9c7ffff,24.0947752,90.1504676,,"Tangail District, Dhaka Division, Bangladesh","টাঙ্গাইল জেলা, ঢাকা বিভাগ, বাংলাদেশ",,,,,বাংলাদেশ,ঢাকা বিভাগ,admin2,boundaries,['ruins'],[],Bangladesh,Dhaka,Tangail,Mirzapur,Gorai,25cfdd4b247c0adcf6b250135e0f2d88
2179,5429479574,893cf11668fffff,24.0843805,90.1729301,,"Tangail District, Dhaka Division, Bangladesh","টাঙ্গাইল জেলা, ঢাকা বিভাগ, বাংলাদেশ",,,,,বাংলাদেশ,ঢাকা বিভাগ,admin2,boundaries,['ruins'],[],Bangladesh,Dhaka,Tangail,Mirzapur,Gorai,25cfdd4b247c0adcf6b250135e0f2d88
2183,5469170395,893cf18dc93ffff,24.110676,90.1085156,,"Tangail District, Dhaka Division, Bangladesh","টাঙ্গাইল জেলা, ঢাকা বিভাগ, বাংলাদেশ",,,,,বাংলাদেশ,ঢাকা বিভাগ,admin2,boundaries,['fast_food'],[],Bangladesh,Dhaka,Tangail,Mirzapur,Latifpur,63565c4608e4a5f075e91e32bb0cbfe0
2189,5469170396,893cf18dc83ffff,24.1099832,90.1089661,,"Tangail District, Dhaka Division, Bangladesh","টাঙ্গাইল জেলা, ঢাকা বিভাগ, বাংলাদেশ",,,,,বাংলাদেশ,ঢাকা বিভাগ,admin2,boundaries,['hospital'],[],Bangladesh,Dhaka,Tangail,Mirzapur,MirzapurPaurashava,070879b6cd6fd9f8c1bf9ccc82bf4354
2193,5469170397,893cf18dc93ffff,24.1105681,90.1079991,,"Tangail District, Dhaka Division, Bangladesh","টাঙ্গাইল জেলা, ঢাকা বিভাগ, বাংলাদেশ",,,,,বাংলাদেশ,ঢাকা বিভাগ,admin2,boundaries,['bank'],[],Bangladesh,Dhaka,Tangail,Mirzapur,Latifpur,63565c4608e4a5f075e91e32bb0cbfe0
2204,4623316789,893cf183283ffff,24.2333437,89.8965651,রহিমা ছাত্রাবাস,"Tangail, Tangail District, Dhaka Division, Bangladesh","রহিমা ছাত্রাবাস, টাঙ্গাইল জেলা, ঢাকা বিভাগ, বাংলাদেশ",,"রহিমা ছাত্রাবাস, ",['Rohima hostel'],Tangail,বাংলাদেশ,ঢাকা বিভাগ,local_admin,boundaries,['hostel'],[],Bangladesh,Dhaka,Tangail,TangailSadar,TangailPaurashava,d3a53e2688067c7b18e5dcf57ba6e184
2256,5562699065,893ce248517ffff,24.4709421,90.1957869,সাগরদিঘী বাজার,"Ghatail, Tangail District, Dhaka Division, Bangladesh","সাগরদিঘী বাজার, টাঙ্গাইল জেলা, ঢাকা বিভাগ, বাংলাদেশ",,"সাগরদিঘী বাজার, ",['Sagordeghee Bazar'],Ghatail,বাংলাদেশ,ঢাকা বিভাগ,local_admin,boundaries,['variety_store'],[],Bangladesh,Dhaka,Tangail,Ghatail,DhalaPara,5ab2d706e645163a6aaa03d99e2897f2
2262,5562775382,893ce249127ffff,24.4044909,90.1899125,বড়চওনা-কুতুবপুর কলেজ মাঠ,"Tangail District, Dhaka Division, Bangladesh","বড়চওনা-কুতুবপুর কলেজ মাঠ, টাঙ্গাইল জেলা, ঢাকা বিভাগ, বাংলাদেশ",,"বড়চওনা-কুতুবপুর কলেজ মাঠ, ",,,বাংলাদেশ,ঢাকা বিভাগ,admin2,boundaries,['college'],[],Bangladesh,Dhaka,Tangail,Sakhipur,Kalia,aa6a4685a96f0e61b2cbd5874c9a63ca
2267,5562775383,893ce249e83ffff,24.3962527,90.1912499,Barachaona Bazar,"Barachaona Bazar, Tangail District, Dhaka Division, Bangladesh","টাঙ্গাইল জেলা, ঢাকা বিভাগ, বাংলাদেশ","Barachaona Bazar, ",,,,বাংলাদেশ,ঢাকা বিভাগ,admin2,boundaries,['variety_store'],[],Bangladesh,Dhaka,Tangail,Sakhipur,Kalia,aa6a4685a96f0e61b2cbd5874c9a63ca
2275,5123649841,893cf192a6bffff,24.3706478,89.8795371,"হাতিয়া বাজার, টাঙ্গাইল","Kalihati, Tangail District, Dhaka Division, Bangladesh","হাতিয়া বাজার টাঙ্গাইল, টাঙ্গাইল জেলা, ঢাকা বিভাগ, বাংলাদেশ",,"হাতিয়া বাজার টাঙ্গাইল, ",,Kalihati,বাংলাদেশ,ঢাকা বিভাগ,local_admin,boundaries,['marketplace'],[],Bangladesh,Dhaka,Tangail,Kalihati,Salla,ec496751c8d68e45ee935fd45852eedd
2279,5647374047,893cf18dcd3ffff,24.1055318,90.1014131,মির্জাপুর,"Tangail District, Dhaka Division, Bangladesh","মির্জাপুর, টাঙ্গাইল জেলা, ঢাকা বিভাগ, বাংলাদেশ",,"মির্জাপুর, ","['মির্জাপুর রেলওয়ে স্টেশন', 'Mirjapur Railway Station']",,বাংলাদেশ,ঢাকা বিভাগ,admin2,boundaries,['railway_station'],[],Bangladesh,Dhaka,Tangail,Mirzapur,MirzapurPaurashava,070879b6cd6fd9f8c1bf9ccc82bf4354
2281,5123650192,893cf190593ffff,24.382878,89.8460228,,"Kalihati, Tangail District, Dhaka Division, Bangladesh","টাঙ্গাইল জেলা, ঢাকা বিভাগ, বাংলাদেশ",,,,Kalihati,বাংলাদেশ,ঢাকা বিভাগ,local_admin,boundaries,['substation'],[],Bangladesh,Dhaka,Tangail,Kalihati,Gohaliabari,ab08303976112999acc8acb647e4fcff
2285,5659929400,893cf1166b3ffff,24.0868703,90.1788657,,"Tangail District, Dhaka Division, Bangladesh","টাঙ্গাইল জেলা, ঢাকা বিভাগ, বাংলাদেশ",,,,,বাংলাদেশ,ঢাকা বিভাগ,admin2,boundaries,['helipad'],[],Bangladesh,Dhaka,Tangail,Mirzapur,Gorai,25cfdd4b247c0adcf6b250135e0f2d88
2287,5123650563,893cf190ccfffff,24.3650787,89.8887406,Analiyabari bus station আনালিয়াবাড়ী বাস স্টেশন,"Analiyabari bus station, Kalihati, Tangail District, Dhaka Division, Bangladesh","আনালিয়াবাড়ী বাস স্টেশন, টাঙ্গাইল জেলা, ঢাকা বিভাগ, বাংলাদেশ",,,,Kalihati,বাংলাদেশ,ঢাকা বিভাগ,street,boundaries,['bus_stop'],[],Bangladesh,Dhaka,Tangail,Kalihati,Salla,ec496751c8d68e45ee935fd45852eedd
2293,5123657321,893cf190593ffff,24.3844176,89.8466821,Hazi market,"Hazi market, Kalihati, Tangail District, Dhaka Division, Bangladesh","টাঙ্গাইল জেলা, ঢাকা বিভাগ, বাংলাদেশ","Hazi market, ",,,Kalihati,বাংলাদেশ,ঢাকা বিভাগ,local_admin,boundaries,['marketplace'],[],Bangladesh,Dhaka,Tangail,Kalihati,Gohaliabari,ab08303976112999acc8acb647e4fcff
2299,5123657537,893cf190593ffff,24.3835813,89.8463523,Gohaliabari Hat,"Gohaliabari Hat, Kalihati, Tangail District, Dhaka Division, Bangladesh","টাঙ্গাইল জেলা, ঢাকা বিভাগ, বাংলাদেশ","Gohaliabari Hat, ",,,Kalihati,বাংলাদেশ,ঢাকা বিভাগ,local_admin,boundaries,['marketplace'],[],Bangladesh,Dhaka,Tangail,Kalihati,Gohaliabari,ab08303976112999acc8acb647e4fcff
2303,5123659473,893cf190593ffff,24.382519,89.8466886,জনতা ব্যাংক লিমিটেড,"Kalihati, Tangail District, Dhaka Division, Bangladesh","জনতা ব্যাংক লিমিটেড, টাঙ্গাইল জেলা, ঢাকা বিভাগ, বাংলাদেশ",,"জনতা ব্যাংক লিমিটেড, ","['Janata Bank Ltd, Durgapur Brance,jokarchor']",Kalihati,বাংলাদেশ,ঢাকা বিভাগ,local_admin,boundaries,['bank'],[],Bangladesh,Dhaka,Tangail,Kalihati,Gohaliabari,ab08303976112999acc8acb647e4fcff
2309,5123668927,893cf19059bffff,24.3820626,89.8470604,ডাচ বাংলা ব্যাংক,"Kalihati, Tangail District, Dhaka Division, Bangladesh","ডাচ বাংলা ব্যাংক, টাঙ্গাইল জেলা, ঢাকা বিভাগ, বাংলাদেশ",,"ডাচ বাংলা ব্যাংক, ",['Dutch bangla bank'],Kalihati,বাংলাদেশ,ঢাকা বিভাগ,local_admin,boundaries,['bank'],[],Bangladesh,Dhaka,Tangail,Kalihati,Durgapur,19d5dbef6f711c2c2e94dacbba534f37
2316,5123669359,893cf19059bffff,24.3818286,89.8468346,jokarchor bazar,"jokarchor bazar, Kalihati, Tangail District, Dhaka Division, Bangladesh","টাঙ্গাইল জেলা, ঢাকা বিভাগ, বাংলাদেশ","jokarchor bazar, ",,,Kalihati,বাংলাদেশ,ঢাকা বিভাগ,local_admin,boundaries,['marketplace'],[],Bangladesh,Dhaka,Tangail,Kalihati,Durgapur,19d5dbef6f711c2c2e94dacbba534f37
2320,5123675281,893cf1922afffff,24.3888353,89.8195698,MS Imran Enterprise এমএস ইমরান এন্টারপ্রাইজ,"MS Imran Enterprise, Bhuapur, Tangail District, Dhaka Division, Bangladesh","এমএস ইমরান এন্টারপ্রাইজ, টাঙ্গাইল জেলা, ঢাকা বিভাগ, বাংলাদেশ",,,,Bhuapur,বাংলাদেশ,ঢাকা বিভাগ,local_admin,boundaries,['fuel'],[],Bangladesh,Dhaka,Tangail,Kalihati,Gohaliabari,ab08303976112999acc8acb647e4fcff
2324,5123678457,893cf1922afffff,24.3892028,89.8200359,Bangabandhu Bridge East Railway Station Mosque বঙ্গবন্ধু সেতু পূর্ব রেলস্টেশন জামে মসজিদ,"Bangabandhu Bridge East Railway Station Mosque, Bhuapur, Tangail District, Dhaka Division, Bangladesh","বঙ্গবন্ধু সেতু পূর্ব রেলস্টেশন জামে মসজিদ, টাঙ্গাইল জেলা, ঢাকা বিভাগ, বাংলাদেশ",,,,Bhuapur,বাংলাদেশ,ঢাকা বিভাগ,local_admin,boundaries,['place_of_worship_muslim'],[],Bangladesh,Dhaka,Tangail,Kalihati,Gohaliabari,ab08303976112999acc8acb647e4fcff
2328,5123682332,893cf1922afffff,24.3892883,89.8193225,Park Village Resturent,"Park Village Resturent, Bhuapur, Tangail District, Dhaka Division, Bangladesh","টাঙ্গাইল জেলা, ঢাকা বিভাগ, বাংলাদেশ","Park Village Resturent, ",,,Bhuapur,বাংলাদেশ,ঢাকা বিভাগ,local_admin,boundaries,['restaurant'],[],Bangladesh,Dhaka,Tangail,Kalihati,Gohaliabari,ab08303976112999acc8acb647e4fcff
2333,5123692157,893cf1922bbffff,24.3900383,89.8117972,Harbar Fastfood & Juice Point জুস পয়েন্ট,"Harbar Fastfood & Juice Point, Bhuapur, Tangail District, Dhaka Division, Bangladesh","জুস পয়েন্ট, টাঙ্গাইল জেলা, ঢাকা বিভাগ, বাংলাদেশ",,,,Bhuapur,বাংলাদেশ,ঢাকা বিভাগ,local_admin,boundaries,['fast_food'],[],Bangladesh,Dhaka,Tangail,Kalihati,Gohaliabari,ab08303976112999acc8acb647e4fcff
2338,5168473084,893cf191383ffff,24.2936668,89.8236072,,"Tangail, Tangail District, Dhaka Division, Bangladesh","টাঙ্গাইল জেলা, ঢাকা বিভাগ, বাংলাদেশ",,,,Tangail,বাংলাদেশ,ঢাকা বিভাগ,local_admin,boundaries,['ferry_terminal'],[],Bangladesh,Dhaka,Tangail,TangailSadar,Hugra,f899e1316f021baa3b79fd66855e7bf9
2343,5168473118,893cf191383ffff,24.294146,89.8237789,,"Tangail, Tangail District, Dhaka Division, Bangladesh","টাঙ্গাইল জেলা, ঢাকা বিভাগ, বাংলাদেশ",,,,Tangail,বাংলাদেশ,ঢাকা বিভাগ,local_admin,boundaries,['ferry_terminal'],[],Bangladesh,Dhaka,Tangail,TangailSadar,Hugra,f899e1316f021baa3b79fd66855e7bf9
2438,5839497878,893cf185c77ffff,24.253028,90.1623495,Naluya Bazar,"Naluya Bazar, Tangail District, Dhaka Division, Bangladesh","টাঙ্গাইল জেলা, ঢাকা বিভাগ, বাংলাদেশ",Naluya Bazar,,,,বাংলাদেশ,ঢাকা বিভাগ,street,boundaries,['bus_stop'],[],Bangladesh,Dhaka,Tangail,Sakhipur,Jadabpur,f8e6c30dcb0ee1a12f3ef1685b9d5f3b
2503,6300475559,893cf183033ffff,24.2505813,89.9153487,Madhina Electronics and Telecom,"Madhina Electronics and Telecom, ",,"Madhina Electronics and Telecom, ",,,Tangail,বাংলাদেশ,ঢাকা বিভাগ,housenumber,sameSource,['electronics'],[],Bangladesh,Dhaka,Tangail,TangailSadar,TangailPaurashava,d3a53e2688067c7b18e5dcf57ba6e184
2512,6300483085,893cf1830afffff,24.2510046,89.9162373,Priyo Telecom,"Priyo Telecom, Tangail, Tangail District, Dhaka Division, Bangladesh","টাঙ্গাইল জেলা, ঢাকা বিভাগ, বাংলাদেশ","Priyo Telecom, ",,,Tangail,বাংলাদেশ,ঢাকা বিভাগ,local_admin,boundaries,['electronics'],[],Bangladesh,Dhaka,Tangail,TangailSadar,TangailPaurashava,d3a53e2688067c7b18e5dcf57ba6e184
2518,6300516931,893cf183033ffff,24.2505045,89.914581,Tangail Public Library,"Tangail Public Library, Tangail, Tangail District, Dhaka Division, Bangladesh","টাঙ্গাইল জেলা, ঢাকা বিভাগ, বাংলাদেশ","Tangail Public Library, ",,,Tangail,বাংলাদেশ,ঢাকা বিভাগ,local_admin,boundaries,['library'],[],Bangladesh,Dhaka,Tangail,TangailSadar,TangailPaurashava,d3a53e2688067c7b18e5dcf57ba6e184
